LineNo,UTC_Approx,TimeUS,Roll,Pitch,Yaw,Alt,Lat,Lng,Q1,Q2,Q3,Q4
373,2023-01-20 10:49:56.259152,116248155,-2.23,0.27,218.26,734.91,39.8043833,32.378802,-0.3277756,0.004154536,-0.01916377,0.9445521
963,2023-01-20 10:49:56.350188,116348244,-2.27,0.21,218.26,734.93,39.8043834,32.3788019,-0.3277793,0.004705274,-0.01940355,0.9445433
1121,2023-01-20 10:49:56.452130,116454673,-2.32,0.19,218.27,734.93,39.8043832,32.3788021,-0.3277996,0.005037488,-0.01969293,0.9445286
1340,2023-01-20 10:49:56.564810,116566344,-2.35,0.2,218.27,734.94,39.8043832,32.3788021,-0.3278315,0.005073871,-0.02002858,0.9445103
1560,2023-01-20 10:49:56.665618,116667084,-2.35,0.17,218.28,734.89,39.8043831,32.3788018,-0.3278609,0.005275344,-0.01989851,0.9445017
1880,2023-01-20 10:49:56.765231,116767071,-2.32,0.13,218.28,734.91,39.8043831,32.3788017,-0.3278637,0.005571404,-0.01952268,0.9445069
1925,2023-01-20 10:49:56.865121,116867092,-2.27,0.15,218.28,734.93,39.8043833,32.3788015,-0.3278788,0.005270737,-0.01920854,0.9445098
1973,2023-01-20 10:49:56.965095,116967067,-2.22,0.21,218.28,734.88,39.8043834,32.3788014,-0.3279251,0.004614134,-0.01894927,0.9445024
2023,2023-01-20 10:49:57.065115,117067074,-2.22,0.25,218.28,734.93,39.8043834,32.3788016,-0.3279459,0.004270321,-0.01908366,0.9444941
2069,2023-01-20 10:49:57.165171,117167109,-2.26,0.28,218.29,734.91,39.8043835,32.3788016,-0.3279728,0.00410608,-0.01946852,0.9444776
2119,2023-01-20 10:49:57.272314,117267064,-2.3,0.32,218.29,734.9,39.8043835,32.3788019,-0.3279745,0.003873863,-0.01993144,0.9444683
2178,2023-01-20 10:49:57.383358,117367081,-2.34,0.37,218.29,734.92,39.8043836,32.378802,-0.3280095,0.003614866,-0.02043533,0.9444464
2234,2023-01-20 10:49:57.477305,117467102,-2.3,0.35,218.29,734.95,39.8043837,32.3788018,-0.3280489,0.003687587,-0.02001641,0.9444415
2293,2023-01-20 10:49:57.568187,117567068,-2.24,0.31,218.29,734.93,39.8043838,32.3788018,-0.3280481,0.003844741,-0.0193732,0.9444546
2349,2023-01-20 10:49:57.665018,117667092,-2.22,0.28,218.29,734.93,39.8043836,32.3788019,-0.3280367,0.004010097,-0.01916176,0.9444621
2407,2023-01-20 10:49:57.765046,117767142,-2.23,0.27,218.3,734.94,39.8043837,32.3788018,-0.3280673,0.004182976,-0.01923131,0.9444493
2450,2023-01-20 10:49:57.864964,117867088,-2.23,0.24,218.3,734.94,39.8043836,32.3788018,-0.3280874,0.004397233,-0.01914458,0.9444432
2495,2023-01-20 10:49:57.964906,117967060,-2.22,0.2,218.3,734.93,39.8043836,32.3788017,-0.3280986,0.004656686,-0.01897752,0.9444414
2534,2023-01-20 10:49:58.064999,118067109,-2.24,0.2,218.3,734.93,39.8043835,32.3788018,-0.3280943,0.004735159,-0.0190827,0.9444403
2576,2023-01-20 10:49:58.165081,118167109,-2.27,0.22,218.3,734.93,39.8043835,32.3788017,-0.3281044,0.004679631,-0.0193677,0.9444314
2616,2023-01-20 10:49:58.265053,118267072,-2.26,0.25,218.3,734.93,39.8043836,32.3788017,-0.3281108,0.004428624,-0.0194069,0.9444295
2656,2023-01-20 10:49:58.365041,118367090,-2.23,0.29,218.3,734.94,39.8043837,32.3788016,-0.3280611,0.003960904,-0.01923141,0.9444524
2695,2023-01-20 10:49:58.465067,118467128,-2.21,0.22,218.28,734.92,39.8043835,32.378801,-0.327895,0.004455455,-0.01895103,0.9445136
2736,2023-01-20 10:49:58.564999,118567062,-2.21,0.12,218.3,734.9,39.8043835,32.3788008,-0.3280267,0.005341167,-0.01863941,0.9444694
2778,2023-01-20 10:49:58.665012,118667093,-2.23,0.16,218.3,734.95,39.8043837,32.3788013,-0.3281055,0.005029147,-0.01889318,0.9444388
2817,2023-01-20 10:49:58.765029,118767137,-2.26,0.3,218.31,734.95,39.8043838,32.3788013,-0.3281711,0.003974064,-0.01952133,0.9444082
2861,2023-01-20 10:49:58.864980,118867096,-2.29,0.3,218.3,734.94,39.8043835,32.3788013,-0.328122,0.004057249,-0.01983593,0.9444184
2900,2023-01-20 10:49:58.964954,118967069,-2.33,0.22,218.29,734.94,39.8043835,32.3788013,-0.3280174,0.004804531,-0.01993017,0.9444492
2939,2023-01-20 10:49:59.065018,119067115,-2.33,0.24,218.27,734.92,39.8043836,32.3788015,-0.3278035,0.004674769,-0.01990262,0.9445247
2980,2023-01-20 10:49:59.165032,119167102,-2.3,0.29,218.3,734.92,39.8043837,32.3788015,-0.3280663,0.00414036,-0.01984557,0.9444371
3019,2023-01-20 10:49:59.265003,119267065,-2.2,0.28,218.28,734.87,39.8043838,32.3788009,-0.3279156,0.003932459,-0.01895792,0.9445086
3058,2023-01-20 10:49:59.365027,119367090,-2.08,0.22,218.3,734.87,39.804384,32.3788007,-0.3280458,0.004115928,-0.01778756,0.9444854
3098,2023-01-20 10:49:59.465046,119467113,-2.09,0.22,218.32,734.83,39.804384,32.3788012,-0.3282654,0.004168913,-0.01791731,0.9444064
3139,2023-01-20 10:49:59.565002,119567073,-2.2,0.25,218.3,734.77,39.8043841,32.3788012,-0.3280539,0.004171518,-0.01892743,0.9444602
3180,2023-01-20 10:49:59.665020,119667104,-2.23,0.26,218.29,734.76,39.8043841,32.3788014,-0.3280391,0.004248132,-0.01921025,0.9444592
3219,2023-01-20 10:49:59.765037,119767140,-2.23,0.23,218.33,734.73,39.8043841,32.3788013,-0.3283338,0.004431735,-0.0190828,0.9443586
3258,2023-01-20 10:49:59.864953,119867065,-2.28,0.24,218.32,734.83,39.8043842,32.3788018,-0.328242,0.004538971,-0.01953434,0.9443808
3297,2023-01-20 10:49:59.964942,119967059,-2.38,0.28,218.31,734.83,39.8043842,32.3788019,-0.3281367,0.004507301,-0.02046171,0.9443978
3336,2023-01-20 10:50:00.064999,120067100,-2.36,0.32,218.34,734.87,39.8043845,32.3788019,-0.3284286,0.004151789,-0.02044869,0.9442983
3378,2023-01-20 10:50:00.165033,120167107,-2.29,0.35,218.32,734.85,39.8043846,32.3788019,-0.3282583,0.003674632,-0.01989688,0.9443713
3417,2023-01-20 10:50:00.264996,120267066,-2.28,0.3,218.3,734.92,39.8043843,32.378802,-0.3280545,0.004007209,-0.01975762,0.9444436
3456,2023-01-20 10:50:00.365013,120367091,-2.33,0.23,218.35,734.9,39.8043843,32.378802,-0.3284591,0.004711022,-0.01991243,0.9442965
3496,2023-01-20 10:50:00.465002,120467078,-2.34,0.19,218.35,734.9,39.8043842,32.378802,-0.3285206,0.005117597,-0.01988434,0.9442736
3536,2023-01-20 10:50:00.565001,120567070,-2.33,0.18,218.34,734.96,39.8043842,32.378802,-0.3284174,0.005186915,-0.01972263,0.9443125
3579,2023-01-20 10:50:00.665022,120667097,-2.32,0.18,218.35,734.93,39.8043841,32.3788021,-0.3285087,0.005109854,-0.0196583,0.9442825
3618,2023-01-20 10:50:00.765046,120767133,-2.32,0.19,218.34,734.87,39.8043841,32.3788021,-0.3284274,0.005059819,-0.0197259,0.9443097
3659,2023-01-20 10:50:00.864968,120867071,-2.37,0.21,218.33,734.9,39.804384,32.3788026,-0.3283317,0.005045515,-0.02015464,0.944334
3696,2023-01-20 10:50:00.964949,120967071,-2.43,0.24,218.37,734.9,39.804384,32.3788027,-0.3286249,0.004985584,-0.02075537,0.9442193
3728,2023-01-20 10:50:01.065015,121067139,-2.4,0.23,218.39,734.8,39.8043839,32.3788025,-0.3288379,0.005008894,-0.02050715,0.9441504
3761,2023-01-20 10:50:01.165035,121167152,-2.3,0.2,218.38,734.81,39.8043839,32.3788025,-0.328724,0.00494554,-0.01960988,0.9442095
3793,2023-01-20 10:50:01.264973,121267123,-2.27,0.22,218.38,734.83,39.804384,32.3788027,-0.3287152,0.004646119,-0.01939462,0.9442185
3824,2023-01-20 10:50:01.365037,121367241,-2.25,0.29,218.37,734.83,39.8043842,32.3788027,-0.3286685,0.004078273,-0.0194435,0.9442363
3856,2023-01-20 10:50:01.464906,121467096,-2.18,0.3,218.36,734.77,39.8043844,32.3788028,-0.3285713,0.003719975,-0.01888021,0.9442831
3889,2023-01-20 10:50:01.564986,121567124,-2.13,0.4,218.36,734.35,39.8043845,32.3788028,-0.328564,0.002752481,-0.01877139,0.9442911
3924,2023-01-20 10:50:01.665126,121667245,-2.09,0.46,218.3,734.54,39.8043843,32.3788027,-0.3280887,0.002178997,-0.01856222,0.944462
3955,2023-01-20 10:50:01.765369,121767486,-2.15,0.31,217.97,733.54,39.8043843,32.3788026,-0.3253853,0.003499698,-0.01867509,0.9453906
3988,2023-01-20 10:50:01.865319,121867484,-2.07,0.41,218.82,733.78,39.8043839,32.378803,-0.3324025,0.002556993,-0.01826537,0.9429572
4020,2023-01-20 10:50:01.965275,121967516,-1.26,0.68,219.35,732.92,39.8043838,32.378803,-0.3368168,-0.001940093,-0.01242903,0.9414861
4052,2023-01-20 10:50:02.065262,122067486,-0.49,0.95,219.57,733.31,39.8043839,32.3788034,-0.3385354,-0.006355273,-0.006918547,0.9409068
4085,2023-01-20 10:50:02.165349,122167507,0.29,0.89,219.58,734.02,39.804384,32.3788034,-0.3386118,-0.008252814,-0.0002182883,0.9408899
4117,2023-01-20 10:50:02.265405,122267541,0.09,0.09,219.46,735.1,39.804384,32.3788042,-0.3376776,-0.001044403,0.0004903799,0.9412612
4148,2023-01-20 10:50:02.365333,122367471,-0.22,-0.18,219.33,735.29,39.8043841,32.3788045,-0.3365607,0.002144012,-0.001324308,0.9416584
4180,2023-01-20 10:50:02.465075,122467474,0.17,-0.63,219.46,735.29,39.8043838,32.3788042,-0.3376123,0.004694638,0.003321048,0.9412677
4213,2023-01-20 10:50:02.564451,122567246,-0.16,-0.7,219.84,735.44,39.8043839,32.3788042,-0.3407491,0.006280333,0.0007533086,0.9401329
4249,2023-01-20 10:50:02.664300,122667213,-0.41,-0.76,220.33,735.39,39.8043838,32.3788037,-0.3447926,0.007521437,-0.001106732,0.9386481
4279,2023-01-20 10:50:02.764329,122767205,-0.25,-0.41,220.82,735.49,39.8043838,32.3788036,-0.3488191,0.00416698,-0.0008169967,0.9371805
4314,2023-01-20 10:50:02.864341,122867220,0.11,0.1,221.15,735.47,39.8043841,32.3788047,-0.3514666,-0.001221352,0.0005811714,0.9361994
4344,2023-01-20 10:50:02.964235,122967139,0.19,0.02,221.25,735.57,39.8043841,32.378805,-0.3523449,-0.000759253,0.001503826,0.9358687
4377,2023-01-20 10:50:03.064239,123067153,0.19,-0.42,221.14,735.63,39.8043824,32.3788056,-0.351405,0.002901273,0.002878222,0.9362146
4409,2023-01-20 10:50:03.164348,123167264,0.48,-0.2,220.86,735.65,39.8043819,32.3788059,-0.3491125,0.0001637691,0.004592989,0.9370696
4442,2023-01-20 10:50:03.264217,123267130,0.86,0.59,220.62,735.55,39.8043827,32.3788067,-0.3471139,-0.007488963,0.00532217,0.9377779
4472,2023-01-20 10:50:03.364242,123367150,1.32,1.18,220.73,735.64,39.8043826,32.3788071,-0.3479337,-0.01369185,0.007294916,0.9373907
4505,2023-01-20 10:50:03.464243,123467140,1.91,0.89,221.08,735.56,39.8043817,32.3788065,-0.3507757,-0.0131719,0.01293775,0.9362774
4537,2023-01-20 10:50:03.564235,123567119,2.4,0.34,221.61,735.71,39.8043815,32.3788065,-0.3551076,-0.01026309,0.01852009,0.9345856
4573,2023-01-20 10:50:03.664338,123667219,2.21,0.08,222.21,735.72,39.8043814,32.3788059,-0.3600365,-0.007691502,0.01776978,0.9327372
4603,2023-01-20 10:50:03.764323,123767208,2.08,0.1,222.77,735.78,39.8043812,32.3788057,-0.3646426,-0.007455301,0.01659529,0.9309698
4637,2023-01-20 10:50:03.864462,123867148,1.72,0.22,223.09,735.87,39.8043815,32.3788046,-0.3672409,-0.007386019,0.01329139,0.9300016
4669,2023-01-20 10:50:03.964857,123967231,1.23,0.42,223.33,735.96,39.8043816,32.3788041,-0.3691654,-0.007447257,0.008609884,0.9292939
4702,2023-01-20 10:50:04.064916,124067137,0.44,0.6,223.14,735.96,39.8043831,32.3788037,-0.367647,-0.006360328,0.001652928,0.9299422
4734,2023-01-20 10:50:04.165072,124167226,-1.25,1,222.62,736.1,39.8043836,32.3788033,-0.3635077,-0.004208329,-0.01336208,0.9314859
4767,2023-01-20 10:50:04.265097,124267230,-3.13,1.04,222.12,736.08,39.804384,32.3788033,-0.3595082,0.001286222,-0.02878143,0.9326971
4797,2023-01-20 10:50:04.365001,124367138,-4.31,0.16,221.73,736.16,39.8043845,32.3788029,-0.3560512,0.01207955,-0.03571676,0.9337054
4830,2023-01-20 10:50:04.464950,124467115,-5.1,-0.35,221.39,736.23,39.804384,32.3788037,-0.3529941,0.01866394,-0.04057327,0.934559
4863,2023-01-20 10:50:04.564939,124567144,-4.54,-0.66,220.94,736.33,39.8043843,32.3788037,-0.3493169,0.01928908,-0.03511345,0.9361478
4899,2023-01-20 10:50:04.664967,124667158,-2.96,-0.47,220.52,736.5,39.8043846,32.3788032,-0.3461276,0.01281843,-0.02283893,0.9378217
4929,2023-01-20 10:50:04.765009,124767158,-1.65,-0.37,219.86,736.54,39.804385,32.378803,-0.3408209,0.007981841,-0.01242932,0.9400122
4963,2023-01-20 10:50:04.865080,124867245,-0.95,-0.34,219,736.67,39.8043839,32.3788024,-0.3337966,0.005628242,-0.006887984,0.9426031
4993,2023-01-20 10:50:04.964923,124967135,-1.48,-0.25,218.67,736.63,39.8043839,32.3788021,-0.3311201,0.00641623,-0.0114868,0.9434969
5026,2023-01-20 10:50:05.065019,125067216,-2.34,0.13,219.1,736.71,39.8043838,32.3788033,-0.3346083,0.005735578,-0.01967358,0.9421344
5058,2023-01-20 10:50:05.165065,125167214,-2.83,0.59,219.92,736.85,39.8043838,32.3788035,-0.3414378,0.003581561,-0.02500818,0.9395648
5091,2023-01-20 10:50:05.264994,125267129,-2.8,0.81,220.87,736.98,39.8043835,32.3788034,-0.3492145,0.001903395,-0.02540693,0.9366964
5121,2023-01-20 10:50:05.365383,125367523,-2.35,0.91,221.48,737.03,39.8043834,32.3788035,-0.3542186,-0.000159461,-0.02204265,0.9349028
5154,2023-01-20 10:50:05.465002,125467135,-1.48,1.36,221.71,737.07,39.8043836,32.3788043,-0.3561841,-0.006526642,-0.01630975,0.9342507
5186,2023-01-20 10:50:05.565021,125567140,-1.04,1.46,221.43,737.14,39.8043836,32.3788046,-0.3538364,-0.008761268,-0.01302981,0.9351755
5223,2023-01-20 10:50:05.665102,125667215,-0.83,0.35,220.88,737.22,39.804383,32.3788041,-0.3493253,-0.0003741542,-0.007928436,0.9369678
5253,2023-01-20 10:50:05.765380,125767490,-0.52,-0.9,220.08,737.39,39.8043828,32.378804,-0.3426933,0.008969785,-0.001638406,0.9394031
5287,2023-01-20 10:50:05.859450,125867492,-0.42,-1.79,219.13,737.54,39.8043818,32.3788055,-0.3348772,0.01600389,0.001747571,0.9421242
5317,2023-01-20 10:50:05.950352,125967467,-0.06,-1.59,218.09,737.65,39.8043814,32.3788059,-0.3263017,0.01331747,0.003988831,0.9451634
5350,2023-01-20 10:50:06.045434,126067488,-0.04,-1.37,216.93,737.75,39.8043817,32.3788054,-0.3167774,0.01155002,0.003422805,0.9484234
5382,2023-01-20 10:50:06.145199,126167217,0.47,-1.4,215.75,737.83,39.8043817,32.3788053,-0.3070616,0.0103685,0.007714925,0.9516019
5415,2023-01-20 10:50:06.244587,126267143,0.53,-1.57,214.79,738.01,39.8043815,32.3788048,-0.2990603,0.01172499,0.008599009,0.9541234
5447,2023-01-20 10:50:06.343651,126367445,-0.15,-1.89,214.55,738.11,39.8043813,32.3788045,-0.2969318,0.01618532,0.003606027,0.9547547
5480,2023-01-20 10:50:06.442627,126467131,-1.13,-1.97,215.15,738.34,39.8043812,32.3788045,-0.3018253,0.01941071,-0.004241311,0.9531562
5512,2023-01-20 10:50:06.542626,126567142,-2.58,-2.26,216.02,738.49,39.8043811,32.3788042,-0.3087192,0.02578503,-0.01531611,0.9506803
5548,2023-01-20 10:50:06.642711,126667262,-3.13,-3.06,216.71,738.46,39.804379,32.3788046,-0.3140341,0.03398285,-0.01755737,0.9486409
5578,2023-01-20 10:50:06.742531,126767146,-3.07,-3.53,216.87,738.49,39.8043782,32.3788047,-0.315239,0.03774974,-0.01568768,0.9481314
5612,2023-01-20 10:50:06.842461,126867151,-2.16,-3.6,216.48,738.57,39.8043776,32.3788037,-0.3123108,0.03579013,-0.008046788,0.9492714
5642,2023-01-20 10:50:06.942364,126967144,-0.51,-2.92,215.57,738.64,39.8043767,32.3788034,-0.305303,0.02570652,0.003503016,0.9519018
5675,2023-01-20 10:50:07.042420,127067259,-0.04,-3.11,214.66,738.7,39.8043761,32.3788026,-0.297795,0.02609895,0.007718295,0.9542418
5707,2023-01-20 10:50:07.142298,127167154,-0.04,-3.11,214.06,738.82,39.8043753,32.3788023,-0.2928461,0.02606415,0.007616713,0.9557739
5740,2023-01-20 10:50:07.242300,127267140,-0.3,-3.15,213.85,738.94,39.8043751,32.3788007,-0.2910014,0.02714608,0.005496061,0.9563216
5770,2023-01-20 10:50:07.342695,127367472,-0.6,-3.02,213.95,738.86,39.8043744,32.3787999,-0.2918156,0.02673856,0.002675496,0.956097
5803,2023-01-20 10:50:07.442395,127467173,-0.75,-2.49,214.12,738.83,39.8043724,32.3787999,-0.29319,0.02277797,9.959621E-05,0.9557828
5835,2023-01-20 10:50:07.542271,127567135,-0.58,-2.08,214.3,738.77,39.8043713,32.3787993,-0.2947997,0.01885202,0.0004819327,0.9553729
5871,2023-01-20 10:50:07.647076,127667221,-0.73,-1.91,214.41,738.81,39.8043691,32.378799,-0.2956907,0.01785345,-0.001213075,0.9551161
5901,2023-01-20 10:50:07.758261,127767142,-0.61,-2.31,214.49,738.87,39.8043677,32.3787984,-0.296351,0.02086201,0.0008847872,0.9548508
5935,2023-01-20 10:50:07.856735,127867145,-0.37,-2.87,214.61,739,39.8043665,32.378798,-0.2973189,0.02493193,0.004300127,0.954443
5967,2023-01-20 10:50:07.947524,127967147,-0.22,-3.58,214.8,739.05,39.8043653,32.3787974,-0.2988769,0.03042644,0.007495996,0.953777
6000,2023-01-20 10:50:08.042196,128067152,0.08,-3.75,215.02,739.01,39.8043633,32.3787962,-0.3007869,0.0310474,0.01055705,0.9531274
6032,2023-01-20 10:50:08.142286,128167260,0.56,-3.35,215.27,738.98,39.8043617,32.3787953,-0.3030217,0.02639578,0.01358613,0.9525211
6065,2023-01-20 10:50:08.242165,128267132,0.94,-2.43,215.69,739.05,39.80436,32.3787938,-0.3065765,0.01771922,0.01433574,0.9515731
6095,2023-01-20 10:50:08.342544,128367469,1.1,-0.82,216.5,738.99,39.8043583,32.3787927,-0.313262,0.003812383,0.01139504,0.9495907
6128,2023-01-20 10:50:08.442233,128467137,1.14,-0.03,217.37,738.93,39.8043569,32.3787916,-0.3204411,-0.002933343,0.009560687,0.9472157
6160,2023-01-20 10:50:08.542224,128567134,1.11,-0.05,217.95,739.01,39.8043554,32.3787904,-0.3251741,-0.002673635,0.009373307,0.9456039
6196,2023-01-20 10:50:08.642301,128667219,1.15,-0.58,218.22,739.07,39.8043546,32.3787888,-0.3274913,0.001544759,0.01123943,0.9447861
6226,2023-01-20 10:50:08.742206,128767132,0.94,-1.16,218.25,739.13,39.8043533,32.3787875,-0.3277808,0.006917055,0.01113357,0.9446629
6260,2023-01-20 10:50:08.842350,128867240,0.62,-1.75,217.96,739.18,39.8043516,32.3787859,-0.3252985,0.01272538,0.01012052,0.9454716
6293,2023-01-20 10:50:08.942340,128967132,-0.09,-1.91,217.52,739.23,39.8043503,32.3787844,-0.3215902,0.01613339,0.004581543,0.9467304
6326,2023-01-20 10:50:09.042427,129067146,-1.04,-1.93,217.2,739.28,39.8043478,32.3787826,-0.3188139,0.01893704,-0.003248649,0.9476226
6358,2023-01-20 10:50:09.142478,129167158,-1.66,-1.83,217.24,739.33,39.804346,32.3787809,-0.3190859,0.01979389,-0.008626304,0.9474798
6391,2023-01-20 10:50:09.242406,129267140,-1.8,-0.95,217.61,739.46,39.8043437,32.378779,-0.3222453,0.01296387,-0.01218181,0.946489
6421,2023-01-20 10:50:09.342536,129367451,-1.86,-0.22,218.09,739.45,39.8043417,32.3787773,-0.3263078,0.00714305,-0.01475765,0.9451213
6454,2023-01-20 10:50:09.442210,129467749,-1.67,1.56,218.73,739.63,39.8043398,32.378776,-0.3317673,-0.008067849,-0.01832923,0.9431487
6486,2023-01-20 10:50:09.541111,129567870,-1.05,3.36,219.61,739.71,39.8043378,32.3787744,-0.3389629,-0.02451275,-0.01862745,0.9402959
6522,2023-01-20 10:50:09.640393,129667880,-0.16,4.11,220.61,739.74,39.8043368,32.3787736,-0.3469349,-0.03314961,-0.01383688,0.937201
6552,2023-01-20 10:50:09.740369,129767857,0.21,4.1,221.37,739.83,39.8043351,32.3787722,-0.3530094,-0.03411932,-0.01090929,0.9349338
6586,2023-01-20 10:50:09.840435,129867933,0.45,3.63,221.94,739.85,39.804333,32.3787702,-0.3576105,-0.03103363,-0.007675434,0.9333234
6617,2023-01-20 10:50:09.940352,129967872,0.53,3.18,222.28,739.9,39.8043312,32.3787685,-0.3604117,-0.02756798,-0.005698628,0.9323685
6650,2023-01-20 10:50:10.040356,130067879,0.17,3.02,222.44,740.04,39.8043301,32.3787682,-0.3618111,-0.02517601,-0.008152627,0.9318758
6682,2023-01-20 10:50:10.140464,130167962,0,2.62,222.63,740.09,39.8043284,32.378767,-0.3634816,-0.02132382,-0.008398499,0.9313194
6715,2023-01-20 10:50:10.240286,130267873,-0.09,1.98,222.83,740.1,39.8043269,32.3787653,-0.3651435,-0.01585895,-0.007110961,0.930789
6745,2023-01-20 10:50:10.340119,130367965,-0.24,1.39,222.91,740.11,39.8043253,32.378764,-0.3658429,-0.01049689,-0.006463352,0.930595
6778,2023-01-20 10:50:10.439884,130467896,-0.04,1.41,222.84,740.14,39.8043251,32.3787626,-0.3652248,-0.01136434,-0.004858976,0.9308373
6810,2023-01-20 10:50:10.539872,130567911,0.33,2.36,222.68,740.05,39.8043237,32.3787613,-0.3638178,-0.02029614,-0.004812581,0.9312366
6846,2023-01-20 10:50:10.639867,130667929,0.66,5.16,222.53,740.15,39.804323,32.3787604,-0.3620874,-0.04404671,-0.01095155,0.9310385
6876,2023-01-20 10:50:10.739825,130767905,0.8,8.84,222.34,740.16,39.8043219,32.3787592,-0.3596255,-0.07440048,-0.02129796,0.929882
6910,2023-01-20 10:50:10.839849,130867975,0.55,11.34,222.08,740.12,39.8043199,32.378758,-0.3568961,-0.09398221,-0.03102604,0.9288864
6940,2023-01-20 10:50:10.939706,130967921,0.06,11.27,221.83,740.1,39.8043185,32.3787568,-0.3552454,-0.09198643,-0.03455843,0.9295939
6973,2023-01-20 10:50:11.039685,131067919,-0.13,9.43,221.35,740.17,39.8043174,32.3787558,-0.3520387,-0.07656603,-0.03011259,0.9323624
7005,2023-01-20 10:50:11.139847,131167994,-0.17,7.91,220.74,740.29,39.8043162,32.3787547,-0.3473859,-0.06416007,-0.02548314,0.9351776
7039,2023-01-20 10:50:11.239809,131267907,0.01,7.29,220.18,740.57,39.8043164,32.3787539,-0.3428797,-0.05980117,-0.021773,0.937221
7069,2023-01-20 10:50:11.339816,131367921,-0.42,6.87,219.68,740.49,39.8043156,32.3787529,-0.3390272,-0.05510418,-0.02385813,0.9388583
7102,2023-01-20 10:50:11.439795,131467902,-0.69,6.71,219.22,740.4,39.8043146,32.3787529,-0.3354642,-0.05309849,-0.02533678,0.940214
7133,2023-01-20 10:50:11.539809,131567910,-1.02,6.42,218.74,740.46,39.8043138,32.3787523,-0.3317054,-0.04985044,-0.027031,0.9416772
7169,2023-01-20 10:50:11.639834,131667931,-1.41,5.95,218.37,740.51,39.8043139,32.3787512,-0.3288108,-0.04497414,-0.02874258,0.9428864
7199,2023-01-20 10:50:11.739811,131767909,-1.04,5.29,218.36,740.32,39.8043133,32.3787506,-0.3286108,-0.04060552,-0.02375684,0.943293
7233,2023-01-20 10:50:11.839829,131867957,-1.26,5.14,218.52,740.38,39.8043133,32.3787501,-0.3300703,-0.03876233,-0.02521042,0.9428232
7263,2023-01-20 10:50:11.939701,131967904,-1.39,5.45,218.97,740.38,39.8043128,32.3787496,-0.3337931,-0.04078386,-0.02732566,0.9413672
7296,2023-01-20 10:50:12.039716,132067932,-1.59,5.54,219.78,740.48,39.804312,32.3787489,-0.3404451,-0.0407502,-0.02955711,0.9389158
7328,2023-01-20 10:50:12.139839,132167974,-1.77,5.39,220.86,740.5,39.8043115,32.3787482,-0.3493821,-0.03873074,-0.03090169,0.9356693
7361,2023-01-20 10:50:12.239812,132267899,-2.07,5.17,221.86,740.63,39.8043118,32.3787478,-0.3576004,-0.03569598,-0.03299993,0.9326086
7391,2023-01-20 10:50:12.339832,132367923,-2.61,4.8,222.24,740.53,39.8043114,32.3787473,-0.3608767,-0.03084632,-0.03635302,0.9313941
7424,2023-01-20 10:50:12.439792,132467888,-2.61,4.84,222.23,740.41,39.804312,32.3787469,-0.3608085,-0.0312395,-0.03649461,0.9314019
7456,2023-01-20 10:50:12.539804,132567907,-2.28,4.95,222.17,740.34,39.8043118,32.3787466,-0.360188,-0.03318598,-0.03412515,0.9316645
7492,2023-01-20 10:50:12.639825,132667929,-2.15,4.83,222.23,740.3,39.8043113,32.3787469,-0.3606904,-0.03254423,-0.03272326,0.9315431
7522,2023-01-20 10:50:12.739804,132767897,-1.93,4,222.35,740.29,39.804311,32.3787469,-0.3615633,-0.02651163,-0.02835429,0.9315391
7556,2023-01-20 10:50:12.839801,132867917,-1.38,3.49,221.89,740.54,39.8043113,32.3787467,-0.3576591,-0.0241695,-0.02223215,0.9332746
7587,2023-01-20 10:50:12.939726,132967916,-0.6,3.41,220.97,740.48,39.8043114,32.3787467,-0.3499872,-0.026063,-0.01536346,0.9362658
7620,2023-01-20 10:50:13.039712,133067917,-0.31,3.55,219.89,740.46,39.8043109,32.378747,-0.3411199,-0.02824765,-0.01320897,0.9395024
7652,2023-01-20 10:50:13.139846,133167976,-0.44,3.18,218.72,740.52,39.8043108,32.3787473,-0.331558,-0.02496527,-0.01284657,0.943017
7685,2023-01-20 10:50:13.239814,133267901,-0.75,2.83,217.41,740.43,39.8043112,32.3787464,-0.3208198,-0.02133339,-0.01421421,0.9467933
7715,2023-01-20 10:50:13.339827,133367917,-0.92,2.58,215.84,740.39,39.8043112,32.3787463,-0.3078408,-0.01894992,-0.01456731,0.9511376
7748,2023-01-20 10:50:13.439807,133467899,-1.02,2.7,214.15,740.46,39.8043107,32.3787465,-0.2937933,-0.01990198,-0.0154559,0.9555368
7780,2023-01-20 10:50:13.539815,133567906,-0.46,3.01,212.71,739.97,39.8043106,32.3787467,-0.281629,-0.0240779,-0.0113173,0.9591544
7816,2023-01-20 10:50:13.639841,133667933,0.14,3.13,211.71,739.68,39.8043108,32.3787466,-0.273159,-0.0266501,-0.006221657,0.9615796
7846,2023-01-20 10:50:13.739809,133767902,0.26,3.11,211.35,739.64,39.8043108,32.3787469,-0.2700858,-0.02674983,-0.005119517,0.962451
7880,2023-01-20 10:50:13.839791,133867918,-0.53,2.86,211.73,739.74,39.8043109,32.3787474,-0.2734654,-0.02280323,-0.01131616,0.9615449
7912,2023-01-20 10:50:13.939691,133967901,-0.15,2.13,212.15,739.73,39.8043108,32.378748,-0.2769448,-0.01750628,-0.006425915,0.9607049
7945,2023-01-20 10:50:14.039688,134067919,0.73,1.96,212.55,739.45,39.8043102,32.3787475,-0.2801794,-0.01824616,0.001338827,0.9597733
7977,2023-01-20 10:50:14.139816,134167973,0.94,2.61,213.15,739.64,39.8043102,32.3787478,-0.2851062,-0.02418057,0.001391111,0.9581898
8010,2023-01-20 10:50:14.239788,134267898,1.36,2.98,213.8,739.91,39.8043104,32.3787466,-0.2903391,-0.02835187,0.003865984,0.9564959
8040,2023-01-20 10:50:14.339828,134367930,1.07,3.24,214.3,739.95,39.8043104,32.3787465,-0.2945681,-0.02984272,0.0006463239,0.9551642
8073,2023-01-20 10:50:14.439800,134467898,0.7,3.66,214.63,739.96,39.8043101,32.3787467,-0.297365,-0.03238941,-0.00368972,0.9542072
8106,2023-01-20 10:50:14.539808,134567906,0.4,3.87,214.97,740.07,39.8043101,32.3787468,-0.3001942,-0.03333525,-0.006813441,0.9532711
8142,2023-01-20 10:50:14.639831,134667929,0.25,4.07,215.37,740.03,39.8043092,32.3787475,-0.3036183,-0.03456632,-0.008729895,0.9521265
8172,2023-01-20 10:50:14.739803,134767901,0.36,3.95,215.84,740.25,39.8043089,32.3787479,-0.3074656,-0.03381475,-0.007632867,0.9509276
8206,2023-01-20 10:50:14.839786,134867917,0.46,4.36,216.11,740.03,39.8043098,32.3787467,-0.309593,-0.03746173,-0.007965372,0.9500976
8236,2023-01-20 10:50:14.939689,134967904,0.58,4.72,216.05,739.89,39.8043099,32.3787466,-0.3090143,-0.04077993,-0.00791364,0.9501497
8269,2023-01-20 10:50:15.039676,135067916,0.71,4.67,215.74,740.16,39.8043094,32.3787475,-0.3064181,-0.04073887,-0.006555409,0.9510023
8301,2023-01-20 10:50:15.139801,135167976,0.86,4.61,215.18,740.01,39.8043094,32.3787478,-0.3016817,-0.04065444,-0.004971951,0.9525286
8334,2023-01-20 10:50:15.239779,135267907,0.76,5.08,214.85,740.1,39.8043095,32.3787477,-0.2989556,-0.04435551,-0.00689206,0.9532107
8364,2023-01-20 10:50:15.339816,135367924,0.76,4.91,214.75,740.2,39.8043095,32.3787479,-0.298173,-0.04288817,-0.006437919,0.9535261
8397,2023-01-20 10:50:15.439845,135467942,0.6,4.78,214.69,740.25,39.8043097,32.3787477,-0.2977368,-0.04137874,-0.007426273,0.9537219
8429,2023-01-20 10:50:15.539808,135567908,0.56,4.57,214.57,740.27,39.8043098,32.3787477,-0.2967804,-0.03957178,-0.00711601,0.954099
8465,2023-01-20 10:50:15.639827,135667928,0.65,4.63,214.23,740.17,39.8043093,32.3787483,-0.2938714,-0.04031465,-0.006440386,0.9549727
8495,2023-01-20 10:50:15.739813,135767912,-0.17,4.61,213.72,740.11,39.8043094,32.3787485,-0.289949,-0.03809457,-0.01317088,0.9561929
8529,2023-01-20 10:50:15.839808,135867917,-0.22,4.81,212.84,740.2,39.804309,32.3787489,-0.2825279,-0.03978052,-0.01373498,0.9583355
8559,2023-01-20 10:50:15.939775,135967915,-0.14,4.65,211.19,740.24,39.8043089,32.3787492,-0.2687267,-0.0388139,-0.01213214,0.9623576
8592,2023-01-20 10:50:16.039773,136067920,-0.15,4.68,208.51,740.15,39.8043078,32.3787498,-0.2461365,-0.03925434,-0.01138886,0.9683729
8624,2023-01-20 10:50:16.139813,136167929,0.02,5.02,204.91,740.05,39.8043076,32.3787501,-0.215482,-0.04287186,-0.009281823,0.9755221
8657,2023-01-20 10:50:16.239781,136267900,0.19,5.16,200.86,740.06,39.8043065,32.3787506,-0.1808509,-0.04459333,-0.006466352,0.9824777
8687,2023-01-20 10:50:16.339732,136367905,0.27,5.25,196.65,739.97,39.804306,32.3787509,-0.1446154,-0.04570258,-0.004290749,0.9884226
8720,2023-01-20 10:50:16.439718,136467901,0.12,5.63,192.68,740.12,39.8043073,32.3787507,-0.1103354,-0.04899448,-0.004376072,0.9926764
8752,2023-01-20 10:50:16.539817,136567942,-0.23,6.09,189.11,740.07,39.8043073,32.378751,-0.07944785,-0.05286636,-0.006274099,0.9954164
8788,2023-01-20 10:50:16.639830,136667921,-0.6,6.18,185.77,740.22,39.804307,32.3787504,-0.05060697,-0.05365546,-0.007971193,0.9972444
8818,2023-01-20 10:50:16.739811,136767905,-1.19,5.87,182.7,740.21,39.8043068,32.3787503,-0.02415691,-0.05096568,-0.01160582,0.9983408
8852,2023-01-20 10:50:16.839809,136867913,-1.56,5.64,179.96,740.3,39.8043077,32.3787501,-0.0003552688,-0.04921656,-0.01362875,0.9986951
8882,2023-01-20 10:50:16.939774,136967902,-2.22,5.56,177.25,740.22,39.8043076,32.3787502,0.02297872,-0.0490303,-0.01823337,0.9983665
8915,2023-01-20 10:50:17.039776,137067907,-2.47,5.21,174.4,740.34,39.8043081,32.3787497,0.04773942,-0.04644343,-0.0193588,0.9975917
8947,2023-01-20 10:50:17.139832,137167934,-2.92,5.05,171.7,740.44,39.8043081,32.3787497,0.0710861,-0.04579804,-0.02227565,0.9961691
8980,2023-01-20 10:50:17.239851,137267939,-3.71,5.15,169.42,740.28,39.8043086,32.3787495,0.09054289,-0.04775506,-0.02809143,0.9943502
9010,2023-01-20 10:50:17.339827,137367924,-4.26,5.02,167,740.23,39.8043087,32.3787496,0.1113331,-0.04776831,-0.03197305,0.9921194
9043,2023-01-20 10:50:17.439801,137467898,-4.69,4.54,164.19,740.42,39.8043092,32.3787492,0.1356239,-0.04487476,-0.03509303,0.9891213
9075,2023-01-20 10:50:17.539816,137567903,-4.58,4.52,161.12,740.17,39.8043093,32.3787491,0.1621006,-0.04545569,-0.03293893,0.9851762
9111,2023-01-20 10:50:17.639895,137667976,-4.72,4.16,157.7,740.18,39.8043097,32.3787491,0.1915945,-0.04361485,-0.03336383,0.9799368
9141,2023-01-20 10:50:17.739823,137767904,-4.7,3.66,154.09,739.94,39.8043098,32.3787491,0.2225244,-0.04038171,-0.03285407,0.9735363
9175,2023-01-20 10:50:17.836298,137867929,-4.63,3.32,150.54,739.94,39.8043098,32.3787493,0.2527304,-0.03831875,-0.03171255,0.9662574
9205,2023-01-20 10:50:17.927368,137967905,-4.72,2.88,146.97,740.02,39.8043099,32.3787493,0.2828542,-0.03582972,-0.03234648,0.9579475
9239,2023-01-20 10:50:18.022493,138067940,-4.6,2.94,143.51,739.8,39.8043103,32.3787495,0.3116779,-0.03698373,-0.03009664,0.9489906
9271,2023-01-20 10:50:18.133279,138167928,-4.91,3.09,140.1,740.24,39.8043104,32.3787496,0.3396157,-0.03996027,-0.03110698,0.9392001
9304,2023-01-20 10:50:18.239769,138267899,-4.84,2.66,136.55,740.34,39.8043104,32.3787496,0.3687643,-0.03720333,-0.03063922,0.9282726
9334,2023-01-20 10:50:18.339882,138367971,-4.72,2.53,133.18,740.39,39.8043104,32.3787498,0.3959976,-0.03666681,-0.0290092,0.9170604
9367,2023-01-20 10:50:18.436287,138467896,-4.64,2.88,130.08,740.21,39.8043106,32.3787502,0.4204954,-0.0399332,-0.02611236,0.9060392
9399,2023-01-20 10:50:18.527396,138567903,-4.81,3.2,127.81,740.27,39.8043107,32.3787505,0.4381617,-0.04360995,-0.02543033,0.8974774
9435,2023-01-20 10:50:18.620323,138667927,-4.73,3.45,126.69,740.23,39.8043108,32.3787505,0.4468786,-0.045478,-0.02340175,0.8931313
9465,2023-01-20 10:50:18.720261,138767899,-4.94,3.2,126.39,740.1,39.8043109,32.3787507,0.4491883,-0.04438495,-0.02584966,0.8919594
9499,2023-01-20 10:50:18.820239,138867911,-4.92,2.96,126.72,740.03,39.8043111,32.3787507,0.4467437,-0.0423698,-0.02675708,0.8932575
9531,2023-01-20 10:50:18.920199,138967907,-4.75,2.67,127.16,740.02,39.8043112,32.3787508,0.4434995,-0.03929294,-0.02675748,0.895013
9564,2023-01-20 10:50:19.020226,139067956,-4.43,1.98,126.67,740.07,39.8043111,32.378751,0.447712,-0.03282438,-0.02685507,0.8931715
9596,2023-01-20 10:50:19.120233,139167927,-4.18,1.45,125.21,740.05,39.8043112,32.378751,0.459272,-0.02806224,-0.02656339,0.8874549
9629,2023-01-20 10:50:19.220227,139267898,-4.23,1.53,124.03,740.17,39.8043114,32.3787511,0.4683769,-0.02912146,-0.02636406,0.8826551
9659,2023-01-20 10:50:19.320221,139367918,-4.18,1.55,123.42,740.1,39.8043116,32.3787512,0.4731091,-0.02925129,-0.02573155,0.880142
9692,2023-01-20 10:50:19.420181,139467909,-3.71,1.73,123.17,740.18,39.8043114,32.3787515,0.4750288,-0.02876953,-0.02128864,0.8792421
9724,2023-01-20 10:50:19.520122,139567903,-3.5,1.8,123.11,740.01,39.8043114,32.3787516,0.4755301,-0.02838952,-0.0194446,0.8790262
9760,2023-01-20 10:50:19.620102,139667926,-3.57,1.7,123.22,740,39.8043118,32.3787524,0.4747062,-0.02793496,-0.02036092,0.8794653
9790,2023-01-20 10:50:19.720076,139767902,-4.04,1.88,123.54,739.97,39.804312,32.3787528,0.4720733,-0.0311762,-0.02334603,0.8806984
9824,2023-01-20 10:50:19.820076,139867908,-3.81,2.36,123.97,739.85,39.8043122,32.3787528,0.4687055,-0.03382825,-0.01966993,0.8824873
9854,2023-01-20 10:50:19.920060,139967908,-3.3,2.51,124.18,739.93,39.8043123,32.3787531,0.4671352,-0.03285738,-0.01522115,0.8834441
9887,2023-01-20 10:50:20.020100,140067960,-3.22,2.58,124.37,739.75,39.8043123,32.3787533,0.4657141,-0.03303852,-0.01434568,0.8842019
9919,2023-01-20 10:50:20.120094,140167944,-3.37,2.82,124.63,739.72,39.8043122,32.3787535,0.4635818,-0.03547892,-0.01465973,0.8852222
9952,2023-01-20 10:50:20.220071,140267900,-3.75,2.94,124.89,739.53,39.8043125,32.3787541,0.4614248,-0.03796287,-0.0171515,0.8862007
9985,2023-01-20 10:50:20.320138,140367903,-3.07,3.17,124.75,739.45,39.8043125,32.3787545,0.4625835,-0.03699356,-0.01091915,0.8857363
10018,2023-01-20 10:50:20.420169,140467884,-2.67,3.25,124.61,739.59,39.8043128,32.3787544,0.4638311,-0.03601051,-0.007490647,0.8851597
10050,2023-01-20 10:50:20.520169,140567888,-2.56,3.18,124.46,739.71,39.8043128,32.3787546,0.4650185,-0.03502367,-0.00687674,0.8845811
10086,2023-01-20 10:50:20.620229,140667945,-2.9,2.35,124.31,739.64,39.8043131,32.3787544,0.4662811,-0.02998141,-0.01284254,0.8840352
10116,2023-01-20 10:50:20.720206,140767884,-3.54,1.39,124.39,739.63,39.8043131,32.3787544,0.4658068,-0.0252047,-0.02166298,0.884262
10150,2023-01-20 10:50:20.820220,140867891,-4.06,0.68,124.83,739.68,39.8043126,32.3787545,0.4625172,-0.02174315,-0.02869961,0.8858789
10180,2023-01-20 10:50:20.920086,140967876,-4.91,0.11,125.36,739.67,39.8043124,32.3787544,0.4584395,-0.02057643,-0.03760198,0.8876913
10213,2023-01-20 10:50:21.020035,141067909,-5.47,-0.24,125.83,739.47,39.8043131,32.3787546,0.45486,-0.01984329,-0.0434527,0.8892809
10245,2023-01-20 10:50:21.120082,141167900,-6.15,-0.68,126.09,739.46,39.8043132,32.3787547,0.452876,-0.01902263,-0.05051262,0.8899381
10278,2023-01-20 10:50:21.220144,141267923,-6.77,-1.12,126.27,739.46,39.8043132,32.3787551,0.4515267,-0.01799093,-0.05716543,0.8902427
10308,2023-01-20 10:50:21.320148,141367951,-6.79,-1.09,126.55,739.45,39.8043133,32.3787553,0.44938,-0.01814725,-0.05724886,0.8913197
10341,2023-01-20 10:50:21.420062,141467878,-6.77,-0.78,126.88,739.46,39.8043137,32.3787557,0.4466261,-0.02027631,-0.05591979,0.8927413
10373,2023-01-20 10:50:21.520103,141567883,-6.76,-0.9,126.91,739.44,39.8043138,32.3787561,0.4464834,-0.01931327,-0.05632661,0.8928084
10409,2023-01-20 10:50:21.620137,141667901,-6.54,-1.49,125.71,739.44,39.804314,32.3787572,0.4560619,-0.01448603,-0.05674873,0.8880187
10439,2023-01-20 10:50:21.720065,141767890,-6.27,-2.04,122.44,739.54,39.8043141,32.3787578,0.4814489,-0.01071017,-0.0565459,0.8745826
10473,2023-01-20 10:50:21.820018,141867895,-6.11,-2.37,117.39,739.47,39.8043146,32.3787584,0.5196257,-0.009996965,-0.05633967,0.8524758
10503,2023-01-20 10:50:21.920044,141967934,-5.71,-2.88,111.28,739.68,39.8043148,32.378759,0.5644593,-0.007386511,-0.05529385,0.8235738
10536,2023-01-20 10:50:22.020018,142067909,-5.33,-3.8,104.51,739.61,39.8043156,32.3787604,0.6123194,-0.002209563,-0.05706273,0.7885454
10568,2023-01-20 10:50:22.120069,142167909,-4.93,-4.98,96.83,739.53,39.804316,32.3787613,0.6638143,0.003959159,-0.06096629,0.7453979
10601,2023-01-20 10:50:22.220067,142267874,-3.93,-5.92,89.36,739.51,39.8043164,32.3787621,0.7108859,0.01193725,-0.06086924,0.7005667
10631,2023-01-20 10:50:22.320070,142367912,-2.84,-6.57,82.98,739.54,39.8043167,32.3787629,0.7485365,0.0193788,-0.05933699,0.6601489
10664,2023-01-20 10:50:22.420011,142467872,-1.96,-7.43,78.34,739.59,39.8043169,32.3787644,0.7742143,0.02770135,-0.06109055,0.629359
10696,2023-01-20 10:50:22.520069,142567883,-1.39,-8.74,75.52,739.69,39.8043172,32.3787654,0.7887543,0.03704068,-0.067687,0.6098467
10732,2023-01-20 10:50:22.620173,142667954,-1.03,-10.23,74.17,739.73,39.8043168,32.3787673,0.7949645,0.04661117,-0.07661106,0.5999913
10762,2023-01-20 10:50:22.720088,142767885,-1.15,-11.85,73.92,739.6,39.8043168,32.3787687,0.7953502,0.05413033,-0.08854855,0.5971994
10796,2023-01-20 10:50:22.820078,142867895,-1.55,-12.9,74.52,739.52,39.8043175,32.3787709,0.7916775,0.05728459,-0.09758775,0.600368
10826,2023-01-20 10:50:22.920039,142967888,-2.1,-13.85,75.7,739.46,39.8043178,32.3787726,0.7850699,0.05954019,-0.1064104,0.6072866
10859,2023-01-20 10:50:23.020034,143067898,-2.19,-14.57,77.18,739.61,39.8043182,32.3787754,0.7766593,0.06423869,-0.111003,0.6167269
10892,2023-01-20 10:50:23.120119,143167932,-2.43,-14.71,78.34,739.7,39.8043185,32.3787776,0.7704204,0.06453627,-0.1125363,0.6241979
10925,2023-01-20 10:50:23.220146,143267924,-2.97,-15.17,79.15,739.93,39.8043191,32.3787803,0.7659087,0.06427469,-0.1181442,0.6287246
10955,2023-01-20 10:50:23.320104,143367911,-3.19,-15.95,79.81,739.82,39.8043196,32.3787827,0.7618436,0.06787177,-0.1241412,0.6321208
10988,2023-01-20 10:50:23.420051,143467878,-3.26,-16.63,80.44,740.04,39.804321,32.3787861,0.7578579,0.07185848,-0.1286183,0.6355669
11020,2023-01-20 10:50:23.520074,143567887,-3.11,-17.35,81.03,739.92,39.8043217,32.378789,0.7539043,0.07755991,-0.1320828,0.6388793
11056,2023-01-20 10:50:23.620117,143667921,-2.32,-17.52,81.47,740.05,39.8043219,32.3787931,0.7506926,0.08419246,-0.1284498,0.6425518
11086,2023-01-20 10:50:23.720059,143767877,-1.74,-18.12,81.84,740.27,39.8043225,32.3787965,0.7476436,0.0917926,-0.1288537,0.6449805
11120,2023-01-20 10:50:23.820068,143867900,-1.27,-18.43,82.16,740.39,39.8043227,32.3788011,0.74516,0.0969861,-0.1279272,0.647275
11153,2023-01-20 10:50:23.920072,143967921,-2.03,-17.84,82.32,740.47,39.8043231,32.3788051,0.745414,0.0888359,-0.1283202,0.6480741
11186,2023-01-20 10:50:24.020040,144067890,-3.26,-17.34,82.32,740.51,39.8043245,32.3788104,0.7467477,0.07802801,-0.1319855,0.6471935
11218,2023-01-20 10:50:24.120120,144167908,-4.4,-17.35,82.41,740.57,39.8043253,32.3788151,0.7469884,0.07074082,-0.1384595,0.6464
11251,2023-01-20 10:50:24.220120,144267872,-4.69,-17.22,82.46,740.6,39.8043254,32.3788191,0.7469485,0.06814198,-0.1392066,0.6465648
11281,2023-01-20 10:50:24.320086,144367900,-4.98,-17.05,82.43,740.72,39.8043259,32.3788237,0.7474421,0.06524998,-0.1398189,0.6461604
11314,2023-01-20 10:50:24.420025,144467876,-5.25,-16.97,82.38,740.83,39.8043274,32.3788304,0.7479316,0.06297449,-0.1407889,0.6456091
11347,2023-01-20 10:50:24.520138,144567923,-5.96,-16.91,81.88,741.12,39.8043283,32.3788359,0.7511587,0.05737065,-0.1446639,0.6415151
11384,2023-01-20 10:50:24.620156,144667904,-5.69,-16.74,81.15,741.48,39.804331,32.3788411,0.75518,0.05732143,-0.142435,0.637283
11414,2023-01-20 10:50:24.720052,144767882,-5.76,-16.39,80.76,741.5,39.8043326,32.3788466,0.7576209,0.05435883,-0.1406782,0.6350318
11448,2023-01-20 10:50:24.820025,144867920,-6.25,-16.37,79.68,741.37,39.8043326,32.3788532,0.7638276,0.04963135,-0.1438285,0.62723
11479,2023-01-20 10:50:24.920015,144967909,-6.03,-15.64,78.5,741.28,39.8043336,32.3788591,0.7706015,0.04564025,-0.1382542,0.6204644
11512,2023-01-20 10:50:25.020022,145067910,-5.55,-11.91,77.9,741.33,39.8043358,32.3788655,0.7757113,0.02766166,-0.1109443,0.6206433
11544,2023-01-20 10:50:25.120082,145167941,-5.85,-5.89,77.72,741.22,39.8043374,32.3788716,0.7782157,-0.007491751,-0.07203426,0.623807
11578,2023-01-20 10:50:25.220077,145267914,-5.65,1.16,77.53,741.14,39.8043385,32.3788778,0.7783746,-0.04483744,-0.02299688,0.6257745
11608,2023-01-20 10:50:25.320076,145367919,-5.78,8.87,77.37,741.19,39.8043398,32.3788841,0.7747585,-0.08759438,0.02887597,0.6254939
11641,2023-01-20 10:50:25.420057,145467902,-5.01,14.95,77.11,739.91,39.8043375,32.3788886,0.7710533,-0.1149689,0.07459494,0.6218477
11673,2023-01-20 10:50:25.520123,145567955,-3.24,16.88,77.95,739.6,39.8043375,32.3788941,0.7660278,-0.1140724,0.09643341,0.6252115
11709,2023-01-20 10:50:25.620101,145667925,-4.03,16,79.05,739.77,39.8043402,32.3788987,0.7601842,-0.1154266,0.08512291,0.6336803
11739,2023-01-20 10:50:25.720069,145767905,-6.73,15.91,79.37,740.33,39.8043413,32.3789039,0.7556047,-0.1330551,0.06920783,0.6376269
11772,2023-01-20 10:50:25.820108,145867959,-7.85,17.05,79.23,740.42,39.8043418,32.3789072,0.7535091,-0.1465501,0.07075482,0.636978
11804,2023-01-20 10:50:25.920034,145967909,-6.62,19.04,79.35,740.52,39.8043426,32.3789118,0.7516295,-0.1493422,0.09071025,0.6360201
11837,2023-01-20 10:50:26.020026,146067913,-4.12,19.01,80.19,740.4,39.8043423,32.3789144,0.7501211,-0.1335162,0.1034274,0.6393703
11869,2023-01-20 10:50:26.120081,146167930,-3.25,17.74,81.2,740.45,39.8043428,32.3789181,0.7469882,-0.1216928,0.09880403,0.6460938
11902,2023-01-20 10:50:26.220075,146267901,-4.28,14.64,81.59,740.92,39.8043436,32.3789194,0.7471994,-0.1113084,0.07218245,0.6512244
11932,2023-01-20 10:50:26.320042,146367904,-5.1,12.94,81.53,741.09,39.8043443,32.3789222,0.7485136,-0.1070554,0.05641405,0.6519847
11965,2023-01-20 10:50:26.420018,146467903,-6.32,11.06,80.73,740.76,39.8043447,32.3789235,0.7537554,-0.1041733,0.03779962,0.6477436
11997,2023-01-20 10:50:26.520054,146567909,-6.43,8.83,79.94,740.62,39.8043452,32.3789257,0.7600953,-0.09229439,0.02298342,0.642813
12033,2023-01-20 10:50:26.620093,146667925,-5.62,7.04,79.59,740.23,39.8043439,32.3789252,0.7640116,-0.07687882,0.01582612,0.6404103
12063,2023-01-20 10:50:26.720079,146767916,-5.11,6.02,79.38,740.11,39.8043437,32.3789262,0.7661579,-0.0678146,0.01189171,0.6389537
12096,2023-01-20 10:50:26.820130,146867976,-4.97,4.36,78.93,739.93,39.8043435,32.3789274,0.7696157,-0.05768386,0.001812719,0.6358938
12127,2023-01-20 10:50:26.920041,146967911,-5.85,2.61,78.35,739.91,39.8043435,32.3789285,0.7732434,-0.05398633,-0.01457952,0.6316388
12160,2023-01-20 10:50:27.020128,147068016,-5.87,1.2,77.84,739.8,39.804345,32.3789283,0.7765809,-0.04649879,-0.02405132,0.6278387
12192,2023-01-20 10:50:27.120054,147167932,-5.51,0.65,77.47,740,39.8043456,32.378929,0.7789378,-0.04109153,-0.02563432,0.6252282
12225,2023-01-20 10:50:27.220034,147267902,-5.82,0.97,77.36,740.01,39.804346,32.3789296,0.7793144,-0.04501199,-0.02513571,0.6245087
12255,2023-01-20 10:50:27.320083,147367937,-5.84,1.41,77.48,739.92,39.8043467,32.3789302,0.7784906,-0.04748744,-0.02232508,0.6254589
12288,2023-01-20 10:50:27.418261,147467902,-5.12,1.7,77.78,740,39.8043468,32.3789296,0.7770548,-0.0441484,-0.01646914,0.6276667
12320,2023-01-20 10:50:27.509329,147567945,-3.98,1.85,78.37,740.08,39.8043472,32.3789298,0.7741364,-0.0371239,-0.009425845,0.631859
12356,2023-01-20 10:50:27.600486,147668037,-3.09,1.52,79.3,740.24,39.8043475,32.3789301,0.7693219,-0.02927112,-0.007029763,0.6381516
12386,2023-01-20 10:50:27.700344,147767903,-2.91,1.08,80.06,740.42,39.8043472,32.3789305,0.7652169,-0.02560685,-0.009100049,0.6431987
12419,2023-01-20 10:50:27.800454,147868020,-3.22,0.9,80.26,740.53,39.8043475,32.3789309,0.7640852,-0.02660286,-0.01211525,0.6444527
12451,2023-01-20 10:50:27.900272,147967902,-3.94,1.2,80.03,740.52,39.8043488,32.378931,0.7651159,-0.0331267,-0.01412143,0.6428849
12484,2023-01-20 10:50:28.000439,148068133,-3.95,1.74,79.76,740.69,39.8043493,32.3789314,0.7664456,-0.03619673,-0.01046391,0.6412031
12516,2023-01-20 10:50:28.100256,148167925,-3.44,2.25,79.62,740.93,39.8043512,32.3789297,0.7672617,-0.03571713,-0.004120019,0.6403256
12550,2023-01-20 10:50:28.200463,148268107,-2.17,2.2,79.53,741.1,39.8043521,32.3789296,0.7681218,-0.02691127,0.002665478,0.6397324
12580,2023-01-20 10:50:28.300300,148367919,-1.81,1.91,79.71,741.48,39.8043514,32.3789286,0.7672637,-0.02285385,0.002663775,0.6409189
12613,2023-01-20 10:50:28.400514,148468057,-1.83,1.71,79.99,741.58,39.8043518,32.3789283,0.7657214,-0.02182634,0.00116933,0.6428009
12645,2023-01-20 10:50:28.511306,148567903,-2.19,1.19,80.28,741.66,39.8043528,32.3789296,0.7641268,-0.02134825,-0.004380142,0.6446978
12681,2023-01-20 10:50:28.618284,148667926,-1.98,0.73,80.39,741.74,39.8043526,32.378929,0.7635853,-0.01737518,-0.006251995,0.6454429
12711,2023-01-20 10:50:28.709294,148767937,-1.58,0.71,80.2,742.04,39.8043529,32.3789288,0.7647555,-0.01461163,-0.004153621,0.6441414
12744,2023-01-20 10:50:28.800444,148868059,-1.35,0.99,79.78,742.22,39.8043533,32.3789286,0.7670804,-0.01465285,-0.0009550852,0.6413829
12777,2023-01-20 10:50:28.900180,148967908,-1.53,0.84,79.27,742.4,39.8043522,32.3789275,0.7699253,-0.01498258,-0.002877423,0.6379517
12810,2023-01-20 10:50:29.000436,149068278,-1.42,0.52,78.78,742.63,39.8043521,32.3789271,0.7727259,-0.0125475,-0.004368648,0.6346007
12842,2023-01-20 10:50:29.100150,149167938,-1.54,0.07,78.35,742.86,39.804354,32.3789271,0.7751232,-0.01086116,-0.007977208,0.6316665
12876,2023-01-20 10:50:29.200490,149268224,-2.06,-0.48,78.09,742.94,39.8043544,32.378927,0.7765481,-0.01133829,-0.01463888,0.6297858
12906,2023-01-20 10:50:29.300114,149367913,-1.47,-0.15,78.05,743.06,39.8043516,32.3789259,0.7768011,-0.009146501,-0.009137012,0.6296133
12939,2023-01-20 10:50:29.400422,149468286,-1.01,-0.31,78.56,743.33,39.8043511,32.3789255,0.7739785,-0.005115991,-0.007782826,0.6331434
12971,2023-01-20 10:50:29.500055,149567899,-2.13,-0.87,79.2,743.54,39.8043521,32.3789248,0.7703961,-0.009451907,-0.01773382,0.6372488
13007,2023-01-20 10:50:29.600454,149668279,-2.85,-1.2,79.55,743.75,39.804352,32.3789244,0.7684104,-0.01244506,-0.02403766,0.6393846
13037,2023-01-20 10:50:29.700075,149767909,-3.64,-1.1,79.25,743.96,39.8043528,32.3789243,0.7699462,-0.01831309,-0.02772049,0.6372433
13070,2023-01-20 10:50:29.800433,149868276,-4.05,-0.8,78.66,744.15,39.8043529,32.3789241,0.7731288,-0.02287072,-0.02785886,0.633224
13101,2023-01-20 10:50:29.900077,149967943,-3.79,-0.68,78.16,744.31,39.8043536,32.3789233,0.7759057,-0.02197687,-0.02549209,0.6299505
13134,2023-01-20 10:50:30.000440,150068328,-3.14,-0.34,77.82,744.56,39.8043537,32.3789231,0.7778579,-0.01947023,-0.01959766,0.6278327
13166,2023-01-20 10:50:30.100081,150167935,-1.85,-0.38,78.08,744.79,39.804353,32.3789225,0.7766186,-0.01049086,-0.01281795,0.6297532
13199,2023-01-20 10:50:30.200429,150268249,-0.47,-0.43,78.86,745.02,39.8043528,32.3789223,0.7723392,-0.0008177462,-0.005567744,0.6351854
13229,2023-01-20 10:50:30.300104,150367923,-0.2,-0.61,79.79,745.23,39.8043512,32.3789227,0.7671898,0.00205224,-0.005238982,0.6413954
13262,2023-01-20 10:50:30.400441,150468259,-0.61,-0.67,80.47,745.43,39.8043507,32.3789226,0.7633287,-0.0003343532,-0.007949461,0.6459613
13294,2023-01-20 10:50:30.500086,150567909,-1.47,-0.32,80.85,745.62,39.8043523,32.3789214,0.761158,-0.007975875,-0.01048546,0.6484327
13330,2023-01-20 10:50:30.600439,150668268,-1.74,-0.25,81.25,745.79,39.8043523,32.3789211,0.7588788,-0.01007794,-0.01159239,0.6510507
13361,2023-01-20 10:50:30.700065,150767896,-1.61,-0.38,81.69,746.04,39.8043542,32.3789204,0.7564151,-0.008461722,-0.01179029,0.6539309
13394,2023-01-20 10:50:30.800423,150868256,-0.99,-0.58,81.93,746.3,39.8043547,32.3789201,0.7550699,-0.003205483,-0.009599501,0.6555661
13425,2023-01-20 10:50:30.900043,150967909,-0.2,-0.77,81.82,746.54,39.804353,32.3789203,0.7556878,0.003107426,-0.006285606,0.6548945
13458,2023-01-20 10:50:31.000438,151068338,0.21,-1.13,81.37,746.71,39.8043529,32.3789201,0.7581958,0.007854428,-0.00627287,0.6519495
13490,2023-01-20 10:50:31.100166,151167978,0.08,-1.54,80.71,746.87,39.8043515,32.3789194,0.7619115,0.009260738,-0.009802474,0.6475407
13523,2023-01-20 10:50:31.200429,151268153,0.33,-1.73,80.05,747.04,39.8043511,32.3789189,0.7655765,0.01198685,-0.00969767,0.64316
13553,2023-01-20 10:50:31.300147,151367921,0.44,-1.91,79.5,747.23,39.80435,32.3789191,0.7686368,0.01364922,-0.01035551,0.6394559
13586,2023-01-20 10:50:31.400428,151468252,0.1,-2.24,79.15,747.41,39.8043496,32.3789187,0.7706076,0.01322386,-0.01453855,0.6370068
13618,2023-01-20 10:50:31.500067,151567910,0.04,-2.39,79.07,747.59,39.804348,32.3789193,0.7710261,0.01359383,-0.01584134,0.6364613
13653,2023-01-20 10:50:31.600453,151668316,-0.74,-2.28,79.43,747.83,39.8043472,32.3789191,0.7691299,0.007727179,-0.0195379,0.638747
13684,2023-01-20 10:50:31.700047,151767897,-2.05,-2.54,80.26,748.06,39.8043491,32.378919,0.7644947,0.0006301841,-0.02853321,0.6439978
13717,2023-01-20 10:50:31.800418,151868255,-2.72,-2.77,81.19,748.16,39.804349,32.3789189,0.7592049,-0.002329711,-0.03386672,0.6499658
13749,2023-01-20 10:50:31.900081,151967941,-3.17,-2.32,81.7,748.42,39.8043485,32.3789193,0.7562858,-0.007687535,-0.03341397,0.6533422
13782,2023-01-20 10:50:32.000420,152068303,-3.47,-1.53,81.92,748.58,39.8043483,32.3789193,0.7550002,-0.01410944,-0.02995949,0.6548878
13814,2023-01-20 10:50:32.100073,152167929,-3.62,-1.35,82.03,748.71,39.8043478,32.3789192,0.7542989,-0.01609803,-0.02966997,0.6556628
13847,2023-01-20 10:50:32.200431,152268260,-3.78,-1.42,81.82,748.85,39.8043475,32.3789192,0.7554859,-0.01680893,-0.03098513,0.6542159
13877,2023-01-20 10:50:32.300095,152367917,-3.83,-1.3,81.43,749.07,39.8043483,32.3789186,0.7576841,-0.01794896,-0.03041932,0.6516651
13910,2023-01-20 10:50:32.400426,152468242,-3.62,-1.27,80.92,749.13,39.8043483,32.3789185,0.7605904,-0.01684143,-0.02896794,0.6483668
13942,2023-01-20 10:50:32.500057,152567898,-2.47,-1.17,80.47,749.18,39.8043462,32.3789187,0.7632785,-0.009871844,-0.02180649,0.6456259
13977,2023-01-20 10:50:32.600443,152668309,-1.96,-1.12,79.94,749.38,39.8043456,32.3789187,0.7662895,-0.006800217,-0.01851895,0.6421924
14008,2023-01-20 10:50:32.700045,152767898,-2.58,-1.05,79.53,749.42,39.8043461,32.3789191,0.7685568,-0.01142689,-0.02146887,0.639319
14041,2023-01-20 10:50:32.800428,152868267,-3.16,-0.86,79.26,749.47,39.8043458,32.3789192,0.7699695,-0.01645746,-0.02340168,0.6374391
14072,2023-01-20 10:50:32.900083,152967943,-3.41,-0.59,79.03,749.56,39.8043453,32.3789186,0.7711393,-0.01968289,-0.02294764,0.6359482
14105,2023-01-20 10:50:33.000421,153068302,-3.91,-0.49,78.96,749.58,39.8043449,32.3789185,0.7714524,-0.0236137,-0.02508184,0.6353539
14137,2023-01-20 10:50:33.100091,153167944,-4.03,-0.29,78.94,749.57,39.8043419,32.3789193,0.7715191,-0.02555702,-0.02439178,0.6352245
14170,2023-01-20 10:50:33.200424,153268249,-4.36,-0.45,79.05,749.59,39.8043409,32.3789194,0.7708632,-0.0268561,-0.02728365,0.6358492
14201,2023-01-20 10:50:33.300111,153367932,-5.03,-0.64,79.39,749.54,39.8043415,32.3789195,0.768828,-0.03023696,-0.03240742,0.6379176
14234,2023-01-20 10:50:33.400435,153468252,-5.36,-0.92,80,749.48,39.8043411,32.3789197,0.7653797,-0.03066835,-0.03631352,0.6418213
14267,2023-01-20 10:50:33.500093,153567914,-4.58,-0.98,80.61,749.43,39.8043399,32.3789198,0.7621425,-0.02492922,-0.03244108,0.6461153
14303,2023-01-20 10:50:33.600444,153668270,-4.24,-0.99,81.16,749.46,39.8043394,32.3789199,0.7591361,-0.02246763,-0.0307185,0.6498184
14334,2023-01-20 10:50:33.700068,153767901,-3.93,-0.9,81.6,749.46,39.8043379,32.3789199,0.7566862,-0.02082707,-0.0283748,0.6528301
14367,2023-01-20 10:50:33.800418,153868257,-3.79,-0.86,81.95,749.51,39.8043372,32.3789199,0.7546892,-0.02003228,-0.02741976,0.655203
14400,2023-01-20 10:50:33.900074,153967940,-3.83,-0.6,82.09,749.52,39.8043358,32.3789201,0.7538507,-0.02176795,-0.02593568,0.6561728
14433,2023-01-20 10:50:34.000413,154068305,-4.35,-0.52,82.24,749.53,39.804335,32.3789201,0.7528272,-0.02557793,-0.02841274,0.6571071
14465,2023-01-20 10:50:34.100048,154167926,-4.56,-0.55,82.16,749.54,39.8043339,32.3789203,0.7532432,-0.02681541,-0.02984611,0.6565173
14498,2023-01-20 10:50:34.200438,154268302,-5.35,-0.64,81.73,749.56,39.804333,32.3789203,0.7555268,-0.03161763,-0.03479745,0.6534284
14528,2023-01-20 10:50:34.300089,154367929,-5.83,-0.41,81.21,749.51,39.8043328,32.3789203,0.7583085,-0.0362969,-0.03583192,0.6498975
14561,2023-01-20 10:50:34.400427,154468243,-6.38,-0.44,80.68,749.57,39.8043322,32.3789203,0.7611063,-0.0399261,-0.03896281,0.6462236
14594,2023-01-20 10:50:34.500109,154567889,-6.48,-0.08,79.98,749.62,39.804332,32.3789203,0.7649173,-0.04284305,-0.03687661,0.6416432
14628,2023-01-20 10:50:34.600520,154668263,-6.57,0.02,79.5,749.67,39.8043315,32.3789203,0.7675539,-0.04420226,-0.03652781,0.6384143
14660,2023-01-20 10:50:34.700110,154767902,-6.23,-0.07,79.12,749.59,39.804333,32.3789197,0.769791,-0.04149785,-0.03513822,0.6359757
14693,2023-01-20 10:50:34.800421,154868262,-6.13,-0.61,78.8,749.53,39.8043329,32.3789195,0.7717798,-0.03795464,-0.03815283,0.6336085
14726,2023-01-20 10:50:34.900047,154967921,-5.82,-1.24,78.63,749.52,39.8043325,32.3789198,0.7729331,-0.03244074,-0.04058275,0.6323568
14759,2023-01-20 10:50:35.000429,155068336,-5.46,-1.99,78.45,749.55,39.8043325,32.3789196,0.7741555,-0.02592487,-0.04365646,0.6309559
14791,2023-01-20 10:50:35.100131,155167952,-4.88,-2.44,78.24,749.6,39.8043328,32.3789197,0.7754527,-0.01962914,-0.04343133,0.6296043
14824,2023-01-20 10:50:35.200495,155268231,-4.21,-2.94,78.1,749.56,39.804333,32.3789195,0.7763571,-0.01236716,-0.04307269,0.6286982
14854,2023-01-20 10:50:35.300155,155367893,-3.85,-3.32,77.92,749.66,39.8043339,32.3789189,0.7773982,-0.00792056,-0.04369976,0.627439
14887,2023-01-20 10:50:35.400487,155468228,-3.47,-3.82,77.76,749.69,39.8043342,32.3789187,0.7782522,-0.00265369,-0.04498118,0.626333
14919,2023-01-20 10:50:35.500143,155567883,-2.81,-3.87,77.28,749.71,39.8043344,32.378919,0.7808596,0.001926348,-0.04177568,0.6233051
14954,2023-01-20 10:50:35.600510,155668249,-3.05,-4.23,76.65,749.71,39.8043346,32.3789189,0.7842357,0.002036974,-0.04546458,0.6187918
14985,2023-01-20 10:50:35.700156,155767916,-2.97,-5.18,76.27,749.7,39.8043348,32.3789193,0.7861516,0.007541834,-0.05153912,0.6158347
15018,2023-01-20 10:50:35.800456,155868236,-2.73,-6.16,76.22,749.71,39.8043351,32.3789193,0.7862381,0.01443457,-0.0570148,0.6151183
15049,2023-01-20 10:50:35.900063,155967884,-2.16,-6.93,76.56,749.86,39.8043352,32.3789203,0.7841069,0.02269594,-0.05915037,0.6173837
15082,2023-01-20 10:50:36.000429,156068291,-1.87,-7.5,77.02,749.87,39.8043356,32.3789204,0.7813483,0.02797402,-0.06133004,0.6204441
15114,2023-01-20 10:50:36.100105,156167909,-1.52,-7.67,77.63,749.79,39.8043344,32.3789211,0.7778723,0.03160147,-0.0604846,0.624706
15147,2023-01-20 10:50:36.200487,156268233,-1.85,-8.2,78.25,749.97,39.8043344,32.3789213,0.7743759,0.03261968,-0.06566549,0.6284632
15177,2023-01-20 10:50:36.300110,156367904,-2.57,-8.94,78.69,750,39.8043344,32.3789219,0.7718644,0.03211121,-0.07451223,0.6305887
15210,2023-01-20 10:50:36.400428,156468271,-3.34,-9.6,78.89,749.93,39.8043344,32.3789223,0.7706977,0.03068865,-0.08314069,0.6310079
15242,2023-01-20 10:50:36.500090,156567876,-3.61,-10.17,78.77,749.96,39.8043348,32.3789228,0.7711881,0.03198011,-0.0884022,0.6296278
15277,2023-01-20 10:50:36.600518,156668248,-4.12,-10.87,78.37,750.15,39.8043349,32.3789233,0.7732331,0.03207443,-0.09599432,0.6259927
15308,2023-01-20 10:50:36.700148,156767874,-4.36,-11.46,77.94,750.18,39.8043355,32.3789249,0.7753704,0.03329491,-0.1014564,0.6224137
15341,2023-01-20 10:50:36.800516,156868239,-4.58,-12.68,77.9,750.18,39.8043358,32.3789257,0.7750742,0.03847763,-0.110865,0.6208771
15372,2023-01-20 10:50:36.900070,156967885,-4.09,-13.37,77.94,750.04,39.8043364,32.3789271,0.7742893,0.04557237,-0.1128259,0.621023
15405,2023-01-20 10:50:37.000423,157068331,-3.72,-13.85,77.96,749.92,39.8043368,32.3789281,0.7737312,0.05070632,-0.1140077,0.6211047
15437,2023-01-20 10:50:37.100079,157167907,-3.25,-13.76,77.9,750.1,39.8043374,32.3789301,0.7738992,0.05334229,-0.1108616,0.6212441
15470,2023-01-20 10:50:37.200489,157268237,-3.24,-14.06,77.86,750.29,39.8043378,32.3789314,0.7738683,0.05503058,-0.1128316,0.6207805
15500,2023-01-20 10:50:37.300155,157367900,-3.28,-14.14,77.83,750.21,39.8043383,32.3789341,0.7740414,0.05517366,-0.1136642,0.6204
15533,2023-01-20 10:50:37.400485,157468228,-3.37,-14.86,77.69,750.44,39.8043388,32.3789358,0.7743421,0.05833108,-0.1190037,0.6187326
15565,2023-01-20 10:50:37.500165,157567893,-3.86,-15.03,77.43,750.5,39.8043397,32.3789394,0.7758135,0.05569311,-0.1229833,0.6163495
15600,2023-01-20 10:50:37.600858,157668570,-4.03,-15.88,77.47,750.57,39.8043404,32.3789416,0.7750856,0.05918348,-0.1295244,0.6155999
15631,2023-01-20 10:50:37.700195,157767922,-4.02,-16.33,77.82,750.58,39.8043411,32.3789443,0.7728625,0.06209765,-0.1323239,0.6175094
15664,2023-01-20 10:50:37.800503,157868245,-3.33,-17.32,78.42,750.7,39.8043418,32.3789466,0.7684225,0.07290345,-0.1348618,0.6213083
15696,2023-01-20 10:50:37.900099,157967884,-3.54,-18.22,78.81,750.74,39.8043414,32.3789504,0.7656381,0.07693138,-0.1417006,0.6227366
15729,2023-01-20 10:50:38.000428,158068298,-4.39,-19.15,79.04,750.83,39.8043418,32.3789532,0.7641164,0.07664869,-0.1522857,0.6221415
15761,2023-01-20 10:50:38.091081,158167908,-5.95,-19.96,79.1,750.9,39.8043414,32.378958,0.7640347,0.07081791,-0.1660561,0.6194038
15792,2023-01-20 10:50:38.182305,158268146,-7.5,-20.13,79,750.87,39.8043417,32.3789612,0.7653326,0.06123259,-0.1755826,0.6161876
15824,2023-01-20 10:50:38.280345,158367932,-7.76,-19.97,79.08,750.95,39.8043419,32.3789652,0.76519,0.05873698,-0.1759139,0.6165131
15856,2023-01-20 10:50:38.380685,158468270,-8.38,-20.15,79.19,750.98,39.8043422,32.378969,0.764759,0.05582058,-0.1803587,0.6160345
15890,2023-01-20 10:50:38.480274,158567884,-9.54,-20.31,79.11,751.09,39.8043432,32.3789742,0.7656285,0.04876295,-0.1876714,0.6133634
15924,2023-01-20 10:50:38.580736,158668378,-10.13,-19.79,78.88,751.23,39.8043438,32.3789784,0.7674307,0.04157669,-0.187464,0.6117015
15957,2023-01-20 10:50:38.680221,158767873,-10.3,-20.06,78.79,751.21,39.8043448,32.3789841,0.7677774,0.04179324,-0.1902119,0.610402
15988,2023-01-20 10:50:38.780427,158868084,-10.48,-20.21,78.79,751.2,39.8043456,32.3789888,0.7677259,0.04138524,-0.1921418,0.6098899
16023,2023-01-20 10:50:38.889039,158967886,-9.32,-20.61,79.1,751.21,39.8043484,32.3789942,0.7653338,0.05184717,-0.1884302,0.6132455
16056,2023-01-20 10:50:39.000379,159068283,-8.52,-20.42,79.53,751.32,39.8043497,32.3789992,0.7627918,0.0568288,-0.1827099,0.6176863
16088,2023-01-20 10:50:39.091041,159167910,-7.51,-19.65,79.8,751.28,39.8043523,32.3790064,0.7613974,0.05976263,-0.1720655,0.6221703
16120,2023-01-20 10:50:39.182185,159268066,-7.23,-19.15,79.72,751.42,39.8043539,32.3790118,0.7620777,0.05868163,-0.1672846,0.6227438
16152,2023-01-20 10:50:39.280218,159367889,-6.54,-18.36,79.61,751.59,39.804355,32.379018,0.7629448,0.05867375,-0.1584602,0.6239896
16183,2023-01-20 10:50:39.380311,159468018,-6.01,-18.19,79.67,751.71,39.8043565,32.379024,0.7624698,0.06138177,-0.1544471,0.6253144
16217,2023-01-20 10:50:39.480153,159567880,-6.09,-17.46,79.47,751.87,39.8043594,32.3790305,0.7641334,0.05648588,-0.1502007,0.6247793
16250,2023-01-20 10:50:39.580531,159668274,-5.82,-16.64,79.13,751.94,39.8043612,32.3790367,0.7664424,0.05330605,-0.1434388,0.6238188
16283,2023-01-20 10:50:39.680147,159767940,-5.45,-16.35,78.81,752,39.8043625,32.3790441,0.7682,0.05382615,-0.1396687,0.6224662
16314,2023-01-20 10:50:39.780123,159867973,-5.08,-16.64,78.42,752.17,39.804364,32.3790507,0.7699343,0.05741978,-0.1397722,0.6199741
16348,2023-01-20 10:50:39.880018,159967876,-5.21,-16.76,78.29,751.94,39.804367,32.3790582,0.7706158,0.05702001,-0.1413888,0.6187966
16379,2023-01-20 10:50:39.980046,160067899,-4.87,-16.79,78.2,752.16,39.804369,32.3790651,0.770894,0.05939416,-0.1398,0.6185877
16413,2023-01-20 10:50:40.080108,160167916,-4.13,-16.2,78.06,752.25,39.804371,32.3790724,0.7716973,0.06096639,-0.1319143,0.6191647
16445,2023-01-20 10:50:40.180128,160267881,-3.42,-15.17,77.88,752.37,39.8043729,32.3790794,0.7731137,0.0599312,-0.121251,0.6196786
16477,2023-01-20 10:50:40.280155,160367938,-3.03,-14.09,77.63,752.42,39.8043753,32.379087,0.7750327,0.05638251,-0.1120705,0.6193427
16508,2023-01-20 10:50:40.380042,160467877,-3.09,-13.66,77.41,752.4,39.8043774,32.3790942,0.7764968,0.05343165,-0.1095955,0.6182125
16542,2023-01-20 10:50:40.480048,160567883,-2.46,-13.9,77.18,752.27,39.8043785,32.3791028,0.7772837,0.05878716,-0.1079338,0.6170287
16576,2023-01-20 10:50:40.580302,160668124,-2.07,-13.29,77.03,752.41,39.8043803,32.3791104,0.778344,0.05800895,-0.1017868,0.6168104
16609,2023-01-20 10:50:40.680078,160767883,-1.96,-12.51,77.03,752.44,39.8043813,32.3791175,0.7787648,0.05455762,-0.09588245,0.6175398
16640,2023-01-20 10:50:40.780112,160867899,-2.26,-12.26,76.96,752.51,39.8043828,32.379125,0.7794759,0.05106067,-0.09586636,0.6169439
16674,2023-01-20 10:50:40.880059,160967877,-2.73,-12.41,76.76,752.56,39.8043834,32.3791323,0.7806756,0.04849427,-0.09950623,0.6150548
16705,2023-01-20 10:50:40.980091,161067951,-3.46,-12.4,76.63,752.77,39.8043846,32.3791398,0.781666,0.04340103,-0.1033752,0.6135374
16739,2023-01-20 10:50:41.080100,161167922,-3.78,-12.84,76.77,752.61,39.8043856,32.3791467,0.7807664,0.04367122,-0.1079934,0.6138681
16771,2023-01-20 10:50:41.180111,161267875,-4.46,-13.23,76.94,752.69,39.8043867,32.379154,0.7798815,0.04134547,-0.1142115,0.6140285
