LineNo,UTC_Approx,TimeUS,DesRoll,Roll,DesPitch,Pitch,DesYaw,Yaw,ErrRP,ErrYaw,AEKF
362,2023-01-20 10:49:56.258967,116247952,0.01,-2.22,0,0.22,221.08,219.57,0.01,0,3
952,2023-01-20 10:49:56.349953,116347986,0.01,-2.22,0,0.22,225.3,219.57,0.01,0,3
1110,2023-01-20 10:49:56.451923,116454468,0.01,-2.22,0,0.22,232.21,219.57,0.01,0,3
1329,2023-01-20 10:49:56.564556,116566092,0.01,-2.22,0,0.22,241.83,219.57,0.01,0,3
1547,2023-01-20 10:49:56.665387,116666852,0.01,-2.22,0,0.22,246.56,219.57,0.02,0,3
1869,2023-01-20 10:49:56.765008,116766848,0.01,-2.22,0,0.22,246.62,219.57,0.02,0,3
1914,2023-01-20 10:49:56.864896,116866867,0.01,-2.22,0,0.22,246.69,219.56,0.03,0,3
1962,2023-01-20 10:49:56.964881,116966853,0.01,-2.22,0,0.22,246.71,219.56,0.03,0,3
2012,2023-01-20 10:49:57.064907,117066866,0,-2.22,0,0.22,246.7,219.56,0.03,0,3
2056,2023-01-20 10:49:57.164943,117166881,0,-2.21,0,0.22,246.72,219.56,0.03,0,3
2108,2023-01-20 10:49:57.272097,117266869,0,-2.21,0,0.22,246.71,219.56,0.03,0,3
2167,2023-01-20 10:49:57.383131,117366877,0,-2.21,0,0.23,246.71,219.56,0.03,0,3
2223,2023-01-20 10:49:57.477123,117466902,0,-2.21,0,0.23,246.71,219.56,0.04,0,3
2282,2023-01-20 10:49:57.567996,117566857,0,-2.21,0,0.23,246.71,219.55,0.04,0,3
2336,2023-01-20 10:49:57.664790,117666864,0,-2.21,0,0.23,246.71,219.55,0.03,0,3
2395,2023-01-20 10:49:57.764831,117766927,0,-2.21,0,0.23,246.7,219.55,0.03,0,3
2439,2023-01-20 10:49:57.864761,117866884,0,-2.21,0,0.23,246.71,219.55,0.03,0,3
2484,2023-01-20 10:49:57.964708,117966861,0,-2.21,0,0.22,246.7,219.55,0.03,0,3
2523,2023-01-20 10:49:58.064796,118066907,0,-2.21,0,0.22,246.7,219.55,0.03,0,3
2563,2023-01-20 10:49:58.164834,118166862,0,-2.21,0,0.22,219.52,219.54,0.03,0,3
2605,2023-01-20 10:49:58.264830,118266849,0,-2.22,0,0.22,219.52,219.54,0.03,0,3
2645,2023-01-20 10:49:58.364838,118366887,0,-2.21,0,0.23,219.51,219.53,0.03,0,3
2684,2023-01-20 10:49:58.464863,118466924,0,-2.21,0,0.22,219.5,219.52,0.04,0,3
2725,2023-01-20 10:49:58.564804,118566867,0,-2.21,0,0.22,219.51,219.53,0.04,0,3
2765,2023-01-20 10:49:58.664785,118666866,0,-2.21,0,0.22,219.52,219.54,0.06,0,3
2806,2023-01-20 10:49:58.764812,118766920,0,-2.21,0,0.22,219.52,219.54,0.06,0,3
2850,2023-01-20 10:49:58.864753,118866869,0,-2.21,0,0.22,219.52,219.54,0.06,0,3
2889,2023-01-20 10:49:58.964740,118966854,0,-2.21,0,0.22,219.5,219.52,0.06,0,3
2928,2023-01-20 10:49:59.064812,119066909,0,-2.21,0,0.22,219.49,219.49,0.06,0,3
2967,2023-01-20 10:49:59.164796,119166866,0,-2.22,0,0.21,219.49,219.51,0.06,0,3
3008,2023-01-20 10:49:59.264804,119266866,0,-2.2,0,0.21,219.49,219.49,0.07,0,3
3047,2023-01-20 10:49:59.364825,119366888,0,-2.21,0,0.21,219.49,219.51,0.07,0,3
3087,2023-01-20 10:49:59.464833,119466900,0,-2.21,0,0.21,219.49,219.53,0.08,0,3
3128,2023-01-20 10:49:59.564807,119566878,0,-2.22,0,0.2,219.49,219.5,0.08,0,3
3167,2023-01-20 10:49:59.664793,119666877,0,-2.21,0,0.21,219.49,219.5,0.06,0,3
3208,2023-01-20 10:49:59.764806,119766908,0,-2.21,0,0.21,219.49,219.53,0.06,0,3
3247,2023-01-20 10:49:59.864755,119866867,0,-2.21,0,0.2,219.49,219.51,0.07,0,3
3286,2023-01-20 10:49:59.964743,119966860,0,-2.22,0,0.2,219.49,219.5,0.07,0,3
3325,2023-01-20 10:50:00.064749,120066850,0,-2.22,0,0.2,219.49,219.52,0.07,0,3
3365,2023-01-20 10:50:00.164789,120166864,0,-2.23,0,0.2,219.49,219.5,0.07,0,3
3406,2023-01-20 10:50:00.264782,120266852,0,-2.23,0,0.19,219.49,219.47,0.07,0,3
3445,2023-01-20 10:50:00.364785,120366863,0,-2.22,0,0.2,219.49,219.51,0.07,0,3
3485,2023-01-20 10:50:00.464784,120466860,0,-2.23,0,0.19,219.49,219.52,0.06,0,3
3525,2023-01-20 10:50:00.564801,120566871,0,-2.23,0,0.19,219.49,219.5,0.06,0,3
3566,2023-01-20 10:50:00.664794,120666869,0,-2.23,0,0.19,219.49,219.51,0.05,0,3
3607,2023-01-20 10:50:00.764844,120766931,0,-2.24,0,0.18,219.49,219.49,0.05,0,3
3648,2023-01-20 10:50:00.864770,120866873,0,-2.25,0,0.18,219.49,219.48,0.05,0,3
3685,2023-01-20 10:50:00.964750,120966871,0,-2.24,0,0.19,219.49,219.5,0.05,0,3
3717,2023-01-20 10:50:01.064808,121066932,0,-2.25,0,0.18,219.49,219.52,0.06,0,3
3748,2023-01-20 10:50:01.164799,121166916,0.05,-2.24,-0.15,0.18,219.49,219.51,0.06,0,3
3782,2023-01-20 10:50:01.264774,121266924,0.09,-2.25,-0.27,0.17,219.49,219.5,0.06,0,3
3813,2023-01-20 10:50:01.364766,121366970,0.05,-2.25,-0.38,0.16,219.49,219.49,0.06,0,3
3845,2023-01-20 10:50:01.464707,121466897,-0.03,-2.2,-0.48,0.14,219.49,219.48,0.05,0,3
3878,2023-01-20 10:50:01.564776,121566914,-0.16,-2.2,-0.62,0.22,219.49,219.48,0.05,0,3
3911,2023-01-20 10:50:01.664828,121666947,-0.14,-2.14,-0.7,0.33,219.49,219.42,0.06,0.01,3
3944,2023-01-20 10:50:01.765167,121767284,-0.1,-2.14,-0.42,0.29,219.49,219.11,0.06,0.02,3
3977,2023-01-20 10:50:01.865117,121867282,0.13,-1.99,-0.38,0.41,219.49,219.98,0.06,0.02,3
4009,2023-01-20 10:50:01.965072,121967313,0.56,-1.11,-0.46,0.65,219.49,220.51,0.06,0.02,3
4041,2023-01-20 10:50:02.065060,122067284,0.81,-0.36,-0.67,0.86,219.48,220.73,0.07,0.02,3
4072,2023-01-20 10:50:02.165123,122167281,0.64,0.35,-1.02,0.74,219.48,220.75,0.07,0.02,3
4106,2023-01-20 10:50:02.265198,122267334,0.52,0.17,-1.21,-0.12,219.48,220.63,0.07,0.02,3
4137,2023-01-20 10:50:02.365132,122367270,0.68,-0.07,-1.37,-0.46,219.47,220.5,0.07,0.03,3
4169,2023-01-20 10:50:02.464878,122467276,0.65,0.28,-1.22,-0.89,219.48,220.65,0.08,0.02,3
4202,2023-01-20 10:50:02.564183,122566977,0.66,-0.16,-0.82,-0.86,219.48,221.04,0.08,0.02,3
4236,2023-01-20 10:50:02.663989,122666902,0.7,-0.47,-0.44,-0.87,219.49,221.53,0.07,0.02,3
4268,2023-01-20 10:50:02.764067,122766943,0.78,-0.33,-0.15,-0.49,219.49,222.03,0.07,0.02,3
4302,2023-01-20 10:50:02.864056,122866935,0.84,0.1,0.01,-0.05,219.49,222.34,0.09,0.01,3
4333,2023-01-20 10:50:02.964001,122966905,1.05,0.3,-0.09,-0.28,219.49,222.44,0.09,0.02,3
4366,2023-01-20 10:50:03.064023,123066937,1.29,0.51,-0.04,-0.63,219.49,222.34,0.13,0.02,3
4396,2023-01-20 10:50:03.164043,123166959,1.96,1.06,0.31,-0.15,219.5,222.07,0.13,0.02,3
4431,2023-01-20 10:50:03.263982,123266895,2.41,1.48,0.46,0.57,219.51,221.83,0.15,0.01,3
4461,2023-01-20 10:50:03.364003,123366911,2.98,1.85,0.16,0.91,219.49,221.93,0.15,0.01,3
4494,2023-01-20 10:50:03.464003,123466900,3.15,2.32,-0.18,0.72,219.47,222.27,0.18,0.02,3
4526,2023-01-20 10:50:03.564001,123566885,3.2,2.66,-0.32,0.48,219.47,222.81,0.18,0.02,3
4560,2023-01-20 10:50:03.664042,123666923,3.06,2.34,-0.37,0.34,219.46,223.42,0.16,0.02,3
4592,2023-01-20 10:50:03.764046,123766931,2.78,2.09,-0.22,0.35,219.47,223.99,0.16,0.02,3
4626,2023-01-20 10:50:03.864225,123866912,2.36,1.62,-0.09,0.46,219.48,224.32,0.15,0.02,3
4658,2023-01-20 10:50:03.964597,123966972,1.79,1.01,0.14,0.63,219.49,224.54,0.15,0.02,3
4691,2023-01-20 10:50:04.064714,124066935,0.44,0.09,0.14,0.67,219.49,224.36,0.17,0.02,3
4721,2023-01-20 10:50:04.164782,124166936,-1.44,-1.74,-0.07,0.84,219.49,223.86,0.17,0.02,3
4756,2023-01-20 10:50:04.264848,124266981,-3.24,-3.62,-0.35,0.76,219.5,223.38,0.15,0.01,3
4786,2023-01-20 10:50:04.364796,124366933,-4.68,-4.73,-0.7,-0.18,219.52,223,0.15,0.02,3
4819,2023-01-20 10:50:04.464742,124466907,-4.89,-5.34,-0.88,-0.72,219.54,222.68,0.16,0.02,3
4852,2023-01-20 10:50:04.564725,124566930,-3.91,-4.54,-0.75,-1.01,219.53,222.23,0.16,0.02,3
4886,2023-01-20 10:50:04.664724,124666916,-2.76,-2.99,-0.52,-0.81,219.52,221.81,0.16,0.02,3
4918,2023-01-20 10:50:04.764784,124766933,-2.38,-1.88,-0.25,-0.7,219.51,221.14,0.16,0.02,3
4952,2023-01-20 10:50:04.864826,124866991,-2.45,-1.26,0.06,-0.56,219.49,220.27,0.16,0.02,3
4982,2023-01-20 10:50:04.964723,124966935,-2.74,-1.78,0.48,-0.3,219.47,219.97,0.16,0.02,3
5015,2023-01-20 10:50:05.064765,125066963,-2.83,-2.5,0.82,0,219.46,220.38,0.19,0.01,3
5045,2023-01-20 10:50:05.164788,125166937,-2.55,-2.78,0.95,0.19,219.45,221.2,0.19,0.01,3
5080,2023-01-20 10:50:05.264795,125266930,-2.11,-2.68,1.07,0.34,219.45,222.15,0.16,0.01,3
5110,2023-01-20 10:50:05.365181,125367321,-1.6,-2.26,1.27,0.48,219.44,222.76,0.16,0.01,3
5143,2023-01-20 10:50:05.464807,125466940,-1.23,-1.41,1.34,0.89,219.44,223,0.14,0.02,3
5175,2023-01-20 10:50:05.564822,125566941,-0.94,-1,0.94,0.9,219.44,222.72,0.14,0.01,3
5210,2023-01-20 10:50:05.664819,125666932,-0.74,-0.85,0.19,-0.11,219.46,222.16,0.15,0.01,3
5242,2023-01-20 10:50:05.765158,125767268,-0.73,-0.61,-0.59,-1.16,219.47,221.35,0.15,0.02,3
5276,2023-01-20 10:50:05.859257,125867280,-0.65,-0.38,-0.91,-2.06,219.47,220.41,0.17,0.01,3
5306,2023-01-20 10:50:05.950172,125967269,-0.44,0.23,-0.67,-1.99,219.47,219.35,0.17,0.01,3
5339,2023-01-20 10:50:06.045233,126067287,-0.33,0.31,-0.44,-1.87,219.47,218.19,0.18,0.01,3
5369,2023-01-20 10:50:06.144889,126166907,-0.68,0.62,-0.36,-1.94,219.47,217,0.18,0.01,3
5404,2023-01-20 10:50:06.244372,126266925,-1.24,0.56,-0.56,-2.13,219.47,216.03,0.15,0.01,3
5436,2023-01-20 10:50:06.343446,126367238,-1.98,-0.08,-0.7,-2.42,215.99,212.33,0.15,0.01,3
5469,2023-01-20 10:50:06.442402,126466906,-2.65,-1.05,-0.8,-2.48,215.99,212.49,0.14,0.01,3
5501,2023-01-20 10:50:06.542401,126566917,-2.96,-2.5,-1.31,-2.85,216.02,212.99,0.14,0.01,3
5535,2023-01-20 10:50:06.642422,126666973,-2.81,-2.91,-2.09,-3.59,216.06,213.77,0.19,0.01,3
5567,2023-01-20 10:50:06.742302,126766917,-1.93,-2.44,-2.21,-3.84,216.06,214.25,0.19,0.01,3
5601,2023-01-20 10:50:06.842259,126866949,-1.15,-1.35,-2.1,-3.79,216.06,214.25,0.18,0,3
5631,2023-01-20 10:50:06.942166,126966945,-0.54,0.13,-1.85,-3.11,216.06,213.64,0.18,0.01,3
5664,2023-01-20 10:50:07.042143,127066982,-0.31,0.5,-2,-3.33,216.06,212.89,0.16,0.01,3
5694,2023-01-20 10:50:07.142051,127166908,-0.31,0.47,-2.27,-3.42,216.06,212.35,0.16,0.01,3
5729,2023-01-20 10:50:07.242085,127266925,-0.32,0.11,-2.4,-3.55,216.06,212.09,0.17,0.01,3
5759,2023-01-20 10:50:07.342488,127367265,-0.53,-0.36,-2.38,-3.47,216.06,212.18,0.17,0.01,3
5792,2023-01-20 10:50:07.442149,127466926,-0.61,-0.53,-2.11,-2.95,216.06,212.35,0.18,0.01,3
5824,2023-01-20 10:50:07.542071,127566935,-0.53,-0.1,-2.16,-2.43,216.06,212.55,0.18,0.01,3
5858,2023-01-20 10:50:07.646755,127666932,-0.39,-0.07,-2.36,-2.17,216.06,212.69,0.17,0.02,3
5890,2023-01-20 10:50:07.758030,127766934,-0.03,0.15,-2.68,-2.48,216.06,212.7,0.17,0.01,3
5924,2023-01-20 10:50:07.856549,127866940,0.3,0.36,-3.4,-3.14,216.06,212.76,0.18,0.01,3
5955,2023-01-20 10:50:07.947325,127966927,0.64,0.41,-3.89,-4.06,216.06,212.83,0.18,0.01,3
5989,2023-01-20 10:50:08.041976,128066932,0.88,0.67,-4.07,-4.31,216.05,212.98,0.17,0.01,3
6019,2023-01-20 10:50:08.141987,128166961,1.21,1.15,-3.55,-3.77,216.06,213.2,0.17,0.01,3
6054,2023-01-20 10:50:08.241958,128266925,1.42,1.5,-2.64,-2.77,216.09,213.59,0.15,0.01,3
6084,2023-01-20 10:50:08.342347,128367272,1.55,1.59,-1.53,-1.18,216.11,214.35,0.15,0.01,3
6117,2023-01-20 10:50:08.442033,128466937,1.64,1.55,-1.17,-0.45,216.12,215.17,0.15,0.01,3
6149,2023-01-20 10:50:08.542014,128566924,1.67,1.44,-1.42,-0.63,216.12,215.69,0.15,0.01,3
6183,2023-01-20 10:50:08.642024,128666942,1.6,1.42,-1.8,-1.27,216.11,215.88,0.15,0.01,3
6215,2023-01-20 10:50:08.742006,128766932,1.21,1.17,-2.45,-1.92,216.09,215.84,0.15,0.01,3
6249,2023-01-20 10:50:08.842074,128866964,0.76,0.8,-2.77,-2.53,216.08,215.48,0.13,0,3
6282,2023-01-20 10:50:08.942129,128966921,0.03,0.07,-3.05,-2.6,216.08,214.97,0.13,0.01,3
6315,2023-01-20 10:50:09.042208,129066927,-0.45,-0.83,-3.09,-2.48,216.08,214.57,0.15,0.01,3
6345,2023-01-20 10:50:09.142239,129166919,-0.61,-1.31,-2.85,-2.15,216.08,214.58,0.15,0.01,3
6380,2023-01-20 10:50:09.242207,129266941,-0.52,-1.34,-2.45,-1.11,216.08,214.98,0.14,0.01,3
6410,2023-01-20 10:50:09.342331,129367245,-0.17,-1.33,-1.42,-0.33,216.07,215.49,0.14,0,3
6443,2023-01-20 10:50:09.441987,129467523,0.26,-1.09,0.22,1.44,216.07,216.14,0.13,0,3
6475,2023-01-20 10:50:09.540852,129567608,0.74,-0.45,1.35,3.13,216.08,217.01,0.13,0,3
6509,2023-01-20 10:50:09.640110,129667597,1.08,0.41,1.78,3.72,216.09,217.94,0.15,0,3
6541,2023-01-20 10:50:09.740116,129767604,1.25,0.72,1.38,3.47,216.08,218.56,0.15,0,3
6575,2023-01-20 10:50:09.840175,129867673,1.22,0.89,0.93,2.95,216.07,219,0.17,0,3
6606,2023-01-20 10:50:09.940098,129967618,1.02,0.92,0.78,2.74,216.07,219.23,0.17,0,3
6639,2023-01-20 10:50:10.040097,130067620,0.89,0.57,0.62,2.68,216.06,219.35,0.16,0,3
6669,2023-01-20 10:50:10.140167,130167665,0.9,0.49,0.34,2.16,216.06,219.58,0.16,0,3
6704,2023-01-20 10:50:10.240012,130267599,0.94,0.46,0.12,1.5,216.05,219.78,0.16,0,3
6734,2023-01-20 10:50:10.339856,130367701,1.03,0.3,0.17,1.06,216.06,219.87,0.16,0.01,3
6767,2023-01-20 10:50:10.439611,130467623,1.07,0.46,0.52,1.16,216.06,219.8,0.15,0.01,3
6799,2023-01-20 10:50:10.539611,130567650,0.9,0.73,2,2.01,216.09,219.56,0.15,0,3
6833,2023-01-20 10:50:10.639571,130667633,0.81,1,4.71,4.71,216.13,219.3,0.14,0.01,3
6865,2023-01-20 10:50:10.739553,130767633,0.58,1.17,7.67,8.3,216.16,218.91,0.14,0.01,3
6899,2023-01-20 10:50:10.839590,130867716,0.38,0.97,9.32,10.82,216.18,218.54,0.15,0.01,3
6929,2023-01-20 10:50:10.939434,130967648,0.2,0.58,9.49,10.95,216.18,218.25,0.15,0.01,3
6962,2023-01-20 10:50:11.039416,131067650,0.07,0.43,8.89,9.23,216.18,217.77,0.13,0.01,3
6992,2023-01-20 10:50:11.139541,131167688,-0.05,0.34,8.46,7.72,216.18,217.15,0.13,0.01,3
7028,2023-01-20 10:50:11.239522,131267620,-0.27,0.49,8.14,7.08,216.18,216.55,0.12,0.01,3
7058,2023-01-20 10:50:11.339539,131367644,-0.66,0.02,7.92,6.56,216.18,215.87,0.12,0.01,3
7091,2023-01-20 10:50:11.439518,131467625,-1.07,-0.22,7.62,6.36,216.19,215.35,0.11,0.01,3
7122,2023-01-20 10:50:11.539534,131567635,-1.23,-0.46,7.31,6.09,216.19,214.99,0.11,0.01,3
7156,2023-01-20 10:50:11.639529,131667626,-1.29,-0.8,6.96,5.67,216.2,214.72,0.11,0.01,3
7188,2023-01-20 10:50:11.739535,131767633,-1.44,-0.46,6.81,5.12,216.2,214.73,0.11,0.02,3
7222,2023-01-20 10:50:11.839559,131867687,-1.6,-0.71,6.72,5.05,216.21,214.91,0.1,0.01,3
7252,2023-01-20 10:50:11.939432,131967635,-1.9,-0.87,6.71,5.35,216.21,215.3,0.1,0.01,3
7285,2023-01-20 10:50:12.039445,132067661,-2.12,-1.1,6.6,5.5,216.21,216.06,0.11,0.01,3
7315,2023-01-20 10:50:12.139548,132167683,-2.26,-1.29,6.59,5.5,216.21,217.09,0.11,0.01,3
7350,2023-01-20 10:50:12.239555,132267642,-2.24,-1.6,6.5,5.36,216.21,218.06,0.09,0.01,3
7380,2023-01-20 10:50:12.339555,132367646,-2.07,-2.14,6.57,4.95,216.21,218.41,0.09,0.01,3
7413,2023-01-20 10:50:12.439495,132467591,-1.77,-2.15,6.52,4.94,216.21,218.36,0.09,0.01,3
7445,2023-01-20 10:50:12.539520,132567623,-1.51,-1.84,6.35,4.96,216.22,218.21,0.09,0.01,3
7479,2023-01-20 10:50:12.639520,132667624,-1.2,-1.69,6.02,4.76,216.23,218.26,0.09,0.01,3
7511,2023-01-20 10:50:12.739523,132767616,-0.67,-1.36,5.74,3.89,216.23,218.49,0.09,0.01,3
7545,2023-01-20 10:50:12.839541,132867657,-0.05,-0.82,5.47,3.34,216.23,218.07,0.11,0.01,3
7575,2023-01-20 10:50:12.939451,132967641,0.05,-0.22,5.17,3.21,215.9,216.99,0.11,0.01,3
7609,2023-01-20 10:50:13.039430,133067635,0.01,0,4.92,3.33,215.03,215.81,0.11,0.01,3
7639,2023-01-20 10:50:13.139558,133167689,0.07,0.01,4.7,2.98,213.94,214.66,0.11,0.01,3
7674,2023-01-20 10:50:13.239526,133267613,0.22,-0.27,4.53,2.68,212.87,213.32,0.13,0.01,3
7704,2023-01-20 10:50:13.339542,133367632,0.11,-0.61,4.45,2.51,212.27,211.55,0.13,0.02,3
7737,2023-01-20 10:50:13.439529,133467621,0.17,-0.77,4.38,2.69,212.27,209.74,0.13,0.01,3
7769,2023-01-20 10:50:13.539551,133567642,0.36,-0.05,4.5,3.04,212.27,208.32,0.13,0.01,3
7803,2023-01-20 10:50:13.639543,133667635,0.48,0.63,4.59,3.14,212.27,207.34,0.13,0.01,3
7835,2023-01-20 10:50:13.739537,133767630,0.26,0.68,4.47,2.99,212.27,206.95,0.13,0.01,3
7869,2023-01-20 10:50:13.839529,133867656,0.21,-0.09,4.35,2.66,212.27,207.34,0.13,0.01,3
7901,2023-01-20 10:50:13.939426,133967636,0.59,0.44,4.25,1.92,212.27,207.88,0.13,0.01,3
7934,2023-01-20 10:50:14.039419,134067650,0.92,1.38,4.39,1.79,212.27,208.39,0.14,0.01,3
7964,2023-01-20 10:50:14.139518,134167675,1.16,1.47,4.61,2.58,212.28,209.07,0.14,0.01,3
7999,2023-01-20 10:50:14.239492,134267602,1.21,1.75,4.89,3.06,212.28,209.72,0.14,0.01,3
8029,2023-01-20 10:50:14.339543,134367645,0.99,1.3,5.16,3.39,212.29,210.16,0.14,0.01,3
8062,2023-01-20 10:50:14.439522,134467620,0.75,0.84,5.32,3.83,212.29,210.44,0.13,0.01,3
8095,2023-01-20 10:50:14.539538,134567636,0.6,0.64,5.45,3.95,212.29,210.81,0.13,0.01,3
8129,2023-01-20 10:50:14.639534,134667632,0.64,0.62,5.56,4.11,212.3,211.32,0.14,0.01,3
8161,2023-01-20 10:50:14.739525,134767623,1.01,0.93,5.81,4.04,212.3,211.97,0.14,0.01,3
8195,2023-01-20 10:50:14.839512,134867643,1.34,1.03,5.95,4.47,212.3,212.36,0.18,0.02,3
8225,2023-01-20 10:50:14.939425,134967640,1.29,0.8,5.96,4.8,212.3,212.27,0.18,0.01,3
8258,2023-01-20 10:50:15.039379,135067619,1.14,0.78,6.02,4.74,212.3,211.96,0.17,0.01,3
8288,2023-01-20 10:50:15.139493,135167668,1.07,1.11,6.04,4.69,212.3,211.46,0.17,0.02,3
8323,2023-01-20 10:50:15.239492,135267620,1,1.1,6.01,5.19,212.3,211.22,0.15,0.01,3
8353,2023-01-20 10:50:15.339532,135367640,0.96,1.02,5.96,5.06,212.3,211.15,0.15,0.01,3
8386,2023-01-20 10:50:15.439583,135467680,0.91,0.77,5.91,4.93,212.3,211.11,0.14,0.01,3
8418,2023-01-20 10:50:15.539554,135567654,0.71,0.65,5.89,4.63,211.84,210.99,0.14,0.01,3
8452,2023-01-20 10:50:15.639519,135667620,0.36,0.71,5.94,4.66,210.66,210.66,0.14,0.01,3
8484,2023-01-20 10:50:15.739527,135767625,0.14,0,6.01,4.71,209.33,210.2,0.14,0.01,3
8518,2023-01-20 10:50:15.839536,135867645,-0.06,0.04,6.08,4.97,207.16,209.35,0.12,0.01,3
8548,2023-01-20 10:50:15.939512,135967652,-0.01,0.18,6.15,4.85,204.3,207.74,0.12,0.01,3
8581,2023-01-20 10:50:16.039490,136067637,-0.04,0.24,6.21,4.95,201.06,205.09,0.12,0.01,3
8611,2023-01-20 10:50:16.139506,136167622,-0.07,0.51,6.41,5.42,197.47,201.52,0.12,0.02,3
8646,2023-01-20 10:50:16.239502,136267621,-0.37,0.74,6.61,5.7,193.88,197.47,0.13,0.03,3
8676,2023-01-20 10:50:16.339435,136367608,-0.72,0.83,7.01,5.99,190.41,193.27,0.13,0.04,3
8709,2023-01-20 10:50:16.439427,136467610,-1.29,0.61,7.28,6.38,187.1,189.22,0.17,0.05,3
8741,2023-01-20 10:50:16.539557,136567682,-1.92,0.06,7.18,6.53,183.81,185.53,0.17,0.06,3
8775,2023-01-20 10:50:16.639527,136667618,-2.67,-0.45,6.92,6.47,180.55,182.08,0.17,0.06,3
8807,2023-01-20 10:50:16.739547,136767641,-3.45,-1.16,6.75,6.31,177.29,178.9,0.17,0.07,3
8841,2023-01-20 10:50:16.839524,136867628,-4.28,-1.59,6.46,6.14,174.04,176.14,0.15,0.07,3
8871,2023-01-20 10:50:16.939511,136967639,-4.9,-2.19,6.13,5.97,170.8,173.45,0.15,0.08,3
8904,2023-01-20 10:50:17.039514,137067645,-5.56,-2.42,5.7,5.54,167.57,170.54,0.13,0.08,3
8934,2023-01-20 10:50:17.139539,137167641,-6.3,-2.91,5.22,5.34,164.32,167.71,0.13,0.09,3
8969,2023-01-20 10:50:17.239598,137267686,-6.94,-3.7,4.77,5.42,161.06,165.21,0.12,0.09,3
8999,2023-01-20 10:50:17.339565,137367662,-7.26,-4.21,4.36,5.28,157.78,162.48,0.12,0.09,3
9032,2023-01-20 10:50:17.439514,137467612,-7.51,-4.63,3.96,4.78,154.51,159.43,0.1,0.1,3
9064,2023-01-20 10:50:17.539533,137567620,-7.68,-4.57,3.45,4.72,151.26,156.22,0.1,0.1,3
9098,2023-01-20 10:50:17.639612,137667693,-7.81,-4.74,2.93,4.35,147.99,152.64,0.08,0.1,3
9130,2023-01-20 10:50:17.739558,137767639,-7.87,-4.77,2.36,3.88,144.73,148.83,0.08,0.11,3
9164,2023-01-20 10:50:17.836053,137867661,-8.04,-4.71,1.84,3.54,141.45,145.04,0.08,0.1,3
9194,2023-01-20 10:50:17.927120,137967633,-8.18,-4.79,1.6,3.1,138.16,141.22,0.08,0.1,3
9227,2023-01-20 10:50:18.022165,138067644,-8.41,-4.65,1.39,3.14,134.86,137.51,0.07,0.09,3
9258,2023-01-20 10:50:18.132938,138167620,-8.37,-4.96,1.14,3.22,131.53,133.93,0.07,0.09,3
9293,2023-01-20 10:50:18.239499,138267629,-8.13,-4.9,0.8,2.76,128.25,130.23,0.07,0.09,3
9323,2023-01-20 10:50:18.339618,138367707,-7.8,-4.86,0.5,2.66,125.43,126.71,0.07,0.08,3
9356,2023-01-20 10:50:18.436053,138467639,-7.71,-4.82,0.39,3.02,124.49,123.47,0.06,0.08,3
9388,2023-01-20 10:50:18.527161,138567645,-7.51,-4.99,0.42,3.33,124.48,121.1,0.06,0.08,3
9422,2023-01-20 10:50:18.620012,138667616,-7.46,-4.9,0.16,3.57,124.52,119.89,0.05,0.07,3
9454,2023-01-20 10:50:18.720000,138767638,-7.25,-5.14,-0.07,3.29,124.55,119.51,0.05,0.07,3
9488,2023-01-20 10:50:18.819948,138867620,-7.05,-5.14,-0.33,3.02,124.11,119.76,0.05,0.06,3
9520,2023-01-20 10:50:18.919888,138967596,-6.64,-4.98,-0.68,2.67,121.3,120.15,0.05,0.05,3
9553,2023-01-20 10:50:19.019956,139067686,-6.17,-4.65,-0.91,1.94,117.99,119.62,0.05,0.04,3
9583,2023-01-20 10:50:19.119942,139167636,-5.71,-4.36,-0.72,1.43,116.75,118.1,0.05,0.04,3
9618,2023-01-20 10:50:19.219941,139267612,-5.39,-4.37,-0.43,1.51,116.72,116.79,0.05,0.03,3
9648,2023-01-20 10:50:19.319935,139367631,-5.05,-4.29,-0.16,1.53,116.7,116.08,0.05,0.03,3
9681,2023-01-20 10:50:19.419924,139467652,-4.82,-3.81,-0.01,1.73,116.69,115.76,0.06,0.03,3
9713,2023-01-20 10:50:19.519844,139567624,-4.69,-3.68,0.23,1.89,116.67,115.65,0.06,0.03,3
9747,2023-01-20 10:50:19.619782,139667606,-4.67,-3.78,0.45,1.88,116.65,115.71,0.08,0.03,3
9779,2023-01-20 10:50:19.719801,139767627,-4.35,-4.1,0.86,2.09,116.61,116.01,0.08,0.03,3
9813,2023-01-20 10:50:19.819774,139867605,-4.18,-3.75,1.12,2.6,116.6,116.43,0.07,0.03,3
9843,2023-01-20 10:50:19.919772,139967620,-3.87,-3.32,1.5,2.7,116.57,116.66,0.07,0.04,3
9876,2023-01-20 10:50:20.019843,140067703,-3.64,-3.31,1.66,2.74,116.56,116.83,0.07,0.04,3
9906,2023-01-20 10:50:20.119787,140167637,-3.41,-3.56,1.84,3.02,116.55,117.09,0.07,0.04,3
9941,2023-01-20 10:50:20.219811,140267640,-3.19,-4,1.91,3.2,116.54,117.33,0.08,0.04,3
9974,2023-01-20 10:50:20.319859,140367624,-2.98,-3.24,1.97,3.49,116.53,117.18,0.08,0.03,3
10007,2023-01-20 10:50:20.419889,140467604,-2.92,-2.79,1.71,3.61,116.52,116.99,0.07,0.03,3
10039,2023-01-20 10:50:20.519899,140567618,-3.16,-2.73,1.37,3.47,116.51,116.78,0.07,0.04,3
10073,2023-01-20 10:50:20.619947,140667663,-3.68,-3.11,0.89,2.57,116.52,116.57,0.07,0.05,3
10105,2023-01-20 10:50:20.719938,140767615,-4.23,-3.79,0.39,1.58,116.53,116.6,0.07,0.05,3
10139,2023-01-20 10:50:20.819958,140867629,-4.78,-4.38,-0.05,0.85,116.54,116.99,0.08,0.06,3
10169,2023-01-20 10:50:20.919801,140967590,-5.41,-5.34,-0.25,0.34,116.55,117.5,0.08,0.06,3
10202,2023-01-20 10:50:21.019722,141067596,-6,-5.97,-0.49,0.02,116.57,117.94,0.1,0.05,3
10232,2023-01-20 10:50:21.119761,141167579,-6.26,-6.45,-0.74,-0.47,116.58,118.2,0.1,0.05,3
10267,2023-01-20 10:50:21.219874,141267653,-6.4,-6.91,-1.02,-0.95,116.6,118.37,0.09,0.05,3
10297,2023-01-20 10:50:21.319862,141367665,-6.43,-6.94,-1.2,-0.88,116.61,118.61,0.09,0.04,3
10330,2023-01-20 10:50:21.419775,141467591,-6.42,-6.91,-1.49,-0.54,116.49,118.94,0.08,0.05,3
10362,2023-01-20 10:50:21.519822,141567602,-6.29,-6.87,-1.99,-0.66,114.32,118.95,0.08,0.04,3
10396,2023-01-20 10:50:21.619814,141667577,-6.09,-6.62,-2.84,-1.24,109.48,117.74,0.07,0.04,3
10428,2023-01-20 10:50:21.719794,141767619,-5.86,-6.39,-3.59,-1.75,103.51,114.45,0.07,0.04,3
10462,2023-01-20 10:50:21.819734,141867611,-5.64,-6.29,-4.52,-2.06,97.56,109.36,0.07,0.05,3
10492,2023-01-20 10:50:21.919774,141967664,-5.28,-5.93,-5.7,-2.65,91.62,103.19,0.07,0.05,3
10525,2023-01-20 10:50:22.019754,142067645,-4.64,-5.53,-7.08,-3.66,85.68,96.34,0.09,0.06,3
10555,2023-01-20 10:50:22.119787,142167627,-3.62,-4.9,-8.15,-4.82,80.91,88.57,0.09,0.05,3
10590,2023-01-20 10:50:22.219787,142267594,-2.88,-3.73,-9.23,-5.76,78.38,81.04,0.09,0.04,3
10620,2023-01-20 10:50:22.319800,142367642,-2.33,-2.76,-10.58,-6.51,77.08,74.62,0.09,0.03,3
10653,2023-01-20 10:50:22.419728,142467589,-2.09,-1.97,-12.1,-7.49,76.43,69.96,0.07,0.04,3
10685,2023-01-20 10:50:22.519780,142567594,-2.01,-1.41,-13.59,-8.79,76.12,67.17,0.07,0.05,3
10719,2023-01-20 10:50:22.619888,142667668,-2.02,-1.09,-14.97,-10.29,75.97,65.88,0.09,0.07,3
10751,2023-01-20 10:50:22.719839,142767636,-2.39,-1.39,-16.05,-11.9,75.96,65.75,0.09,0.07,3
10785,2023-01-20 10:50:22.819806,142867623,-2.73,-1.92,-16.98,-12.91,75.98,66.46,0.1,0.08,3
10815,2023-01-20 10:50:22.919776,142967625,-2.87,-2.33,-17.64,-13.73,76,67.69,0.1,0.09,3
10848,2023-01-20 10:50:23.019763,143067627,-2.88,-2.29,-18.26,-14.33,76.01,69.23,0.1,0.1,3
10878,2023-01-20 10:50:23.119784,143167597,-2.92,-2.53,-18.93,-14.39,76.02,70.46,0.1,0.11,3
10914,2023-01-20 10:50:23.219877,143267655,-2.94,-3.05,-19.65,-14.8,76.04,71.34,0.1,0.11,3
10944,2023-01-20 10:50:23.319822,143367629,-2.81,-3.17,-20.49,-15.65,76.04,72.01,0.1,0.11,3
10977,2023-01-20 10:50:23.419771,143467598,-2.53,-3.13,-21.32,-16.38,76.01,72.64,0.11,0.12,3
11009,2023-01-20 10:50:23.519811,143567624,-1.99,-2.86,-21.65,-17.05,75.91,73.2,0.11,0.11,3
11043,2023-01-20 10:50:23.619832,143667636,-1.62,-1.99,-21.67,-17.17,75.84,73.64,0.12,0.12,3
11075,2023-01-20 10:50:23.719780,143767598,-1.79,-1.61,-21.57,-17.8,75.87,74.11,0.12,0.12,3
11109,2023-01-20 10:50:23.819787,143867619,-2.45,-1.32,-21.34,-18.14,75.99,74.54,0.11,0.13,3
11142,2023-01-20 10:50:23.919814,143967663,-3.64,-2.18,-21.02,-17.58,76.21,74.84,0.11,0.13,3
11175,2023-01-20 10:50:24.019754,144067604,-4.7,-3.44,-20.75,-17.08,76.39,74.92,0.14,0.12,3
11205,2023-01-20 10:50:24.119821,144167609,-5.14,-4.34,-20.26,-16.97,76.45,74.98,0.14,0.13,3
11240,2023-01-20 10:50:24.219833,144267584,-5.32,-4.46,-19.75,-16.78,76.46,75.04,0.17,0.13,3
11270,2023-01-20 10:50:24.319780,144367594,-5.75,-4.89,-19.73,-16.91,76.53,75.13,0.17,0.15,3
11303,2023-01-20 10:50:24.419726,144467577,-6.13,-5.24,-19.75,-17,76.6,75.21,0.21,0.13,3
11336,2023-01-20 10:50:24.519879,144567664,-6.02,-5.73,-19.35,-16.58,76.56,74.68,0.21,0.13,3
11371,2023-01-20 10:50:24.619853,144667601,-6.07,-5.23,-19.25,-16.13,76.56,73.92,0.24,0.14,3
11403,2023-01-20 10:50:24.719790,144767620,-5.64,-4.95,-19.34,-15.92,76.49,73.41,0.24,0.16,3
11437,2023-01-20 10:50:24.819736,144867631,-5.33,-5.23,-18.93,-16.01,76.42,72.28,0.26,0.17,3
11468,2023-01-20 10:50:24.919736,144967630,-5.32,-5.44,-16.6,-15.29,76.19,71.3,0.26,0.18,3
11501,2023-01-20 10:50:25.019731,145067619,-5.22,-5.27,-11.62,-11.56,75.72,70.89,0.25,0.19,3
11531,2023-01-20 10:50:25.119763,145167622,-4.53,-5.35,-4.77,-5.5,75.12,70.83,0.25,0.22,3
11567,2023-01-20 10:50:25.219811,145267648,-4.07,-5,2.34,1.59,74.59,70.86,0.22,0.24,3
11597,2023-01-20 10:50:25.319807,145367650,-3.85,-5.28,8.18,9.24,74.18,70.93,0.22,0.24,3
11630,2023-01-20 10:50:25.419797,145467642,-3.48,-4.72,11.95,15.19,73.94,70.78,0.31,0.24,3
11662,2023-01-20 10:50:25.519866,145567698,-4.27,-3.53,13.85,16.73,73.81,71.62,0.31,0.22,3
11696,2023-01-20 10:50:25.619815,145667639,-5.21,-4.69,15.01,15.58,73.71,72.73,0.39,0.21,3
11728,2023-01-20 10:50:25.719785,145767621,-5.79,-6.6,16.39,15.75,73.57,73.29,0.39,0.21,3
11761,2023-01-20 10:50:25.819818,145867669,-6.03,-7.08,17.89,17.1,73.41,73.34,0.33,0.19,3
11793,2023-01-20 10:50:25.919760,145967635,-6.02,-5.98,18.5,19.07,73.34,73.45,0.33,0.17,3
11826,2023-01-20 10:50:26.019735,146067622,-6.02,-3.63,17.61,19.03,73.44,74.23,0.29,0.14,3
11856,2023-01-20 10:50:26.119777,146167626,-6.37,-2.92,15.86,17.72,73.64,75.18,0.29,0.12,3
11891,2023-01-20 10:50:26.219803,146267629,-6.86,-4.07,14.38,14.6,73.81,75.54,0.25,0.11,3
11921,2023-01-20 10:50:26.319758,146367620,-7.32,-4.79,12.98,12.94,73.99,75.52,0.25,0.09,3
11954,2023-01-20 10:50:26.419735,146467620,-7.4,-5.94,11.54,11.12,74.18,74.74,0.23,0.08,3
11986,2023-01-20 10:50:26.519796,146567651,-7.15,-6.09,10.18,9.03,74.36,73.95,0.23,0.07,3
12020,2023-01-20 10:50:26.619792,146667624,-6.9,-5.35,9.08,7.32,74.5,73.57,0.25,0.07,3
12052,2023-01-20 10:50:26.719780,146767617,-6.96,-5.14,7.9,6.09,74.64,73.27,0.25,0.09,3
12085,2023-01-20 10:50:26.819848,146867694,-7.02,-5.23,6.92,4.3,74.76,72.73,0.24,0.11,3
12116,2023-01-20 10:50:26.919750,146967620,-6.96,-6.03,6.26,2.8,74.85,72.07,0.24,0.12,3
12149,2023-01-20 10:50:27.019892,147067780,-6.69,-5.93,5.94,1.61,74.88,71.51,0.25,0.12,3
12179,2023-01-20 10:50:27.119766,147167644,-6.13,-5.27,6.03,1.14,74.87,71.13,0.25,0.11,3
12214,2023-01-20 10:50:27.219745,147267613,-5.54,-5.33,6.08,1.55,74.87,71.04,0.21,0.09,3
12244,2023-01-20 10:50:27.319805,147367659,-4.8,-5.35,6.18,2.05,74.86,71.22,0.21,0.07,3
12277,2023-01-20 10:50:27.418022,147467640,-4.1,-4.65,6.07,2.4,74.87,71.55,0.2,0.06,3
12309,2023-01-20 10:50:27.509072,147567662,-3.56,-3.66,5.81,2.46,74.89,72.16,0.2,0.08,3
12343,2023-01-20 10:50:27.600223,147667774,-3.38,-2.93,5.6,2.04,74.9,72.99,0.2,0.09,3
12375,2023-01-20 10:50:27.700070,147767629,-3.44,-2.86,5.51,1.67,74.9,73.7,0.18,0.07,3
12408,2023-01-20 10:50:27.800252,147867818,-3.51,-3.28,5.53,1.55,74.9,73.92,0.18,0.07,3
12440,2023-01-20 10:50:27.900008,147967638,-3.24,-3.85,5.61,1.93,74.9,73.75,0.18,0.06,3
12473,2023-01-20 10:50:28.000224,148067918,-2.77,-3.68,5.65,2.56,74.9,73.48,0.18,0.05,3
12503,2023-01-20 10:50:28.099955,148167624,-2.01,-2.91,5.41,2.92,74.91,73.39,0.2,0.05,3
12538,2023-01-20 10:50:28.200236,148267880,-1.49,-1.36,4.92,2.7,74.92,73.33,0.2,0.05,3
12569,2023-01-20 10:50:28.300030,148367649,-1.32,-1.23,4.33,2.34,74.93,73.5,0.2,0.05,3
12602,2023-01-20 10:50:28.400271,148467838,-1.33,-1.48,3.78,2.08,74.95,73.82,0.2,0.05,3
12634,2023-01-20 10:50:28.510983,148567612,-1.17,-1.75,3.46,1.85,74.95,74.18,0.22,0.04,3
12668,2023-01-20 10:50:28.617989,148667602,-0.93,-1.48,3.29,1.6,74.96,74.33,0.22,0.04,3
12700,2023-01-20 10:50:28.709056,148767676,-0.64,-1.25,3.15,1.34,74.96,74.16,0.22,0.04,3
12733,2023-01-20 10:50:28.800247,148867861,-0.53,-1.18,2.93,1.38,74.96,73.78,0.22,0.03,3
12766,2023-01-20 10:50:28.899906,148967634,-0.59,-1.59,2.59,1.15,74.97,73.28,0.22,0.03,3
12799,2023-01-20 10:50:29.000162,149068004,-0.79,-1.71,2.15,0.76,74.97,72.79,0.22,0.02,3
12829,2023-01-20 10:50:29.099853,149167641,-0.85,-1.52,1.96,0.47,74.97,72.39,0.24,0.02,3
12865,2023-01-20 10:50:29.200234,149267968,-0.73,-1.73,1.99,0.08,74.97,72.18,0.24,0.04,3
12895,2023-01-20 10:50:29.299828,149367627,-0.87,-1.51,1.98,0.29,74.97,72.19,0.27,0.04,3
12928,2023-01-20 10:50:29.400174,149468038,-1.19,-1.45,1.94,0,74.97,72.69,0.27,0.05,3
12960,2023-01-20 10:50:29.499770,149567615,-1.4,-2.31,1.8,-0.51,74.98,73.3,0.26,0.04,3
12994,2023-01-20 10:50:29.600177,149668002,-1.55,-2.77,1.64,-0.81,74.98,73.67,0.26,0.04,3
13026,2023-01-20 10:50:29.699789,149767623,-1.22,-3.42,1.6,-0.59,74.98,73.42,0.24,0.04,3
13059,2023-01-20 10:50:29.800166,149868009,-0.58,-3.7,1.55,-0.16,74.98,72.87,0.24,0.03,3
13090,2023-01-20 10:50:29.899820,149967685,0.25,-3.43,1.5,-0.03,74.98,72.39,0.19,0.03,3
13123,2023-01-20 10:50:30.000166,150068054,1.12,-2.76,1.3,0.28,74.98,72.09,0.19,0.04,3
13153,2023-01-20 10:50:30.099781,150167635,1.63,-1.7,1.08,0.16,74.98,72.38,0.2,0.04,3
13188,2023-01-20 10:50:30.200166,150267986,1.72,-0.55,0.91,0.03,74.97,73.2,0.2,0.04,3
13218,2023-01-20 10:50:30.299828,150367647,1.41,-0.44,0.78,-0.1,74.97,74.11,0.19,0.04,3
13251,2023-01-20 10:50:30.400179,150467997,0.88,-1.02,0.68,-0.13,74.96,74.85,0.19,0.06,3
13283,2023-01-20 10:50:30.499777,150567600,0.69,-1.55,0.49,0.14,74.96,75.3,0.21,0.06,3
13317,2023-01-20 10:50:30.600162,150667991,0.75,-1.48,0.14,0.14,74.96,75.72,0.21,0.05,3
13350,2023-01-20 10:50:30.699807,150767638,1.24,-1.06,-0.24,0.05,74.95,76.2,0.22,0.05,3
13383,2023-01-20 10:50:30.800167,150868000,1.76,-0.15,-0.53,-0.1,74.94,76.48,0.22,0.06,3
13414,2023-01-20 10:50:30.899779,150967645,1.97,0.36,-0.81,-0.3,74.93,76.42,0.23,0.05,3
13447,2023-01-20 10:50:31.000173,151068073,1.88,0.48,-1.04,-0.67,74.93,75.99,0.23,0.05,3
13477,2023-01-20 10:50:31.099879,151167691,1.57,0.19,-1.3,-1.17,74.92,75.36,0.21,0.05,3
13512,2023-01-20 10:50:31.200215,151267939,1.09,0.29,-1.55,-1.46,74.91,74.75,0.21,0.05,3
13542,2023-01-20 10:50:31.299873,151367647,0.44,0.33,-1.75,-1.65,74.91,74.23,0.18,0.04,3
13575,2023-01-20 10:50:31.400165,151467989,-0.31,-0.06,-1.86,-1.99,74.91,73.89,0.18,0.06,3
13607,2023-01-20 10:50:31.499797,151567640,-1.3,-0.28,-1.93,-2.07,74.91,73.87,0.17,0.05,3
13640,2023-01-20 10:50:31.600171,151668034,-2.26,-1.23,-1.92,-1.91,74.91,74.26,0.17,0.06,3
13673,2023-01-20 10:50:31.699768,151767618,-2.85,-2.07,-1.74,-2.04,74.9,75.12,0.22,0.07,3
13706,2023-01-20 10:50:31.800166,151868003,-3.2,-2.27,-1.47,-2.15,74.89,76.09,0.22,0.08,3
13738,2023-01-20 10:50:31.899827,151967687,-3.37,-2.73,-1.14,-1.74,74.87,76.68,0.19,0.1,3
13771,2023-01-20 10:50:32.000164,152068047,-3.47,-3.06,-0.89,-1.01,74.85,77.01,0.19,0.12,3
13801,2023-01-20 10:50:32.099777,152167633,-3.5,-3.32,-0.76,-0.87,74.85,77.22,0.17,0.13,3
13836,2023-01-20 10:50:32.200172,152268001,-3.47,-3.59,-0.7,-0.97,74.84,77.1,0.17,0.13,3
13866,2023-01-20 10:50:32.299818,152367640,-3.26,-3.48,-0.66,-0.95,74.84,76.77,0.17,0.14,3
13899,2023-01-20 10:50:32.400178,152467994,-2.98,-3.1,-0.57,-1.02,74.83,76.34,0.17,0.14,3
13931,2023-01-20 10:50:32.499774,152567615,-3.08,-2.41,-0.56,-0.94,74.83,75.96,0.22,0.14,3
13964,2023-01-20 10:50:32.600167,152668033,-3.4,-2.37,-0.5,-0.91,74.83,75.5,0.22,0.13,3
13997,2023-01-20 10:50:32.699772,152767625,-3.74,-2.8,-0.41,-0.71,74.83,75.14,0.22,0.12,3
14030,2023-01-20 10:50:32.800172,152868011,-3.96,-3.17,-0.29,-0.39,74.82,74.91,0.22,0.11,3
14061,2023-01-20 10:50:32.899822,152967682,-4.06,-3.47,-0.25,-0.24,74.81,74.74,0.2,0.1,3
14094,2023-01-20 10:50:33.000162,153068043,-4.05,-4.03,-0.25,-0.28,74.81,74.71,0.2,0.09,3
14124,2023-01-20 10:50:33.099795,153167648,-4.25,-4.51,-0.3,-0.04,74.82,74.74,0.22,0.08,3
14159,2023-01-20 10:50:33.200161,153267986,-4.48,-5.2,-0.32,-0.16,74.82,74.89,0.22,0.07,3
14189,2023-01-20 10:50:33.299822,153367643,-4.5,-5.47,-0.27,-0.28,74.82,75.26,0.25,0.06,3
14223,2023-01-20 10:50:33.400172,153467989,-4.34,-5.36,-0.09,-0.5,74.8,75.88,0.25,0.06,3
14256,2023-01-20 10:50:33.499799,153567621,-4.29,-4.66,0.07,-0.59,74.79,76.53,0.22,0.05,3
14290,2023-01-20 10:50:33.600159,153667985,-4.37,-4.43,0.28,-0.64,74.77,77.1,0.22,0.04,3
14323,2023-01-20 10:50:33.699775,153767607,-4.72,-4.24,0.32,-0.57,74.77,77.56,0.21,0.04,3
14356,2023-01-20 10:50:33.800168,153868007,-5.17,-4.24,0.37,-0.57,74.77,77.94,0.21,0.04,3
14389,2023-01-20 10:50:33.899815,153967680,-5.74,-4.36,0.29,-0.34,74.77,78.13,0.18,0.04,3
14422,2023-01-20 10:50:34.000163,154068055,-6.26,-4.96,0.18,-0.31,74.78,78.31,0.18,0.04,3
14452,2023-01-20 10:50:34.099753,154167631,-6.89,-5.21,0.03,-0.3,74.8,78.28,0.16,0.04,3
14487,2023-01-20 10:50:34.200160,154268024,-7.32,-6.04,-0.09,-0.35,74.82,77.89,0.16,0.04,3
14517,2023-01-20 10:50:34.299806,154367646,-7.69,-6.43,-0.29,-0.12,74.85,77.4,0.14,0.03,3
14550,2023-01-20 10:50:34.400164,154467980,-7.75,-6.88,-0.45,-0.17,74.87,76.88,0.14,0.03,3
14583,2023-01-20 10:50:34.499822,154567602,-7.69,-6.93,-0.8,0.21,74.91,76.19,0.12,0.02,3
14615,2023-01-20 10:50:34.600243,154667986,-7.51,-6.98,-1.18,0.35,74.97,75.73,0.12,0.02,3
14649,2023-01-20 10:50:34.699817,154767609,-7.17,-6.38,-1.58,0.24,75.02,75.37,0.14,0.02,3
14682,2023-01-20 10:50:34.800165,154868006,-6.68,-6.02,-1.92,-0.31,75.06,75.07,0.14,0.02,3
14715,2023-01-20 10:50:34.899777,154967651,-6.24,-5.71,-2.2,-0.89,75.09,74.92,0.12,0.02,3
14748,2023-01-20 10:50:35.000162,155068069,-5.54,-5.37,-2.49,-1.59,75.15,74.76,0.12,0.02,3
14778,2023-01-20 10:50:35.099835,155167657,-4.76,-4.73,-2.68,-1.98,75.17,74.57,0.1,0.02,3
14813,2023-01-20 10:50:35.200227,155267963,-4.18,-4,-2.88,-2.43,75.18,74.43,0.1,0.03,3
14843,2023-01-20 10:50:35.299891,155367629,-3.71,-3.58,-3.36,-2.86,75.19,74.21,0.1,0.02,3
14876,2023-01-20 10:50:35.400219,155467960,-3.33,-3.14,-4.02,-3.42,75.2,74.06,0.1,0.02,3
14908,2023-01-20 10:50:35.499871,155567611,-3.12,-2.61,-4.89,-3.37,75.22,73.58,0.1,0.02,3
14941,2023-01-20 10:50:35.600218,155667957,-2.95,-2.97,-5.91,-3.63,75.24,72.98,0.1,0.02,3
14974,2023-01-20 10:50:35.699885,155767645,-2.68,-2.85,-6.86,-4.54,75.25,72.59,0.09,0.02,3
15007,2023-01-20 10:50:35.800199,155867979,-2.37,-2.56,-7.7,-5.49,75.25,72.54,0.09,0.02,3
15038,2023-01-20 10:50:35.899794,155967615,-2.16,-1.99,-8.33,-6.21,75.24,72.9,0.08,0.03,3
15071,2023-01-20 10:50:36.000166,156068028,-2.07,-1.7,-8.78,-6.73,75.35,73.4,0.08,0.02,3
15101,2023-01-20 10:50:36.099802,156167606,-2.42,-1.56,-9.27,-7,75.54,74.07,0.11,0.04,3
15136,2023-01-20 10:50:36.200219,156267965,-2.91,-2.11,-9.77,-7.63,75.67,74.79,0.11,0.04,3
15166,2023-01-20 10:50:36.299832,156367626,-3.58,-2.83,-10.41,-8.37,75.79,75.27,0.09,0.03,3
15199,2023-01-20 10:50:36.400165,156468008,-4.08,-3.62,-11.14,-9.02,75.89,75.51,0.09,0.03,3
15231,2023-01-20 10:50:36.499836,156567623,-4.45,-3.76,-11.88,-9.63,75.96,75.4,0.09,0.03,3
15264,2023-01-20 10:50:36.600242,156667972,-4.59,-4.16,-12.71,-10.38,76.02,75,0.09,0.02,3
15297,2023-01-20 10:50:36.699865,156767591,-4.58,-4.31,-13.53,-10.87,76.05,74.58,0.1,0.03,3
15330,2023-01-20 10:50:36.800266,156867988,-4.42,-4.42,-14.18,-11.99,76.06,74.55,0.1,0.03,3
15361,2023-01-20 10:50:36.899795,156967610,-4.14,-3.93,-14.65,-12.68,76.04,74.59,0.08,0.03,3
15394,2023-01-20 10:50:37.000168,157068076,-3.78,-3.54,-14.88,-13.16,76,74.6,0.08,0.03,3
15424,2023-01-20 10:50:37.099786,157167614,-3.63,-3.08,-15.05,-13.05,75.99,74.58,0.07,0.05,3
15459,2023-01-20 10:50:37.200225,157267973,-3.69,-3.09,-15.18,-13.33,76,74.6,0.07,0.05,3
15489,2023-01-20 10:50:37.299881,157367627,-4,-3.21,-15.58,-13.4,76.06,74.61,0.07,0.04,3
15522,2023-01-20 10:50:37.400214,157467957,-4.26,-3.38,-16.06,-14.1,76.11,74.51,0.07,0.04,3
15554,2023-01-20 10:50:37.499868,157567596,-4.48,-3.78,-16.7,-14.23,76.17,74.27,0.07,0.03,3
15587,2023-01-20 10:50:37.600623,157668335,-4.76,-3.84,-17.38,-15.02,76.24,74.31,0.07,0.03,3
15620,2023-01-20 10:50:37.699922,157767649,-4.98,-3.81,-18.33,-15.55,76.31,74.67,0.08,0.02,3
15653,2023-01-20 10:50:37.800252,157867994,-5.48,-3.08,-19.12,-16.64,76.43,75.27,0.08,0.02,3
15685,2023-01-20 10:50:37.899834,157967619,-6.43,-3.48,-19.97,-17.55,76.64,75.76,0.1,0.03,3
15718,2023-01-20 10:50:38.000162,158068006,-7.61,-4.54,-20.78,-18.49,76.91,76.1,0.1,0.03,3
15748,2023-01-20 10:50:38.090800,158167599,-8.84,-6.18,-21.38,-19.27,77.18,76.28,0.09,0.02,3
15781,2023-01-20 10:50:38.182097,158267917,-9.75,-7.81,-21.96,-19.43,77.41,76.27,0.09,0.02,3
15813,2023-01-20 10:50:38.280084,158367671,-10.39,-8.07,-22.42,-19.26,77.58,76.41,0.08,0.03,3
15844,2023-01-20 10:50:38.380379,158467964,-11.02,-8.66,-22.61,-19.44,77.72,76.57,0.08,0.03,3
15879,2023-01-20 10:50:38.480001,158567611,-11.21,-9.7,-22.65,-19.56,77.76,76.51,0.09,0.04,3
15911,2023-01-20 10:50:38.580430,158668072,-11.08,-10.13,-22.82,-19,77.75,76.3,0.09,0.04,3
15946,2023-01-20 10:50:38.679923,158767575,-10.49,-10.2,-22.57,-19.28,77.61,76.22,0.08,0.03,3
15977,2023-01-20 10:50:38.780208,158867865,-9.78,-10.31,-22.37,-19.43,77.45,76.24,0.08,0.04,3
16012,2023-01-20 10:50:38.888732,158967610,-9.05,-9.03,-22.18,-19.84,77.29,76.54,0.09,0.05,3
16045,2023-01-20 10:50:39.000148,159068030,-8.34,-8.07,-21.66,-19.68,77.11,76.9,0.09,0.04,3
16075,2023-01-20 10:50:39.090767,159167609,-7.79,-7.01,-20.88,-18.88,76.95,77.16,0.08,0.04,3
16109,2023-01-20 10:50:39.181992,159267854,-7.12,-6.69,-20.17,-18.34,76.78,77.06,0.08,0.04,3
16141,2023-01-20 10:50:39.279927,159367598,-6.59,-6.12,-19.74,-17.53,76.66,77.01,0.09,0.04,3
16172,2023-01-20 10:50:39.380039,159467746,-6.39,-5.74,-19.26,-17.35,76.59,77.13,0.09,0.04,3
16206,2023-01-20 10:50:39.479867,159567594,-6.01,-5.79,-18.89,-16.66,76.51,76.97,0.1,0.05,3
16237,2023-01-20 10:50:39.580222,159667965,-5.4,-5.43,-18.44,-15.91,76.39,76.63,0.1,0.05,3
16272,2023-01-20 10:50:39.679888,159767681,-4.81,-5.21,-17.97,-15.63,76.27,76.35,0.12,0.06,3
16303,2023-01-20 10:50:39.779847,159867697,-4.45,-5.09,-17.8,-15.9,76.21,76.09,0.12,0.05,3
16337,2023-01-20 10:50:39.879742,159967600,-3.93,-5.06,-17.39,-15.94,76.11,75.92,0.15,0.04,3
16368,2023-01-20 10:50:39.979767,160067620,-3.31,-4.42,-16.81,-15.86,76,75.75,0.15,0.04,3
16400,2023-01-20 10:50:40.079803,160167611,-2.81,-3.69,-16.25,-15.28,75.91,75.63,0.13,0.04,3
16434,2023-01-20 10:50:40.179834,160267587,-2.39,-3.08,-15.57,-14.3,75.84,75.5,0.13,0.03,3
16466,2023-01-20 10:50:40.279862,160367645,-2,-2.72,-14.98,-13.22,75.77,75.27,0.11,0.04,3
16497,2023-01-20 10:50:40.379771,160467606,-1.62,-2.77,-14.54,-12.77,75.72,75.09,0.11,0.04,3
16531,2023-01-20 10:50:40.479746,160567581,-1.43,-2.28,-13.98,-13,75.69,74.9,0.12,0.03,3
16563,2023-01-20 10:50:40.580072,160667894,-1.42,-2.08,-13.32,-12.37,75.68,74.83,0.12,0.03,3
16598,2023-01-20 10:50:40.679808,160767613,-1.77,-2.1,-12.8,-11.7,75.71,74.91,0.13,0.04,3
16629,2023-01-20 10:50:40.779827,160867614,-2.16,-2.53,-12.56,-11.6,75.75,74.95,0.13,0.04,3
16663,2023-01-20 10:50:40.879783,160967600,-2.74,-3.12,-12.35,-11.84,75.81,74.85,0.13,0.06,3
16694,2023-01-20 10:50:40.979829,161067689,-3.48,-3.98,-12.42,-11.91,75.89,74.88,0.13,0.05,3
16726,2023-01-20 10:50:41.079797,161167619,-4.1,-4.31,-12.63,-12.38,75.96,75.1,0.11,0.07,3
16760,2023-01-20 10:50:41.179854,161267618,-4.58,-4.99,-13.02,-12.8,76.03,75.37,0.11,0.07,3
16792,2023-01-20 10:50:41.279873,161367620,-4.71,-5.32,-13.21,-13.19,76.06,75.62,0.16,0.07,3
16823,2023-01-20 10:50:41.379868,161467608,-4.67,-5.01,-13.36,-13.15,76.06,75.87,0.16,0.07,3
16857,2023-01-20 10:50:41.479805,161567577,-4.56,-4.65,-13.16,-12.84,76.04,75.97,0.14,0.07,3
16889,2023-01-20 10:50:41.580193,161668008,-4.72,-4.27,-13.16,-12.83,76.05,76.04,0.14,0.08,3
16924,2023-01-20 10:50:41.679842,161767634,-5.26,-4.2,-13.18,-13.29,76.12,76.27,0.14,0.09,3
16955,2023-01-20 10:50:41.779881,161867633,-5.82,-5.03,-12.89,-13.23,76.17,76.28,0.14,0.08,3
16989,2023-01-20 10:50:41.879814,161967600,-6.05,-5.7,-12.53,-12.77,76.17,75.96,0.13,0.08,3
17020,2023-01-20 10:50:41.979774,162067611,-6.19,-5.85,-12.3,-12.55,76.18,75.41,0.13,0.07,3
17052,2023-01-20 10:50:42.079798,162167607,-6.29,-5.85,-12.09,-12.32,76.18,74.86,0.14,0.06,3
17086,2023-01-20 10:50:42.179828,162267588,-6.51,-5.74,-12.09,-12.64,76.2,74.44,0.14,0.05,3
17118,2023-01-20 10:50:42.279880,162367669,-7.05,-5.7,-12.3,-12.52,76.27,74.23,0.12,0.05,3
17149,2023-01-20 10:50:42.379771,162467608,-7.49,-6.13,-12.18,-12.42,76.31,74.19,0.12,0.06,3
17183,2023-01-20 10:50:42.479753,162567588,-7.62,-6.62,-11.81,-12.23,76.3,74.16,0.13,0.05,3
17215,2023-01-20 10:50:42.580050,162667871,-7.36,-6.83,-11.47,-11.85,76.25,74.25,0.13,0.04,3
17250,2023-01-20 10:50:42.679772,162767592,-7.31,-6.43,-11.2,-11.53,76.23,74.72,0.14,0.04,3
17281,2023-01-20 10:50:42.779757,162867579,-7.14,-6.52,-11.14,-10.97,76.21,74.93,0.14,0.03,3
17315,2023-01-20 10:50:42.879806,162967659,-6.69,-6.38,-11.26,-10.69,76.17,75.11,0.17,0.04,3
17346,2023-01-20 10:50:42.979738,163067628,-6.07,-6.22,-11.17,-10.94,76.1,75.28,0.17,0.04,3
17378,2023-01-20 10:50:43.079769,163167605,-5.61,-6.13,-11.14,-10.82,76.06,75.36,0.17,0.04,3
17412,2023-01-20 10:50:43.179851,163267609,-5.37,-5.38,-11.32,-10.86,76.04,75.46,0.17,0.05,3
17444,2023-01-20 10:50:43.279886,163367627,-5.15,-5.47,-11.59,-11.11,76.03,75.51,0.16,0.04,3
17475,2023-01-20 10:50:43.379861,163467602,-4.93,-5.97,-12.19,-11.51,76.04,75.43,0.16,0.04,3
17509,2023-01-20 10:50:43.479819,163567595,-4.89,-5.53,-12.8,-12.12,76.06,75.49,0.16,0.05,3
17542,2023-01-20 10:50:43.580044,163667864,-5.13,-5.48,-13.12,-12.8,76.1,75.66,0.16,0.07,3
17577,2023-01-20 10:50:43.679758,163767584,-5.88,-5.63,-13.38,-12.59,76.2,75.92,0.16,0.09,3
17608,2023-01-20 10:50:43.779789,163867612,-6.71,-6.07,-13.57,-12.26,76.31,76.03,0.16,0.1,3
17644,2023-01-20 10:50:43.879765,163967601,-6.87,-6.92,-13.71,-12.4,76.34,75.97,0.17,0.09,3
17675,2023-01-20 10:50:43.979749,164067603,-6.55,-7.24,-14.14,-12.47,76.32,75.78,0.17,0.11,3
17707,2023-01-20 10:50:44.079801,164167614,-6.04,-6.79,-14.69,-12.68,76.29,75.65,0.17,0.11,3
17741,2023-01-20 10:50:44.179906,164267664,-5.67,-6.09,-15.24,-13.43,76.27,75.67,0.17,0.09,3
17773,2023-01-20 10:50:44.279864,164367611,-5.95,-5.83,-15.37,-14.59,76.31,75.7,0.16,0.07,3
17804,2023-01-20 10:50:44.379849,164467597,-6.73,-6.93,-15.49,-15.87,76.43,75.66,0.16,0.06,3
17839,2023-01-20 10:50:44.479854,164567602,-6.99,-7.6,-15.46,-16.73,76.46,75.65,0.2,0.05,3
17871,2023-01-20 10:50:44.579856,164667605,-6.87,-7.18,-15.16,-16.36,76.43,75.73,0.2,0.05,3
17906,2023-01-20 10:50:44.679824,164767586,-6.57,-6.88,-15.09,-15.69,76.38,75.75,0.16,0.05,3
17937,2023-01-20 10:50:44.779813,164867592,-6.86,-5.88,-15.35,-16,76.44,76.11,0.16,0.05,3
17971,2023-01-20 10:50:44.879822,164967649,-7.53,-6.13,-15.93,-17.04,76.56,76.6,0.15,0.05,3
18002,2023-01-20 10:50:44.979731,165067615,-7.97,-6.87,-16.65,-17.14,76.68,76.4,0.15,0.05,3
18034,2023-01-20 10:50:45.079774,165167600,-7.76,-7.46,-16.64,-17.38,76.65,75.69,0.14,0.05,3
18068,2023-01-20 10:50:45.179883,165267621,-7.38,-7.18,-16.41,-17.23,76.58,74.96,0.14,0.04,3
18100,2023-01-20 10:50:45.279891,165367623,-6.93,-6.97,-15.96,-16.59,76.48,74.27,0.12,0.04,3
18131,2023-01-20 10:50:45.379858,165467605,-6.44,-7.16,-15.48,-16.89,76.39,73.81,0.12,0.04,3
18165,2023-01-20 10:50:45.479880,165567666,-6.21,-6.36,-15.58,-16.26,76.36,73.92,0.1,0.03,3
18197,2023-01-20 10:50:45.579784,165667616,-5.9,-6.05,-15.25,-15.55,76.3,74.14,0.1,0.03,3
18232,2023-01-20 10:50:45.679783,165767587,-5.86,-5.74,-14.88,-14.81,76.28,74.5,0.09,0.04,3
18263,2023-01-20 10:50:45.779861,165867618,-5.98,-5.71,-14.46,-14.16,76.27,74.94,0.09,0.03,3
18297,2023-01-20 10:50:45.879813,165967597,-5.99,-5.71,-14.01,-13.53,76.25,75.29,0.07,0.02,3
18328,2023-01-20 10:50:45.979769,166067600,-5.93,-5.65,-13.62,-12.78,76.22,75.52,0.07,0.02,3
18360,2023-01-20 10:50:46.079767,166167597,-5.86,-5.37,-13.17,-12.43,76.19,75.7,0.07,0.02,3
18394,2023-01-20 10:50:46.179832,166267650,-5.88,-5.32,-12.9,-12.47,76.18,75.84,0.07,0.03,3
18426,2023-01-20 10:50:46.279836,166367611,-5.93,-5.8,-12.76,-13.11,76.17,75.95,0.08,0.02,3
18457,2023-01-20 10:50:46.379856,166467580,-5.87,-5.6,-12.71,-13.34,76.16,76.04,0.08,0.02,3
18491,2023-01-20 10:50:46.479872,166567599,-5.97,-5.31,-12.51,-13.02,76.16,76.03,0.08,0.04,3
18523,2023-01-20 10:50:46.579887,166667631,-6.2,-5.21,-12.36,-12.26,76.18,76.01,0.08,0.05,3
18558,2023-01-20 10:50:46.679828,166767605,-6.44,-5.41,-12.09,-11.65,76.19,76.06,0.09,0.04,3
18589,2023-01-20 10:50:46.779869,166867683,-6.87,-5.73,-12.05,-11.62,76.24,76.32,0.09,0.03,3
18623,2023-01-20 10:50:46.872584,166967612,-7.16,-6.57,-12.35,-12.03,76.29,76.55,0.09,0.03,3
18654,2023-01-20 10:50:46.963543,167067601,-7.35,-6.84,-12.35,-12.1,76.31,76.49,0.09,0.03,3
18686,2023-01-20 10:50:47.059934,167167590,-7.26,-7.23,-12.04,-12.3,76.28,76.14,0.12,0.03,3
18720,2023-01-20 10:50:47.159978,167267597,-6.74,-6.96,-11.59,-12.11,76.19,75.7,0.12,0.02,3
18752,2023-01-20 10:50:47.260025,167367627,-6.22,-6.11,-11,-11.97,76.11,75.49,0.1,0.02,3
18783,2023-01-20 10:50:47.360004,167467603,-5.5,-6.07,-10.22,-10.68,76,75.21,0.1,0.03,3
18816,2023-01-20 10:50:47.460063,167567662,-4.76,-5.64,-9.55,-9.24,75.91,74.82,0.1,0.03,3
18848,2023-01-20 10:50:47.560027,167667629,-4.16,-5.17,-8.93,-9.4,75.83,74.56,0.1,0.04,3
18883,2023-01-20 10:50:47.660026,167767616,-3.48,-4.84,-8.85,-9.66,75.78,74.63,0.12,0.03,3
18914,2023-01-20 10:50:47.760050,167867619,-3.44,-3.88,-8.84,-9.27,75.78,75.26,0.12,0.03,3
18948,2023-01-20 10:50:47.860024,167967608,-4.25,-3.85,-8.64,-9.71,75.83,75.78,0.14,0.02,3
18979,2023-01-20 10:50:47.959956,168067580,-5.32,-4.23,-8.74,-9.33,75.92,75.93,0.14,0.02,3
19011,2023-01-20 10:50:48.059993,168167633,-6.05,-5.31,-8.83,-9.27,75.98,75.78,0.17,0.02,3
19045,2023-01-20 10:50:48.159952,168267592,-6.24,-5.45,-8.74,-9.43,75.99,75.5,0.17,0.03,3
19077,2023-01-20 10:50:48.259990,168367650,-6.32,-5.42,-8.85,-9.31,76,75.25,0.14,0.05,3
19108,2023-01-20 10:50:48.359892,168467585,-6.21,-5.28,-8.89,-8.96,75.99,74.92,0.14,0.07,3
19142,2023-01-20 10:50:48.459879,168567593,-6.5,-5.37,-9.27,-9.08,76.04,74.69,0.16,0.07,3
19174,2023-01-20 10:50:48.559912,168667639,-7.14,-6.11,-9.81,-9.46,76.12,74.61,0.16,0.09,3
19210,2023-01-20 10:50:48.659871,168767623,-7.81,-6.8,-10.5,-10.08,76.23,74.68,0.17,0.09,3
19241,2023-01-20 10:50:48.759897,168867684,-8.48,-7.69,-11.11,-10.78,76.34,75.04,0.17,0.09,3
19277,2023-01-20 10:50:48.860078,168967907,-8.84,-8.34,-11.7,-11.45,76.42,75.48,0.18,0.1,3
19308,2023-01-20 10:50:48.959707,169067584,-8.81,-8.85,-12.31,-11.64,76.46,75.87,0.18,0.13,3
19340,2023-01-20 10:50:49.059740,169167607,-8.66,-8.54,-12.7,-12.12,76.48,76.28,0.21,0.14,3
19374,2023-01-20 10:50:49.159779,169267597,-8.32,-7.99,-12.46,-11.65,76.42,76.64,0.21,0.14,3
19406,2023-01-20 10:50:49.259839,169367602,-8.3,-7.81,-12.53,-11.37,76.42,76.91,0.22,0.16,3
19437,2023-01-20 10:50:49.359970,169467673,-8.55,-7.93,-12.81,-11.54,76.47,77.25,0.22,0.16,3
19471,2023-01-20 10:50:49.459872,169567600,-8.8,-8.49,-13.27,-12.2,76.54,77.68,0.21,0.16,3
19503,2023-01-20 10:50:49.559794,169667604,-8.49,-8.72,-13.59,-11.98,76.52,77.69,0.21,0.15,3
19538,2023-01-20 10:50:49.659791,169767604,-8.08,-8.27,-13.75,-12.64,76.49,77.45,0.22,0.14,3
19569,2023-01-20 10:50:49.759852,169867614,-8.2,-8.1,-13.89,-12.79,76.51,77.07,0.22,0.13,3
19603,2023-01-20 10:50:49.859837,169967610,-8.39,-8.07,-13.89,-13.33,76.53,76.81,0.2,0.13,3
19634,2023-01-20 10:50:49.959784,170067608,-8.84,-8.44,-13.76,-13.86,76.58,76.76,0.2,0.12,3
19666,2023-01-20 10:50:50.059790,170167640,-9.17,-8.98,-13.54,-14.14,76.6,77.03,0.2,0.1,3
19742,2023-01-20 10:50:50.159725,170267584,-9.07,-9.26,-12.92,-13.92,76.54,77.33,0.2,0.08,3
19774,2023-01-20 10:50:50.259766,170367602,-8.83,-9.1,-12.64,-13.78,76.49,77.41,0.22,0.06,3
19805,2023-01-20 10:50:50.359791,170467584,-8.58,-8.76,-12.59,-13.48,76.46,77.43,0.22,0.05,3
19839,2023-01-20 10:50:50.459806,170567572,-8.43,-8.21,-12.42,-13.72,76.43,77.55,0.18,0.05,3
19871,2023-01-20 10:50:50.559847,170667595,-8.24,-7.47,-12.29,-13.64,76.4,77.6,0.18,0.04,3
19906,2023-01-20 10:50:50.659919,170767661,-8.32,-7.12,-12.03,-13.65,76.39,77.62,0.16,0.04,3
19937,2023-01-20 10:50:50.759927,170867671,-8.56,-7.14,-11.83,-13.27,76.4,77.44,0.16,0.03,3
19971,2023-01-20 10:50:50.859811,170967599,-8.78,-7.43,-11.7,-13.07,76.41,77.02,0.15,0.03,3
20002,2023-01-20 10:50:50.959739,171067600,-8.65,-7.75,-11.49,-13.08,76.38,76.56,0.15,0.02,3
20034,2023-01-20 10:50:51.059764,171167610,-8.48,-7.53,-11.27,-12.65,76.35,76.08,0.14,0.03,3
20068,2023-01-20 10:50:51.159841,171267614,-7.96,-7.84,-11.27,-12.3,76.3,75.56,0.14,0.02,3
20100,2023-01-20 10:50:51.259875,171367621,-7.6,-7.91,-11.46,-12.24,76.27,75.23,0.14,0.03,3
20131,2023-01-20 10:50:51.359891,171467641,-7.44,-7.95,-11.75,-12.32,76.28,75.2,0.14,0.02,3
20165,2023-01-20 10:50:51.459832,171567611,-7.45,-7.94,-12.29,-12.36,76.31,75.3,0.17,0.03,3
20197,2023-01-20 10:50:51.559787,171667613,-8.04,-8.21,-13.05,-12.71,76.43,75.53,0.17,0.04,3
20232,2023-01-20 10:50:51.659783,171767593,-8.49,-8.37,-13.68,-13.27,76.53,75.84,0.24,0.04,3
20263,2023-01-20 10:50:51.759871,171867622,-8.54,-8.44,-13.98,-13.92,76.56,76.19,0.24,0.05,3
20297,2023-01-20 10:50:51.859829,171967596,-8.3,-8.54,-14.02,-13.7,76.53,76.37,0.25,0.04,3
20328,2023-01-20 10:50:51.959809,172067642,-7.51,-7.9,-13.8,-13.52,76.42,76.55,0.25,0.04,3
20360,2023-01-20 10:50:52.059834,172167694,-6.73,-7.03,-13.69,-13.24,76.32,76.67,0.21,0.04,3
20394,2023-01-20 10:50:52.159760,172267623,-5.68,-5.98,-13.46,-12.95,76.18,76.72,0.21,0.04,3
20426,2023-01-20 10:50:52.259775,172367613,-5.24,-5.16,-13.36,-13,76.12,76.69,0.25,0.04,3
20457,2023-01-20 10:50:52.359811,172467605,-5.13,-5.19,-13.25,-13.02,76.11,76.6,0.25,0.03,3
20491,2023-01-20 10:50:52.459842,172567609,-5.17,-5.31,-13.16,-13.22,76.11,76.74,0.22,0.03,3
20523,2023-01-20 10:50:52.559859,172667609,-5.07,-5.35,-12.99,-13.07,76.09,76.95,0.22,0.02,3
20558,2023-01-20 10:50:52.659887,172767663,-5.13,-5.41,-13.12,-12.96,76.1,77.03,0.22,0.05,3
20589,2023-01-20 10:50:52.759810,172867640,-5.33,-5.84,-13.4,-13.13,76.14,76.84,0.22,0.04,3
20623,2023-01-20 10:50:52.859739,172967592,-5.56,-6.12,-13.43,-13.42,76.16,76.54,0.23,0.03,3
20654,2023-01-20 10:50:52.959736,173067591,-5.29,-6.27,-13.28,-13.18,76.13,76.17,0.23,0.04,3
20686,2023-01-20 10:50:53.059762,173167594,-5.21,-5.79,-13.07,-12.99,76.11,75.81,0.24,0.03,3
20720,2023-01-20 10:50:53.159811,173267604,-5.43,-5.76,-12.88,-12.98,76.12,75.61,0.24,0.04,3
20752,2023-01-20 10:50:53.259847,173367616,-5.78,-6.19,-12.66,-13.19,76.15,75.56,0.22,0.04,3
20783,2023-01-20 10:50:53.359896,173467651,-6.14,-6.41,-12.23,-13.1,76.17,75.52,0.22,0.05,3
20817,2023-01-20 10:50:53.459834,173567613,-6.17,-6.94,-11.94,-12.95,76.16,75.32,0.23,0.04,3
20849,2023-01-20 10:50:53.559817,173667645,-5.77,-6.52,-11.49,-12.25,76.09,75.05,0.23,0.03,3
20884,2023-01-20 10:50:53.659809,173767618,-5.67,-5.73,-11.08,-11.36,76.06,74.97,0.26,0.03,3
20916,2023-01-20 10:50:53.759882,173867628,-5.98,-5.8,-10.33,-10.36,76.05,75.03,0.26,0.04,3
20952,2023-01-20 10:50:53.860188,173967949,-6.27,-6.34,-9.84,-9.88,76.05,75.14,0.3,0.03,3
20983,2023-01-20 10:50:53.959802,174067630,-6.16,-6.46,-8.98,-8.86,75.99,75.15,0.3,0.04,3
21015,2023-01-20 10:50:54.054324,174167622,-5.89,-6.33,-8.58,-7.94,75.95,75.08,0.31,0.05,3
21049,2023-01-20 10:50:54.145202,174267605,-5.69,-6.1,-8.7,-7.73,75.94,74.98,0.31,0.05,3
21081,2023-01-20 10:50:54.244161,174367606,-5.87,-5.92,-9.19,-8.24,75.98,75.03,0.28,0.05,3
21112,2023-01-20 10:50:54.355383,174467622,-5.9,-5.78,-9.26,-8.66,75.99,75.12,0.28,0.05,3
21147,2023-01-20 10:50:54.459849,174567603,-6.05,-5.88,-9.23,-9.06,76,75.25,0.28,0.04,3
21179,2023-01-20 10:50:54.559833,174667605,-6.4,-6.12,-9.28,-9.35,76.03,75.25,0.28,0.03,3
21214,2023-01-20 10:50:54.659870,174767670,-6.71,-6.47,-9.24,-9.56,76.05,75.22,0.25,0.03,3
21245,2023-01-20 10:50:54.759804,174867638,-6.77,-7.06,-9.06,-9.67,76.05,75.05,0.25,0.02,3
21279,2023-01-20 10:50:54.859728,174967581,-6.99,-7.01,-9.16,-9.84,76.07,74.88,0.26,0.02,3
21310,2023-01-20 10:50:54.959728,175067589,-7.66,-7.57,-9.65,-10.22,76.16,74.63,0.26,0.02,3
21342,2023-01-20 10:50:55.059743,175167581,-8.27,-8.04,-10.34,-10.61,76.26,74.48,0.24,0.04,3
21376,2023-01-20 10:50:55.159810,175267604,-8.8,-8.69,-11.06,-11.29,76.36,74.51,0.24,0.05,3
21408,2023-01-20 10:50:55.259873,175367679,-9.04,-9.45,-11.78,-11.7,76.44,74.73,0.21,0.05,3
21439,2023-01-20 10:50:55.359750,175467606,-9.04,-9.13,-12.29,-12.13,76.48,75.17,0.21,0.05,3
21473,2023-01-20 10:50:55.459772,175567611,-9.21,-8.8,-12.88,-12.73,76.55,75.6,0.25,0.08,3
21505,2023-01-20 10:50:55.559845,175667621,-10.2,-9.49,-13.59,-13.26,76.73,76.29,0.25,0.06,3
21540,2023-01-20 10:50:55.659883,175767631,-10.89,-10.34,-13.99,-13.7,76.85,76.82,0.26,0.06,3
21571,2023-01-20 10:50:55.759869,175867612,-10.8,-10.87,-14.09,-13.31,76.85,76.72,0.26,0.05,3
21605,2023-01-20 10:50:55.859828,175967602,-10.22,-10.6,-14,-13.26,76.77,76.43,0.23,0.04,3
21636,2023-01-20 10:50:55.959822,176067652,-9.81,-9.49,-13.63,-13.7,76.69,76.33,0.23,0.04,3
21668,2023-01-20 10:50:56.059736,176167595,-9.81,-9.52,-13.61,-14.34,76.68,76.27,0.24,0.03,3
21702,2023-01-20 10:50:56.159739,176267609,-10.23,-10.47,-13.87,-15.02,76.76,76.29,0.24,0.03,3
21734,2023-01-20 10:50:56.254303,176367610,-10.01,-10.96,-14.08,-14.92,76.75,76.15,0.24,0.03,3
21765,2023-01-20 10:50:56.345208,176467610,-9.17,-10.02,-14.19,-14.68,76.65,76.1,0.24,0.05,3
21799,2023-01-20 10:50:56.439716,176567607,-8.37,-8.91,-14.21,-14.09,76.56,76.03,0.24,0.04,3
21831,2023-01-20 10:50:56.539767,176667677,-8.25,-7.98,-14.56,-13.91,76.57,75.95,0.24,0.06,3
21866,2023-01-20 10:50:56.639693,176767614,-8.48,-7.6,-14.92,-14.25,76.62,76.11,0.23,0.04,3
21897,2023-01-20 10:50:56.739713,176867633,-8.76,-7.17,-14.95,-14.72,76.66,76.23,0.23,0.04,3
21931,2023-01-20 10:50:56.839642,176967579,-8.84,-7.71,-14.7,-15.09,76.65,76.19,0.2,0.05,3
21962,2023-01-20 10:50:56.939609,177067593,-8.84,-7.98,-14.1,-14.81,76.61,76.15,0.2,0.05,3
21994,2023-01-20 10:50:57.044041,177167597,-8.68,-8.28,-13.39,-14.47,76.53,76.03,0.18,0.06,3
22028,2023-01-20 10:50:57.155286,177267588,-8.21,-8.29,-13.08,-14.55,76.45,76.08,0.18,0.05,3
22060,2023-01-20 10:50:57.254430,177367691,-7.96,-7.68,-12.98,-14.39,76.42,76.17,0.18,0.04,3
22090,2023-01-20 10:50:57.345220,177467627,-7.79,-7.4,-12.81,-13.83,76.39,76.23,0.18,0.03,3
22124,2023-01-20 10:50:57.439672,177567609,-7.66,-7.25,-12.57,-13.21,76.35,76.27,0.19,0.03,3
22156,2023-01-20 10:50:57.539658,177667626,-7.15,-6.83,-12.41,-12.76,76.29,76.18,0.19,0.03,3
22191,2023-01-20 10:50:57.639627,177767607,-6.75,-6.23,-12.22,-12.19,76.23,76,0.21,0.03,3
22222,2023-01-20 10:50:57.739658,177867620,-6.87,-6.29,-11.96,-11.75,76.23,75.86,0.21,0.03,3
22256,2023-01-20 10:50:57.839693,177967671,-7.18,-6.7,-11.88,-11.68,76.26,75.79,0.21,0.03,3
22287,2023-01-20 10:50:57.939561,178067607,-7.53,-7.14,-12.17,-12.06,76.31,75.69,0.21,0.03,3
22319,2023-01-20 10:50:58.039516,178167599,-7.67,-7.51,-12.38,-12.63,76.34,75.61,0.22,0.03,3
22353,2023-01-20 10:50:58.139541,178267612,-7.35,-7.21,-12.37,-12.63,76.31,75.51,0.22,0.04,3
22385,2023-01-20 10:50:58.239556,178367623,-7.06,-6.75,-12.21,-12.47,76.27,75.47,0.21,0.04,3
22416,2023-01-20 10:50:58.339529,178467605,-6.98,-6.46,-11.88,-11.94,76.24,75.55,0.21,0.05,3
22450,2023-01-20 10:50:58.439533,178567602,-7.05,-6.55,-11.64,-11.61,76.23,75.67,0.21,0.04,3
22482,2023-01-20 10:50:58.539642,178667680,-7.4,-6.75,-11.57,-11.17,76.26,75.7,0.21,0.03,3
22517,2023-01-20 10:50:58.639559,178767581,-7.67,-7.24,-11.29,-11.24,76.27,75.68,0.2,0.03,3
22548,2023-01-20 10:50:58.739580,178867609,-8.04,-7.85,-11.15,-11.39,76.3,75.73,0.2,0.02,3
22583,2023-01-20 10:50:58.839559,178967612,-8.09,-8.31,-11.2,-11.56,76.3,75.85,0.21,0.02,3
22616,2023-01-20 10:50:58.939502,179067605,-7.79,-8.23,-10.89,-11.33,76.25,75.87,0.21,0.02,3
22648,2023-01-20 10:50:59.039486,179167606,-7.46,-7.84,-10.71,-11.12,76.21,75.84,0.16,0.03,3
22682,2023-01-20 10:50:59.139575,179267661,-7.07,-7.32,-10.61,-10.97,76.17,75.82,0.16,0.03,3
22714,2023-01-20 10:50:59.239547,179367613,-6.87,-6.78,-10.61,-10.47,76.15,75.85,0.15,0.03,3
22745,2023-01-20 10:50:59.339561,179467630,-6.68,-6.59,-10.68,-10.44,76.14,75.85,0.15,0.02,3
22779,2023-01-20 10:50:59.439506,179567586,-6.61,-6.8,-11.02,-10.88,76.15,75.86,0.14,0.03,3
22811,2023-01-20 10:50:59.539488,179667591,-6.68,-6.87,-11.27,-11.23,76.17,75.92,0.14,0.05,3
22846,2023-01-20 10:50:59.639515,179767611,-6.74,-6.93,-11.46,-11.3,76.19,76.1,0.13,0.04,3
22877,2023-01-20 10:50:59.739577,179867618,-6.8,-6.81,-11.47,-11.22,76.19,76.31,0.13,0.05,3
22911,2023-01-20 10:50:59.839638,179967666,-6.84,-6.72,-11.51,-11.06,76.2,76.52,0.13,0.05,3
22942,2023-01-20 10:50:59.939529,180067608,-6.86,-6.76,-11.29,-10.86,76.19,76.65,0.13,0.06,3
22974,2023-01-20 10:51:00.039500,180167613,-6.95,-6.95,-11.45,-10.75,76.21,76.79,0.14,0.06,3
23008,2023-01-20 10:51:00.139481,180267603,-7.26,-7.1,-11.91,-11.38,76.27,76.95,0.14,0.07,3
23040,2023-01-20 10:51:00.239505,180367619,-7.58,-7.42,-12.4,-12.01,76.33,77.06,0.15,0.07,3
23071,2023-01-20 10:51:00.339522,180467605,-8.31,-7.98,-12.84,-12.15,76.45,77.19,0.15,0.07,3
23105,2023-01-20 10:51:00.439595,180567666,-8.89,-8.82,-13.19,-12.38,76.54,77.13,0.14,0.06,3
23137,2023-01-20 10:51:00.539504,180667592,-9.18,-9.68,-13.61,-13.16,76.61,77,0.14,0.08,3
23172,2023-01-20 10:51:00.639488,180767585,-9.18,-9.7,-14.11,-13.76,76.65,76.83,0.15,0.08,3
23203,2023-01-20 10:51:00.739513,180867604,-9.54,-9.79,-14.58,-14.06,76.73,76.69,0.15,0.07,3
23237,2023-01-20 10:51:00.839505,180967596,-9.75,-9.95,-14.97,-14.61,76.79,76.67,0.13,0.07,3
23268,2023-01-20 10:51:00.939519,181067621,-10.09,-10.28,-15.61,-15.1,76.9,76.5,0.13,0.07,3
23300,2023-01-20 10:51:01.039510,181167610,-9.85,-10.57,-15.97,-15.38,76.89,76.24,0.14,0.07,3
23334,2023-01-20 10:51:01.139593,181267671,-9.62,-10.36,-16.19,-15.73,76.88,76.22,0.14,0.06,3
23366,2023-01-20 10:51:01.239551,181367618,-9.4,-9.79,-16.37,-16.05,76.86,76.36,0.12,0.06,3
23397,2023-01-20 10:51:01.339541,181467615,-9.3,-9.4,-16.08,-16.17,76.83,76.52,0.12,0.05,3
23431,2023-01-20 10:51:01.439549,181567625,-9.18,-9.1,-15.74,-16.05,76.78,76.66,0.14,0.04,3
23463,2023-01-20 10:51:01.539540,181667612,-8.76,-8.96,-15.61,-15.94,76.71,76.74,0.14,0.05,3
23498,2023-01-20 10:51:01.639539,181767610,-8.24,-8.43,-15.46,-15.8,76.63,76.74,0.14,0.06,3
23529,2023-01-20 10:51:01.739596,181867670,-7.66,-7.93,-14.97,-15.26,76.52,76.65,0.14,0.05,3
23563,2023-01-20 10:51:01.839491,181967578,-7.23,-7.28,-14.54,-14.6,76.43,76.48,0.15,0.04,3
23594,2023-01-20 10:51:01.939507,182067624,-7.18,-6.86,-14.09,-14.28,76.4,76.46,0.15,0.05,3
23626,2023-01-20 10:51:02.039485,182167616,-7.35,-6.88,-13.8,-14.07,76.4,76.62,0.13,0.05,3
23660,2023-01-20 10:51:02.139483,182267600,-7.7,-7.21,-13.77,-14.02,76.44,76.82,0.13,0.04,3
23692,2023-01-20 10:51:02.239525,182367624,-7.94,-7.55,-13.85,-14.03,76.48,76.82,0.14,0.06,3
23723,2023-01-20 10:51:02.339534,182467609,-7.94,-7.71,-14.04,-14.13,76.49,76.62,0.14,0.06,3
23757,2023-01-20 10:51:02.439586,182567655,-8,-7.59,-14.29,-14.27,76.51,76.49,0.14,0.06,3
23789,2023-01-20 10:51:02.539511,182667600,-7.96,-7.36,-14.23,-14.22,76.51,76.45,0.14,0.06,3
23824,2023-01-20 10:51:02.639493,182767598,-7.92,-7.32,-14.05,-14.1,76.49,76.41,0.12,0.06,3
23855,2023-01-20 10:51:02.739492,182867608,-7.94,-7.4,-14.07,-13.72,76.49,76.41,0.12,0.06,3
