LineNo,UTC_Approx,TimeUS,I,Alt,Press,Temp,CRt,SMS,Offset,GndTemp,Health
338,2023-01-20 10:49:56.256628,116245380,0,0.6641449,92903.13,25.6,-0.05318575,116245,0,20.07363,1
944,2023-01-20 10:49:56.347594,116345393,0,0.6802779,92902.97,25.6,-0.039048,116345,0,20.07363,1
1106,2023-01-20 10:49:56.449051,116451622,0,0.6802779,92902.96,25.59,0.01019126,116451,0,20.07363,1
1321,2023-01-20 10:49:56.562003,116563562,0,0.6910333,92902.84,25.6,0.04336183,116563,0,20.07363,1
1531,2023-01-20 10:49:56.662853,116664309,0,0.6480118,92903.3,25.6,0.04550711,116664,0,20.07363,1
1866,2023-01-20 10:49:56.762540,116764370,0,0.6695226,92903.07,25.6,-0.003834211,116764,0,20.07363,1
1912,2023-01-20 10:49:56.862352,116864323,0,0.6802779,92902.95,25.6,-0.05528654,116864,0,20.07363,1
1959,2023-01-20 10:49:56.962335,116964307,0,0.6345676,92903.46,25.61,-0.04728932,116964,0,20.07363,1
2007,2023-01-20 10:49:57.062397,117064356,0,0.6829668,92902.94,25.61,-0.01916789,117064,0,20.07363,1
2053,2023-01-20 10:49:57.162359,117164298,0,0.661456,92903.17,25.61,-0.02015103,117164,0,20.07363,1
2106,2023-01-20 10:49:57.269244,117264299,0,0.6587672,92903.18,25.6,-0.002520829,117264,0,20.07363,1
2164,2023-01-20 10:49:57.380304,117364331,0,0.6722114,92903.05,25.62,0.01596505,117364,0,20.07363,1
2221,2023-01-20 10:49:57.474792,117464338,0,0.7017887,92902.72,25.61,0.01596505,117464,0,20.07363,1
2279,2023-01-20 10:49:57.565693,117564324,0,0.6802779,92902.95,25.62,0.05461719,117564,0,20.07363,1
2334,2023-01-20 10:49:57.662267,117664341,0,0.6883445,92902.86,25.63,0.09242909,117664,0,20.07363,1
2389,2023-01-20 10:49:57.762239,117764335,0,0.6990998,92902.75,25.63,0.06133929,117764,0,20.07363,1
2437,2023-01-20 10:49:57.862207,117864330,0,0.696411,92902.78,25.64,0.02436761,117864,0,20.07363,1
2479,2023-01-20 10:49:57.962173,117964326,0,0.6883445,92902.86,25.64,0.02772866,117964,0,20.07363,1
2521,2023-01-20 10:49:58.062290,118064403,0,0.6883445,92902.86,25.64,0.0184858,118064,0,20.07363,1
2560,2023-01-20 10:49:58.162306,118164336,0,0.6856557,92902.91,25.66,-0.01512472,118164,0,20.07363,1
2603,2023-01-20 10:49:58.262325,118264343,0,0.6883445,92902.86,25.66,-0.02940919,118264,0,20.07363,1
2642,2023-01-20 10:49:58.362288,118364337,0,0.6990998,92902.76,25.66,-0.01428446,118364,0,20.07363,1
2682,2023-01-20 10:49:58.462265,118464326,0,0.6775891,92903,25.66,0.007562357,118464,0,20.07363,1
2722,2023-01-20 10:49:58.562259,118564322,0,0.6560783,92903.22,25.66,-0.002520829,118564,0,20.07363,1
2763,2023-01-20 10:49:58.662256,118664337,0,0.7044775,92902.69,25.67,-0.04873531,118664,0,20.07363,1
2803,2023-01-20 10:49:58.762230,118764337,0,0.7071664,92902.66,25.68,-0.04033266,118764,0,20.07363,1
2847,2023-01-20 10:49:58.862228,118864344,0,0.6937222,92902.82,25.69,0.05377688,118864,0,20.07363,1
2885,2023-01-20 10:49:58.962224,118964338,0,0.6990998,92902.77,25.68,0.09999139,118964,0,20.07363,1
2926,2023-01-20 10:49:59.062328,119064425,0,0.6775891,92903,25.68,0.03697162,119064,0,20.07363,1
2964,2023-01-20 10:49:59.162260,119164331,0,0.6775891,92902.98,25.68,-0.03949238,119164,0,20.07363,1
3006,2023-01-20 10:49:59.262250,119264312,0,0.6238122,92903.57,25.69,-0.08738741,119264,0,20.07363,1
3044,2023-01-20 10:49:59.362264,119364327,0,0.626501,92903.55,25.69,-0.1462059,119364,0,20.07363,1
3084,2023-01-20 10:49:59.462266,119464333,0,0.5861683,92903.97,25.69,-0.2083855,119464,0,20.07363,1
3124,2023-01-20 10:49:59.562250,119564321,0,0.5243249,92904.63,25.68,-0.2487183,119564,0,20.07363,1
3163,2023-01-20 10:49:59.662254,119664338,0,0.5135695,92904.77,25.68,-0.3016549,119664,0,20.07363,1
3204,2023-01-20 10:49:59.762258,119764360,0,0.4893699,92905.03,25.67,-0.3562721,119764,0,20.07363,1
3245,2023-01-20 10:49:59.862233,119864345,0,0.5888572,92903.95,25.66,-0.295773,119864,0,20.07363,1
3283,2023-01-20 10:49:59.962223,119964340,0,0.5888572,92903.94,25.64,-0.06301985,119964,0,20.07363,1
3323,2023-01-20 10:50:00.062299,120064401,0,0.6238122,92903.58,25.64,0.210066,120064,0,20.07363,1
3361,2023-01-20 10:50:00.162259,120164334,0,0.6049902,92903.77,25.63,0.3184601,120164,0,20.07363,1
3404,2023-01-20 10:50:00.262266,120264336,0,0.6775891,92902.99,25.64,0.2503988,120264,0,20.07363,1
3441,2023-01-20 10:50:00.362317,120364395,0,0.6560783,92903.2,25.64,0.1882192,120364,0,20.07363,1
3483,2023-01-20 10:50:00.462302,120464379,0,0.6507006,92903.28,25.64,0.187379,120464,0,20.07363,1
3522,2023-01-20 10:50:00.562245,120564315,0,0.7125441,92902.61,25.62,0.1520878,120564,0,20.07363,1
3564,2023-01-20 10:50:00.662254,120664329,0,0.6856557,92902.9,25.62,0.1117551,120664,0,20.07363,1
3604,2023-01-20 10:50:00.762243,120764329,0,0.6211233,92903.59,25.62,0.1033525,120764,0,20.07363,1
3646,2023-01-20 10:50:00.862238,120864341,0,0.6560783,92903.22,25.62,0.004201327,120864,0,20.07363,1
3682,2023-01-20 10:50:00.962268,120964389,0,0.6507006,92903.27,25.61,-0.1378033,120964,0,20.07363,1
3715,2023-01-20 10:50:01.062224,121064348,0,0.5539022,92904.33,25.61,-0.1537684,121064,0,20.07363,1
3745,2023-01-20 10:50:01.162277,121164394,0,0.5646576,92904.2,25.61,-0.1646918,121164,0,20.07363,1
3780,2023-01-20 10:50:01.262256,121264405,0,0.5861683,92903.98,25.62,-0.2613222,121264,0,20.07363,1
3810,2023-01-20 10:50:01.362197,121364400,0,0.5861683,92903.97,25.62,-0.2327532,121364,0,20.07363,1
3843,2023-01-20 10:50:01.462211,121464402,0,0.5270137,92904.61,25.64,-0.0705822,121464,0,20.07363,1
3875,2023-01-20 10:50:01.562263,121564402,0,0.1021761,92909.2,25.63,-0.1714139,121564,0,20.07363,1
3909,2023-01-20 10:50:01.662272,121664391,0,0.295773,92907.13,25.64,-0.7511963,121664,0,20.07363,1
3941,2023-01-20 10:50:01.762289,121764406,0,-0.7098553,92918.02,25.64,-1.517517,121764,0,20.07363,1
3975,2023-01-20 10:50:01.862254,121864417,0,-0.4678591,92915.38,25.63,-2.310727,121864,0,20.07363,1
4006,2023-01-20 10:50:01.962172,121964410,0,-1.322912,92924.63,25.63,-3.108978,121964,0,20.07363,1
4039,2023-01-20 10:50:02.062187,122064413,0,-0.9303406,92920.37,25.63,-3.429959,122064,0,20.07363,1
4069,2023-01-20 10:50:02.162252,122164412,0,-0.2204853,92912.7,25.62,-2.591375,122164,0,20.07363,1
4104,2023-01-20 10:50:02.262264,122264400,0,0.8550529,92901.07,25.61,0.06386007,122264,0,20.07363,1
4134,2023-01-20 10:50:02.362269,122364407,0,1.040583,92899.05,25.59,3.923193,122364,0,20.07363,1
4167,2023-01-20 10:50:02.462009,122464395,0,1.045961,92899.01,25.59,6.217115,122464,0,20.07363,1
4200,2023-01-20 10:50:02.561936,122564721,0,1.193847,92897.39,25.58,5.227284,122564,0,20.07363,1
4234,2023-01-20 10:50:02.661763,122664677,0,1.142759,92897.95,25.59,2.714053,122664,0,20.07363,1
4266,2023-01-20 10:50:02.761868,122764745,0,1.244936,92896.84,25.6,1.057052,122764,0,20.07363,1
4300,2023-01-20 10:50:02.861829,122864707,0,1.223425,92897.07,25.62,0.5218043,122864,0,20.07363,1
4331,2023-01-20 10:50:02.961780,122964683,0,1.322912,92896,25.64,0.3898828,122964,0,20.07363,1
4364,2023-01-20 10:50:03.061793,123064707,0,1.384755,92895.34,25.66,0.3932438,123064,0,20.07363,1
4394,2023-01-20 10:50:03.161773,123164689,0,1.400889,92895.15,25.68,0.4890338,123164,0,20.07363,1
4429,2023-01-20 10:50:03.261765,123264678,0,1.309468,92896.14,25.69,0.4991169,123264,0,20.07363,1
4459,2023-01-20 10:50:03.361796,123364704,0,1.3982,92895.19,25.71,0.277287,123364,0,20.07363,1
4492,2023-01-20 10:50:03.461788,123464686,0,1.317534,92896.05,25.73,0.005881679,123464,0,20.07363,1
4524,2023-01-20 10:50:03.561829,123564713,0,1.460043,92894.52,25.74,-0.04537437,123564,0,20.07363,1
4558,2023-01-20 10:50:03.661848,123664729,0,1.476176,92894.35,25.76,0.1151162,123664,0,20.07363,1
4590,2023-01-20 10:50:03.761809,123764694,0,1.53802,92893.67,25.78,0.3478695,123764,0,20.07363,1
4624,2023-01-20 10:50:03.862013,123864706,0,1.624063,92892.73,25.79,0.5209639,123864,0,20.07363,1
4656,2023-01-20 10:50:03.961995,123964378,0,1.718172,92891.71,25.81,0.6049902,123964,0,20.07363,1
4689,2023-01-20 10:50:04.062150,124064373,0,1.715484,92891.75,25.83,0.6780932,124064,0,20.07363,1
4719,2023-01-20 10:50:04.162204,124164359,0,1.852615,92890.27,25.85,0.7033013,124164,0,20.07363,1
4754,2023-01-20 10:50:04.262241,124264374,0,1.833793,92890.47,25.85,0.6478438,124264,0,20.07363,1
4784,2023-01-20 10:50:04.362252,124364389,0,1.917147,92889.56,25.87,0.5907058,124364,0,20.07363,1
4817,2023-01-20 10:50:04.462214,124464378,0,1.989746,92888.78,25.88,0.5478523,124464,0,20.07363,1
4850,2023-01-20 10:50:04.562223,124564427,0,2.081167,92887.79,25.9,0.5570951,124564,0,20.07363,1
4884,2023-01-20 10:50:04.662218,124664411,0,2.250564,92885.97,25.92,0.6965791,124664,0,20.07363,1
4916,2023-01-20 10:50:04.762239,124764389,0,2.293585,92885.48,25.93,0.9150479,124764,0,20.07363,1
4950,2023-01-20 10:50:04.862239,124864403,0,2.428028,92884.03,25.93,1.063775,124864,0,20.07363,1
4980,2023-01-20 10:50:04.962190,124964401,0,2.387695,92884.47,25.95,1.026803,124964,0,20.07363,1
5013,2023-01-20 10:50:05.062226,125064425,0,2.460294,92883.69,25.96,0.8074938,125064,0,20.07363,1
5043,2023-01-20 10:50:05.162244,125164394,0,2.600114,92882.19,25.98,0.5713795,125164,0,20.07363,1
5078,2023-01-20 10:50:05.262270,125264405,0,2.731867,92880.73,25.98,0.5839835,125264,0,20.07363,1
5108,2023-01-20 10:50:05.362299,125364439,0,2.782955,92880.2,25.99,0.8646317,125364,0,20.07363,1
5141,2023-01-20 10:50:05.462247,125464380,0,2.828665,92879.72,26,1.043608,125464,0,20.07363,1
5173,2023-01-20 10:50:05.562253,125564372,0,2.898576,92878.96,26.02,0.9058048,125564,0,20.07363,1
5208,2023-01-20 10:50:05.662335,125664448,0,2.976552,92878.11,26.03,0.6856557,125664,0,20.07363,1
5240,2023-01-20 10:50:05.762297,125764407,0,3.145949,92876.27,26.04,0.6570867,125764,0,20.07363,1
5274,2023-01-20 10:50:05.856648,125864411,0,3.293836,92874.66,26.05,0.8604307,125864,0,20.07363,1
5304,2023-01-20 10:50:05.947603,125964443,0,3.406767,92873.45,26.06,1.162926,125964,0,20.07363,1
5337,2023-01-20 10:50:06.042357,126064412,0,3.506255,92872.37,26.06,1.342742,126064,0,20.07363,1
5367,2023-01-20 10:50:06.142661,126164680,0,3.581542,92871.56,26.07,1.283084,126164,0,20.07363,1
5402,2023-01-20 10:50:06.242186,126264711,0,3.761695,92869.59,26.08,1.121753,126264,0,20.07363,1
5434,2023-01-20 10:50:06.340912,126364672,0,3.861182,92868.52,26.09,1.08142,126364,0,20.07363,1
5467,2023-01-20 10:50:06.440185,126464689,0,4.092423,92866.02,26.09,1.216702,126464,0,20.07363,1
5499,2023-01-20 10:50:06.540174,126564690,0,4.24031,92864.42,26.1,1.43013,126564,0,20.07363,1
5533,2023-01-20 10:50:06.640189,126664738,0,4.218799,92864.66,26.1,1.562892,126664,0,20.07363,1
5565,2023-01-20 10:50:06.740090,126764703,0,4.245687,92864.38,26.11,1.371312,126764,0,20.07363,1
5599,2023-01-20 10:50:06.839750,126864438,0,4.320975,92863.56,26.1,0.852868,126864,0,20.07363,1
5629,2023-01-20 10:50:06.939716,126964493,0,4.398952,92862.71,26.12,0.4621448,126964,0,20.07363,1
5662,2023-01-20 10:50:07.039618,127064456,0,4.452728,92862.13,26.13,0.470548,127064,0,20.07363,1
5692,2023-01-20 10:50:07.139586,127164442,0,4.576415,92860.8,26.14,0.6369208,127164,0,20.07363,1
5727,2023-01-20 10:50:07.239585,127264427,0,4.692036,92859.55,26.14,0.7671614,127264,0,20.07363,1
5757,2023-01-20 10:50:07.339722,127364501,0,4.614059,92860.38,26.15,0.8562291,127364,0,20.07363,1
5790,2023-01-20 10:50:07.439648,127464423,0,4.584482,92860.69,26.14,0.725148,127464,0,20.07363,1
5822,2023-01-20 10:50:07.539535,127564397,0,4.528016,92861.33,26.16,0.2638431,127564,0,20.07363,1
5856,2023-01-20 10:50:07.643950,127664412,0,4.568349,92860.88,26.16,-0.1924203,127664,0,20.07363,1
5888,2023-01-20 10:50:07.755301,127764482,0,4.622126,92860.29,26.16,-0.2747659,127764,0,20.07363,1
5922,2023-01-20 10:50:07.854325,127864490,0,4.753879,92858.88,26.17,0.004201828,127864,0,20.07363,1
5953,2023-01-20 10:50:07.945062,127964435,0,4.802278,92858.36,26.19,0.4176113,127964,0,20.07363,1
5987,2023-01-20 10:50:08.039536,128064491,0,4.764635,92858.76,26.18,0.689016,128064,0,20.07363,1
6017,2023-01-20 10:50:08.139465,128164439,0,4.737746,92859.04,26.19,0.5923859,128164,0,20.07363,1
6052,2023-01-20 10:50:08.239464,128264432,0,4.804967,92858.31,26.2,0.2352738,128264,0,20.07363,1
6082,2023-01-20 10:50:08.339498,128364424,0,4.745812,92858.96,26.2,0.001680251,128364,0,20.07363,1
6115,2023-01-20 10:50:08.439569,128464472,0,4.689347,92859.57,26.21,-0.02772913,128464,0,20.07363,1
6147,2023-01-20 10:50:08.539494,128564404,0,4.767323,92858.73,26.21,-0.09242892,128564,0,20.07363,1
6181,2023-01-20 10:50:08.639493,128664410,0,4.8211,92858.15,26.22,-0.1260388,128664,0,20.07363,1
6213,2023-01-20 10:50:08.739504,128764430,0,4.882944,92857.47,26.22,0.09915203,128764,0,20.07363,1
6247,2023-01-20 10:50:08.839566,128864458,0,4.934031,92856.91,26.23,0.4176114,128864,0,20.07363,1
6280,2023-01-20 10:50:08.939652,128964446,0,4.98512,92856.36,26.24,0.5612959,128964,0,20.07363,1
6313,2023-01-20 10:50:09.039739,129064459,0,5.036208,92855.81,26.25,0.5570945,129064,0,20.07363,1
6343,2023-01-20 10:50:09.139805,129164486,0,5.081918,92855.31,26.26,0.5268455,129164,0,20.07363,1
6378,2023-01-20 10:50:09.239697,129264426,0,5.213672,92853.91,26.27,0.5310471,129264,0,20.07363,1
6408,2023-01-20 10:50:09.339534,129364443,0,5.200227,92854.05,26.28,0.5999489,129364,0,20.07363,1
6441,2023-01-20 10:50:09.439324,129464827,0,5.385758,92852.05,26.3,0.6873363,129464,0,20.07363,1
6473,2023-01-20 10:50:09.537968,129564689,0,5.463734,92851.18,26.3,0.7713626,129564,0,20.07363,1
6507,2023-01-20 10:50:09.637211,129664698,0,5.490623,92850.89,26.31,0.8881593,129664,0,20.07363,1
6539,2023-01-20 10:50:09.737193,129764681,0,5.584733,92849.87,26.31,0.9150475,129764,0,20.07363,1
6573,2023-01-20 10:50:09.837200,129864697,0,5.600865,92849.72,26.33,0.7654806,129864,0,20.07363,1
6604,2023-01-20 10:50:09.937156,129964675,0,5.654642,92849.12,26.34,0.5999489,129964,0,20.07363,1
6637,2023-01-20 10:50:10.037150,130064674,0,5.79984,92847.55,26.35,0.54029,130064,0,20.07363,1
6667,2023-01-20 10:50:10.137171,130164670,0,5.842862,92847.09,26.35,0.6142328,130164,0,20.07363,1
6702,2023-01-20 10:50:10.237101,130264680,0,5.858994,92846.92,26.36,0.7486754,130264,0,20.07363,1
6732,2023-01-20 10:50:10.336834,130364671,0,5.864372,92846.84,26.37,0.7041418,130364,0,20.07363,1
6765,2023-01-20 10:50:10.437383,130465394,0,5.89395,92846.53,26.39,0.446028,130465,0,20.07363,1
6797,2023-01-20 10:50:10.537284,130565322,0,5.807907,92847.47,26.39,0.1987693,130565,0,20.07363,1
6831,2023-01-20 10:50:10.637275,130665337,0,5.902016,92846.45,26.4,0.04263761,130665,0,20.07363,1
6863,2023-01-20 10:50:10.737249,130765329,0,5.910083,92846.37,26.4,-0.01317395,130765,0,20.07363,1
6897,2023-01-20 10:50:10.837223,130865347,0,5.872439,92846.78,26.42,0.07379425,130865,0,20.07363,1
6927,2023-01-20 10:50:10.937116,130965328,0,5.858994,92846.91,26.42,0.1310843,130965,0,20.07363,1
6960,2023-01-20 10:50:11.037116,131065352,0,5.920838,92846.25,26.44,0.02604798,131065,0,20.07363,1
6989,2023-01-20 10:50:11.137184,131165333,0,6.049902,92844.84,26.45,0.01932531,131165,0,20.07363,1
7025,2023-01-20 10:50:11.237226,131265323,0,6.329543,92841.83,26.46,0.3839999,131265,0,20.07363,1
7055,2023-01-20 10:50:11.337255,131365360,0,6.240811,92842.78,26.46,0.9730259,131365,0,20.07363,1
7088,2023-01-20 10:50:11.437263,131465370,0,6.152079,92843.74,26.47,1.203259,131465,0,20.07363,1
7120,2023-01-20 10:50:11.537230,131565331,0,6.211234,92843.09,26.47,0.6974201,131565,0,20.07363,1
7154,2023-01-20 10:50:11.637240,131665337,0,6.26501,92842.52,26.48,0.03193037,131665,0,20.07363,1
7186,2023-01-20 10:50:11.737275,131765373,0,6.076791,92844.55,26.48,-0.118477,131765,0,20.07363,1
7220,2023-01-20 10:50:11.837225,131865351,0,6.138635,92843.88,26.48,-0.08822739,131865,0,20.07363,1
7250,2023-01-20 10:50:11.937144,131965345,0,6.130568,92843.98,26.48,-0.261322,131965,0,20.07363,1
7283,2023-01-20 10:50:12.037137,132065355,0,6.238122,92842.82,26.49,-0.2714054,132065,0,20.07363,1
7313,2023-01-20 10:50:12.137193,132165330,0,6.251566,92842.67,26.48,0.06301954,132165,0,20.07363,1
7348,2023-01-20 10:50:12.237232,132265319,0,6.38063,92841.27,26.5,0.4100485,132265,0,20.07363,1
7378,2023-01-20 10:50:12.337258,132365349,0,6.28921,92842.27,26.5,0.5579348,132365,0,20.07363,1
7411,2023-01-20 10:50:12.437286,132465382,0,6.160145,92843.66,26.52,0.4276938,132465,0,20.07363,1
7443,2023-01-20 10:50:12.537231,132565334,0,6.092924,92844.38,26.53,-0.05041599,132565,0,20.07363,1
7477,2023-01-20 10:50:12.637238,132665342,0,6.052591,92844.83,26.53,-0.6007887,132665,0,20.07363,1
7509,2023-01-20 10:50:12.737276,132765370,0,6.044525,92844.9,26.54,-0.7814456,132765,0,20.07363,1
7543,2023-01-20 10:50:12.837227,132865341,0,6.291899,92842.23,26.53,-0.5016376,132865,0,20.07363,1
7573,2023-01-20 10:50:12.937141,132965329,0,6.230055,92842.89,26.54,0.07058263,132965,0,20.07363,1
7607,2023-01-20 10:50:13.037129,133065336,0,6.2193,92843.03,26.55,0.5638176,133065,0,20.07363,1
7637,2023-01-20 10:50:13.137196,133165328,0,6.278454,92842.38,26.55,0.5562547,133165,0,20.07363,1
7672,2023-01-20 10:50:13.237243,133265330,0,6.187034,92843.38,26.56,0.2209889,133265,0,20.07363,1
7702,2023-01-20 10:50:13.337260,133365350,0,6.146701,92843.8,26.55,-0.02352804,133365,0,20.07363,1
7735,2023-01-20 10:50:13.437276,133465368,0,6.216611,92843.05,26.57,-0.1781364,133465,0,20.07363,1
7767,2023-01-20 10:50:13.537248,133565339,0,5.724552,92848.36,26.58,-0.3671956,133565,0,20.07363,1
7801,2023-01-20 10:50:13.637240,133665332,0,5.436846,92851.48,26.58,-0.8906801,133665,0,20.07363,1
7833,2023-01-20 10:50:13.737269,133765362,0,5.391136,92851.98,26.59,-1.874629,133765,0,20.07363,1
7867,2023-01-20 10:50:13.837232,133865357,0,5.493311,92850.86,26.6,-2.379627,133865,0,20.07363,1
7899,2023-01-20 10:50:13.937125,133965333,0,5.487934,92850.92,26.62,-1.630952,133965,0,20.07363,1
7932,2023-01-20 10:50:14.037119,134065352,0,5.208294,92853.95,26.62,-0.5226441,134065,0,20.07363,1
7962,2023-01-20 10:50:14.137173,134165332,0,5.393824,92851.94,26.62,-0.2377948,134165,0,20.07363,1
7997,2023-01-20 10:50:14.237229,134265339,0,5.66002,92849.08,26.63,-0.3722374,134265,0,20.07363,1
8027,2023-01-20 10:50:14.337244,134365347,0,5.700353,92848.64,26.64,0.157969,134365,0,20.07363,1
8060,2023-01-20 10:50:14.437270,134465368,0,5.719175,92848.44,26.64,1.041927,134465,0,20.07363,1
8093,2023-01-20 10:50:14.537236,134565334,0,5.821351,92847.32,26.64,1.221745,134565,0,20.07363,1
8127,2023-01-20 10:50:14.637229,134665327,0,5.781018,92847.75,26.65,0.8058141,134665,0,20.07363,1
8159,2023-01-20 10:50:14.737280,134765378,0,6.00957,92845.28,26.65,0.5327278,134765,0,20.07363,1
8193,2023-01-20 10:50:14.837210,134865339,0,5.786396,92847.71,26.64,0.5226445,134865,0,20.07363,1
8223,2023-01-20 10:50:14.937125,134965338,0,5.641198,92849.27,26.64,0.3596331,134965,0,20.07363,1
8256,2023-01-20 10:50:15.037115,135065357,0,5.915461,92846.31,26.65,-0.1554492,135065,0,20.07363,1
8286,2023-01-20 10:50:15.137154,135165331,0,5.767574,92847.91,26.66,-0.4243335,135165,0,20.07363,1
8321,2023-01-20 10:50:15.237195,135265324,0,5.856306,92846.94,26.67,-0.07730393,135265,0,20.07363,1
8351,2023-01-20 10:50:15.337244,135365352,0,5.958482,92845.84,26.68,0.2688845,135365,0,20.07363,1
8384,2023-01-20 10:50:15.437233,135465330,0,6.00957,92845.27,26.67,0.3739169,135465,0,20.07363,1
8416,2023-01-20 10:50:15.537219,135565319,0,6.023014,92845.14,26.68,0.5352481,135565,0,20.07363,1
8450,2023-01-20 10:50:15.637243,135665344,0,5.920838,92846.25,26.69,0.5604565,135665,0,20.07363,1
8482,2023-01-20 10:50:15.737273,135765372,0,5.867061,92846.81,26.7,0.2125868,135765,0,20.07363,1
8516,2023-01-20 10:50:15.837241,135865350,0,5.955793,92845.85,26.7,-0.2218302,135865,0,20.07363,1
8546,2023-01-20 10:50:15.937189,135965329,0,5.998815,92845.41,26.7,-0.298294,135965,0,20.07363,1
8579,2023-01-20 10:50:16.037195,136065343,0,5.902016,92846.45,26.71,-0.009242743,136065,0,20.07363,1
8609,2023-01-20 10:50:16.137264,136165380,0,5.805218,92847.49,26.72,0.1142763,136165,0,20.07363,1
8644,2023-01-20 10:50:16.237205,136265322,0,5.810596,92847.44,26.72,-0.1957811,136265,0,20.07363,1
8674,2023-01-20 10:50:16.337174,136365346,0,5.724552,92848.37,26.72,-0.5285258,136365,0,20.07363,1
8707,2023-01-20 10:50:16.437144,136465328,0,5.872439,92846.77,26.73,-0.511721,136465,0,20.07363,1
8739,2023-01-20 10:50:16.537209,136565335,0,5.826728,92847.27,26.73,-0.2167885,136565,0,20.07363,1
8773,2023-01-20 10:50:16.637237,136665328,0,5.977304,92845.63,26.72,0.147046,136665,0,20.07363,1
8805,2023-01-20 10:50:16.737226,136765319,0,5.961171,92845.81,26.73,0.4167712,136765,0,20.07363,1
8839,2023-01-20 10:50:16.837287,136865391,0,6.052591,92844.8,26.73,0.5352485,136865,0,20.07363,1
8869,2023-01-20 10:50:16.937181,136965308,0,5.971926,92845.69,26.74,0.5125611,136965,0,20.07363,1
8902,2023-01-20 10:50:17.037205,137065336,0,6.090235,92844.41,26.73,0.3671952,137065,0,20.07363,1
8932,2023-01-20 10:50:17.137232,137165335,0,6.197789,92843.23,26.74,0.2739261,137165,0,20.07363,1
8967,2023-01-20 10:50:17.237228,137265316,0,6.039147,92844.97,26.73,0.3739178,137265,0,20.07363,1
8997,2023-01-20 10:50:17.337237,137365334,0,5.98537,92845.55,26.73,0.3436683,137365,0,20.07363,1
9030,2023-01-20 10:50:17.437235,137465333,0,6.17359,92843.5,26.72,-0.02520785,137465,0,20.07363,1
9062,2023-01-20 10:50:17.537242,137565329,0,5.923527,92846.2,26.7,-0.2428365,137565,0,20.07363,1
9096,2023-01-20 10:50:17.637239,137665319,0,5.936971,92846.08,26.67,-0.1806569,137665,0,20.07363,1
9128,2023-01-20 10:50:17.737236,137765318,0,5.692286,92848.72,26.64,-0.3823203,137765,0,20.07363,1
9162,2023-01-20 10:50:17.833946,137865347,0,5.697664,92848.67,26.59,-0.8427852,137865,0,20.07363,1
9192,2023-01-20 10:50:17.925054,137965364,0,5.778329,92847.78,26.54,-1.020921,137965,0,20.07363,1
9225,2023-01-20 10:50:18.019618,138065345,0,5.557844,92850.17,26.5,-0.7478352,138065,0,20.07363,1
9256,2023-01-20 10:50:18.130392,138165322,0,5.990748,92845.48,26.47,-0.31846,138165,0,20.07363,1
9291,2023-01-20 10:50:18.237196,138265327,0,6.092924,92844.38,26.43,0.2033438,138265,0,20.07363,1
9321,2023-01-20 10:50:18.337254,138365344,0,6.144012,92843.84,26.42,0.9671439,138365,0,20.07363,1
9354,2023-01-20 10:50:18.433923,138465301,0,5.966548,92845.75,26.42,1.377193,138465,0,20.07363,1
9386,2023-01-20 10:50:18.525042,138565319,0,6.020325,92845.17,26.44,0.8259804,138565,0,20.07363,1
9420,2023-01-20 10:50:18.617759,138665362,0,5.98537,92845.53,26.45,-0.0268884,138665,0,20.07363,1
9452,2023-01-20 10:50:18.717689,138765326,0,5.853617,92846.97,26.45,-0.3705573,138765,0,20.07363,1
9486,2023-01-20 10:50:18.817669,138865340,0,5.789084,92847.67,26.47,-0.4285357,138865,0,20.07363,1
9518,2023-01-20 10:50:18.917621,138965328,0,5.770263,92847.88,26.48,-0.5991088,138965,0,20.07363,1
9551,2023-01-20 10:50:19.017614,139065345,0,5.824039,92847.28,26.5,-0.6638086,139065,0,20.07363,1
9581,2023-01-20 10:50:19.117621,139165316,0,5.807907,92847.47,26.51,-0.3982848,139165,0,20.07363,1
9616,2023-01-20 10:50:19.217646,139265316,0,5.926216,92846.19,26.53,-0.02100617,139265,0,20.07363,1
9646,2023-01-20 10:50:19.317693,139365389,0,5.850928,92846.99,26.54,0.2293925,139365,0,20.07363,1
9679,2023-01-20 10:50:19.417594,139465320,0,5.936971,92846.06,26.58,0.3066969,139465,0,20.07363,1
9711,2023-01-20 10:50:19.517550,139565329,0,5.762196,92847.97,26.62,0.2058652,139565,0,20.07363,1
9745,2023-01-20 10:50:19.617548,139665372,0,5.759507,92847.98,26.66,-0.06049901,139665,0,20.07363,1
9777,2023-01-20 10:50:19.717498,139765324,0,5.72993,92848.31,26.69,-0.3713974,139765,0,20.07363,1
9811,2023-01-20 10:50:19.817518,139865349,0,5.600865,92849.7,26.72,-0.5302074,139865,0,20.07363,1
9841,2023-01-20 10:50:19.917479,139965327,0,5.681531,92848.83,26.74,-0.5234848,139965,0,20.07363,1
9874,2023-01-20 10:50:20.017483,140065343,0,5.501378,92850.78,26.73,-0.4848321,140065,0,20.07363,1
9904,2023-01-20 10:50:20.117474,140165324,0,5.477179,92851.03,26.71,-0.4873528,140165,0,20.07363,1
9939,2023-01-20 10:50:20.217473,140265304,0,5.283582,92853.13,26.69,-0.6201148,140265,0,20.07363,1
9972,2023-01-20 10:50:20.317558,140365325,0,5.205605,92853.98,26.68,-0.8797566,140365,0,20.07363,1
10005,2023-01-20 10:50:20.417612,140465327,0,5.345425,92852.48,26.69,-1.015039,140465,0,20.07363,1
10037,2023-01-20 10:50:20.517630,140565349,0,5.466423,92851.16,26.71,-0.6864961,140565,0,20.07363,1
10071,2023-01-20 10:50:20.617596,140665312,0,5.393824,92851.94,26.72,0.04957527,140665,0,20.07363,1
10103,2023-01-20 10:50:20.717624,140765302,0,5.383069,92852.06,26.73,0.5159218,140765,0,20.07363,1
10137,2023-01-20 10:50:20.817641,140865309,0,5.436846,92851.47,26.76,0.3453484,140865,0,20.07363,1
10167,2023-01-20 10:50:20.917520,140965307,0,5.428779,92851.58,26.78,0.0537771,140965,0,20.07363,1
10200,2023-01-20 10:50:21.017444,141065319,0,5.224427,92853.77,26.81,-0.01764536,141065,0,20.07363,1
10230,2023-01-20 10:50:21.117519,141165339,0,5.213672,92853.89,26.84,-0.2193089,141165,0,20.07363,1
10265,2023-01-20 10:50:21.217519,141265297,0,5.219049,92853.84,26.86,-0.5982678,141265,0,20.07363,1
10295,2023-01-20 10:50:21.317518,141365321,0,5.202916,92854.01,26.85,-0.6646486,141365,0,20.07363,1
10328,2023-01-20 10:50:21.417473,141465290,0,5.219049,92853.83,26.85,-0.3587928,141465,0,20.07363,1
10360,2023-01-20 10:50:21.517519,141565300,0,5.192161,92854.14,26.83,-0.09747088,141565,0,20.07363,1
10394,2023-01-20 10:50:21.617553,141665315,0,5.197538,92854.06,26.81,-0.03529101,141665,0,20.07363,1
10426,2023-01-20 10:50:21.717478,141765301,0,5.297026,92853,26.78,-0.01764551,141765,0,20.07363,1
10460,2023-01-20 10:50:21.817474,141865350,0,5.224427,92853.78,26.77,0.08570641,141865,0,20.07363,1
10490,2023-01-20 10:50:21.917406,141965296,0,5.431468,92851.53,26.75,0.2419956,141965,0,20.07363,1
10523,2023-01-20 10:50:22.017414,142065306,0,5.364247,92852.27,26.77,0.3865217,142065,0,20.07363,1
10553,2023-01-20 10:50:22.117453,142165295,0,5.283582,92853.13,26.78,0.4470207,142165,0,20.07363,1
10588,2023-01-20 10:50:22.217495,142265301,0,5.262071,92853.36,26.82,0.2218296,142265,0,20.07363,1
10618,2023-01-20 10:50:22.317470,142365311,0,5.299715,92852.98,26.85,-0.1831778,142365,0,20.07363,1
10651,2023-01-20 10:50:22.417446,142465308,0,5.348114,92852.44,26.88,-0.28569,142465,0,20.07363,1
10683,2023-01-20 10:50:22.517532,142565347,0,5.444912,92851.4,26.88,0.009242893,142565,0,20.07363,1
10716,2023-01-20 10:50:22.617507,142665287,0,5.485245,92850.97,26.9,0.3739181,142665,0,20.07363,1
10748,2023-01-20 10:50:22.717495,142765292,0,5.353492,92852.38,26.89,0.5276868,142765,0,20.07363,1
10782,2023-01-20 10:50:22.817495,142865312,0,5.275515,92853.23,26.9,0.2856904,142865,0,20.07363,1
10812,2023-01-20 10:50:22.917455,142965303,0,5.213672,92853.89,26.92,-0.2604818,142965,0,20.07363,1
10845,2023-01-20 10:50:23.017446,143065311,0,5.369625,92852.22,26.95,-0.6100323,143065,0,20.07363,1
10875,2023-01-20 10:50:23.117522,143165336,0,5.45029,92851.33,26.97,-0.3613141,143165,0,20.07363,1
10912,2023-01-20 10:50:23.217528,143265305,0,5.689597,92848.76,27.01,0.3319041,143265,0,20.07363,1
10942,2023-01-20 10:50:23.317514,143365320,0,5.571288,92850.03,27.04,0.9553803,143365,0,20.07363,1
10975,2023-01-20 10:50:23.417480,143465307,0,5.791773,92847.64,27.09,1.108308,143465,0,20.07363,1
11007,2023-01-20 10:50:23.517478,143565291,0,5.676153,92848.88,27.11,0.8612706,143565,0,20.07363,1
11041,2023-01-20 10:50:23.617496,143665299,0,5.802529,92847.53,27.14,0.5772616,143665,0,20.07363,1
11073,2023-01-20 10:50:23.717489,143765306,0,6.023014,92845.14,27.17,0.4839926,143765,0,20.07363,1
11106,2023-01-20 10:50:23.817537,143865369,0,6.144012,92843.82,27.2,0.7234678,143865,0,20.07363,1
11140,2023-01-20 10:50:23.917459,143965307,0,6.227366,92842.93,27.21,1.187294,143965,0,20.07363,1
11173,2023-01-20 10:50:24.017476,144065327,0,6.262321,92842.55,27.23,1.369631,144065,0,20.07363,1
11203,2023-01-20 10:50:24.117493,144165283,0,6.324165,92841.89,27.25,1.096545,144165,0,20.07363,1
11238,2023-01-20 10:50:24.217557,144265307,0,6.353742,92841.56,27.28,0.7335505,144265,0,20.07363,1
11268,2023-01-20 10:50:24.317506,144365318,0,6.477429,92840.22,27.3,0.5554143,144365,0,20.07363,1
11301,2023-01-20 10:50:24.417491,144465343,0,6.587672,92839.03,27.3,0.5940664,144465,0,20.07363,1
11334,2023-01-20 10:50:24.517509,144565295,0,6.875378,92835.91,27.31,0.8486665,144565,0,20.07363,1
11369,2023-01-20 10:50:24.617560,144665306,0,7.238372,92831.98,27.32,1.359547,144665,0,20.07363,1
11401,2023-01-20 10:50:24.717468,144765296,0,7.251817,92831.84,27.33,2.017474,144765,0,20.07363,1
11435,2023-01-20 10:50:24.817493,144865388,0,7.12813,92833.19,27.35,2.226701,144865,0,20.07363,1
11466,2023-01-20 10:50:24.917428,144965323,0,7.03402,92834.21,27.36,1.437693,144965,0,20.07363,1
11499,2023-01-20 10:50:25.017454,145065343,0,7.087797,92833.63,27.37,0.1823377,145065,0,20.07363,1
11529,2023-01-20 10:50:25.117506,145165366,0,6.974865,92834.83,27.38,-0.4974367,145165,0,20.07363,1
11565,2023-01-20 10:50:25.217469,145265306,0,6.896889,92835.69,27.39,-0.5159225,145265,0,20.07363,1
11595,2023-01-20 10:50:25.317494,145365337,0,6.947977,92835.13,27.4,-0.4764298,145365,0,20.07363,1
11628,2023-01-20 10:50:25.417477,145465323,0,5.66002,92849.08,27.4,-0.8646317,145465,0,20.07363,1
11660,2023-01-20 10:50:25.517503,145565335,0,5.353492,92852.38,27.39,-2.3519,145565,0,20.07363,1
11694,2023-01-20 10:50:25.617504,145665327,0,5.528266,92850.48,27.35,-4.446679,145665,0,20.07363,1
11726,2023-01-20 10:50:25.717478,145765314,0,6.082169,92844.5,27.32,-4.48113,145765,0,20.07363,1
11759,2023-01-20 10:50:25.817485,145865335,0,6.178967,92843.45,27.29,-1.512476,145865,0,20.07363,1
11791,2023-01-20 10:50:25.917439,145965313,0,6.278454,92842.38,27.29,1.578016,145965,0,20.07363,1
11824,2023-01-20 10:50:26.017444,146065331,0,6.154768,92843.7,27.26,2.327531,146065,0,20.07363,1
11854,2023-01-20 10:50:26.117519,146165369,0,6.205856,92843.17,27.26,1.356187,146165,0,20.07363,1
11889,2023-01-20 10:50:26.217478,146265303,0,6.673715,92838.09,27.25,0.47475,146265,0,20.07363,1
11919,2023-01-20 10:50:26.317478,146365339,0,6.84849,92836.22,27.26,0.7444748,146365,0,20.07363,1
11952,2023-01-20 10:50:26.417491,146465377,0,6.512384,92839.85,27.26,1.627592,146465,0,20.07363,1
11984,2023-01-20 10:50:26.517469,146565325,0,6.372564,92841.36,27.26,1.480545,146565,0,20.07363,1
12018,2023-01-20 10:50:26.617490,146665322,0,5.979993,92845.59,27.28,-0.09831072,146665,0,20.07363,1
12050,2023-01-20 10:50:26.717541,146765378,0,5.867061,92846.83,27.3,-1.716659,146765,0,20.07363,1
12083,2023-01-20 10:50:26.817495,146865340,0,5.681531,92848.84,27.31,-2.368704,146865,0,20.07363,1
12114,2023-01-20 10:50:26.917457,146965327,0,5.668087,92848.97,27.34,-2.197291,146965,0,20.07363,1
12147,2023-01-20 10:50:27.017454,147065342,0,5.555155,92850.19,27.35,-1.646078,147065,0,20.07363,1
12177,2023-01-20 10:50:27.117458,147165337,0,5.756818,92848.01,27.36,-1.034366,147165,0,20.07363,1
12212,2023-01-20 10:50:27.217517,147265385,0,5.764885,92847.93,27.36,-0.4024868,147265,0,20.07363,1
12242,2023-01-20 10:50:27.317499,147365353,0,5.673464,92848.92,27.38,0.1823369,147365,0,20.07363,1
12275,2023-01-20 10:50:27.415920,147465331,0,5.751441,92848.09,27.38,0.3562717,147465,0,20.07363,1
12307,2023-01-20 10:50:27.506950,147565331,0,5.837484,92847.14,27.38,0.1680532,147565,0,20.07363,1
12339,2023-01-20 10:50:27.597976,147665328,0,5.998815,92845.41,27.36,0.2184694,147665,0,20.07363,1
12373,2023-01-20 10:50:27.697824,147765382,0,6.178967,92843.44,27.37,0.6806142,147765,0,20.07363,1
12404,2023-01-20 10:50:27.797767,147865333,0,6.28921,92842.26,27.39,1.182251,147865,0,20.07363,1
12438,2023-01-20 10:50:27.897694,147965323,0,6.270388,92842.46,27.41,1.392317,147965,0,20.07363,1
12469,2023-01-20 10:50:27.997644,148065337,0,6.447852,92840.53,27.43,1.212501,148065,0,20.07363,1
12501,2023-01-20 10:50:28.097658,148165328,0,6.687159,92837.95,27.46,0.9696653,148165,0,20.07363,1
12534,2023-01-20 10:50:28.197726,148265370,0,6.856556,92836.13,27.5,1.151162,148265,0,20.07363,1
12567,2023-01-20 10:50:28.297720,148365340,0,7.235683,92832.03,27.53,1.690612,148365,0,20.07363,1
12598,2023-01-20 10:50:28.397727,148465321,0,7.335171,92830.95,27.55,2.172083,148465,0,20.07363,1
12632,2023-01-20 10:50:28.508452,148565331,0,7.413147,92830.11,27.58,2.323331,148565,0,20.07363,1
12665,2023-01-20 10:50:28.615909,148665317,0,7.496501,92829.2,27.6,1.983024,148665,0,20.07363,1
12698,2023-01-20 10:50:28.706917,148765325,0,7.794963,92825.98,27.62,1.423408,148765,0,20.07363,1
12729,2023-01-20 10:50:28.797944,148865355,0,7.975116,92824.01,27.65,1.300729,148865,0,20.07363,1
12764,2023-01-20 10:50:28.897636,148965361,0,8.157958,92822.05,27.67,1.68473,148965,0,20.07363,1
12795,2023-01-20 10:50:28.997508,149065347,0,8.381132,92819.63,27.68,2.005712,149065,0,20.07363,1
12827,2023-01-20 10:50:29.097538,149165327,0,8.61775,92817.08,27.7,2.049406,149165,0,20.07363,1
12861,2023-01-20 10:50:29.197612,149265347,0,8.698416,92816.19,27.7,2.038482,149265,0,20.07363,1
12893,2023-01-20 10:50:29.297543,149365340,0,8.811347,92814.98,27.71,1.940169,149365,0,20.07363,1
12924,2023-01-20 10:50:29.397468,149465330,0,9.080232,92812.05,27.72,1.657841,149465,0,20.07363,1
12958,2023-01-20 10:50:29.497472,149565317,0,9.289962,92809.81,27.72,1.530121,149565,0,20.07363,1
12989,2023-01-20 10:50:29.597548,149665373,0,9.507758,92807.45,27.73,1.788923,149665,0,20.07363,1
13024,2023-01-20 10:50:29.697492,149765326,0,9.714799,92805.2,27.74,2.102341,149765,0,20.07363,1
13055,2023-01-20 10:50:29.797507,149865350,0,9.908396,92803.11,27.76,2.175444,149865,0,20.07363,1
13088,2023-01-20 10:50:29.897453,149965318,0,10.06973,92801.38,27.78,2.092257,149965,0,20.07363,1
13119,2023-01-20 10:50:29.997463,150065351,0,10.31979,92798.66,27.8,1.988065,150065,0,20.07363,1
13151,2023-01-20 10:50:30.097512,150165367,0,10.54296,92796.24,27.81,1.961178,150165,0,20.07363,1
13184,2023-01-20 10:50:30.197494,150265315,0,10.7742,92793.74,27.83,2.073774,150265,0,20.07363,1
13216,2023-01-20 10:50:30.297519,150365338,0,10.98125,92791.5,27.85,2.217458,150365,0,20.07363,1
13247,2023-01-20 10:50:30.397503,150465321,0,11.1856,92789.31,27.87,2.248546,150465,0,20.07363,1
13281,2023-01-20 10:50:30.497498,150565321,0,11.37382,92787.27,27.89,2.174602,150565,0,20.07363,1
13313,2023-01-20 10:50:30.597544,150665373,0,11.54053,92785.47,27.91,2.062848,150665,0,20.07363,1
13348,2023-01-20 10:50:30.697485,150765316,0,11.79865,92782.67,27.92,1.963699,150765,0,20.07363,1
13379,2023-01-20 10:50:30.797504,150865337,0,12.05678,92779.88,27.93,1.977143,150865,0,20.07363,1
13412,2023-01-20 10:50:30.897459,150965325,0,12.29878,92777.25,27.95,2.16452,150965,0,20.07363,1
13443,2023-01-20 10:50:30.997453,151065352,0,12.4628,92775.5,27.97,2.361981,151065,0,20.07363,1
13475,2023-01-20 10:50:31.097511,151165325,0,12.62951,92773.69,27.98,2.326691,151165,0,20.07363,1
13508,2023-01-20 10:50:31.197586,151265312,0,12.79084,92771.95,28,2.063689,151265,0,20.07363,1
13540,2023-01-20 10:50:31.297581,151365354,0,12.98712,92769.82,28,1.805728,151365,0,20.07363,1
13571,2023-01-20 10:50:31.397506,151465329,0,13.16459,92767.91,28.02,1.719181,151465,0,20.07363,1
13605,2023-01-20 10:50:31.497484,151565327,0,13.34743,92765.93,28.03,1.763715,151565,0,20.07363,1
13636,2023-01-20 10:50:31.597467,151665330,0,13.58674,92763.32,28.05,1.832616,151665,0,20.07363,1
13671,2023-01-20 10:50:31.697468,151765318,0,13.81798,92760.84,28.06,1.929246,151765,0,20.07363,1
13702,2023-01-20 10:50:31.797502,151865339,0,13.91478,92759.78,28.08,2.049405,151865,0,20.07363,1
13736,2023-01-20 10:50:31.897439,151965299,0,14.1729,92757,28.07,2.043524,151965,0,20.07363,1
13767,2023-01-20 10:50:31.997462,152065344,0,14.33424,92755.26,28.08,1.909921,152065,0,20.07363,1
13799,2023-01-20 10:50:32.097472,152165329,0,14.46061,92753.89,28.06,1.836817,152165,0,20.07363,1
13832,2023-01-20 10:50:32.197532,152265362,0,14.6085,92752.28,28.05,1.777999,152265,0,20.07363,1
13864,2023-01-20 10:50:32.297521,152365344,0,14.82361,92749.95,28.02,1.630953,152365,0,20.07363,1
13895,2023-01-20 10:50:32.397510,152465326,0,14.88814,92749.28,28.02,1.546086,152465,0,20.07363,1
13929,2023-01-20 10:50:32.497481,152565321,0,14.93385,92748.78,28.03,1.49735,152565,0,20.07363,1
13960,2023-01-20 10:50:32.597460,152665325,0,15.13282,92746.62,28.03,1.278041,152665,0,20.07363,1
13995,2023-01-20 10:50:32.697470,152765323,0,15.17585,92746.17,28.05,1.05117,152765,0,20.07363,1
14026,2023-01-20 10:50:32.797496,152865335,0,15.22424,92745.63,28.07,1.015041,152865,0,20.07363,1
14059,2023-01-20 10:50:32.897460,152965319,0,15.31298,92744.69,28.08,0.9511811,152965,0,20.07363,1
14090,2023-01-20 10:50:32.997478,153065358,0,15.33986,92744.39,28.11,0.7579195,153065,0,20.07363,1
14122,2023-01-20 10:50:33.097468,153165322,0,15.32911,92744.51,28.12,0.596588,153165,0,20.07363,1
14155,2023-01-20 10:50:33.197542,153265368,0,15.34255,92744.34,28.14,0.4377779,153265,0,20.07363,1
14187,2023-01-20 10:50:33.297521,153365342,0,15.29953,92744.81,28.15,0.2117467,153365,0,20.07363,1
14219,2023-01-20 10:50:33.397507,153465324,0,15.235,92745.52,28.17,-0.00924319,153465,0,20.07363,1
14253,2023-01-20 10:50:33.497541,153565362,0,15.18391,92746.09,28.19,-0.2176285,153565,0,20.07363,1
14286,2023-01-20 10:50:33.597494,153665320,0,15.2108,92745.77,28.21,-0.3898826,153665,0,20.07363,1
14321,2023-01-20 10:50:33.697495,153765327,0,15.21349,92745.75,28.22,-0.3814811,153765,0,20.07363,1
14352,2023-01-20 10:50:33.797499,153865338,0,15.26727,92745.16,28.23,-0.1688948,153865,0,20.07363,1
14387,2023-01-20 10:50:33.897455,153965320,0,15.27264,92745.12,28.25,0.07814378,153965,0,20.07363,1
14418,2023-01-20 10:50:33.997450,154065341,0,15.28609,92744.96,28.26,0.2151078,154065,0,20.07363,1
14450,2023-01-20 10:50:34.097446,154165324,0,15.29684,92744.84,28.27,0.2218297,154165,0,20.07363,1
14483,2023-01-20 10:50:34.197468,154265332,0,15.31566,92744.66,28.29,0.1663718,154265,0,20.07363,1
14515,2023-01-20 10:50:34.297498,154365339,0,15.26995,92745.14,28.3,0.1159561,154365,0,20.07363,1
14546,2023-01-20 10:50:34.397500,154465316,0,15.32911,92744.51,28.31,0.06218016,154465,0,20.07363,1
14581,2023-01-20 10:50:34.497647,154565427,0,15.37751,92743.98,28.31,0.0445357,154565,0,20.07363,1
14611,2023-01-20 10:50:34.597575,154665319,0,15.42322,92743.48,28.33,0.1646933,154665,0,20.07363,1
14646,2023-01-20 10:50:34.697533,154765324,0,15.34524,92744.33,28.34,0.3176201,154765,0,20.07363,1
14677,2023-01-20 10:50:34.797501,154865341,0,15.2834,92745,28.35,0.2310717,154865,0,20.07363,1
14713,2023-01-20 10:50:34.897437,154965310,0,15.27533,92745.08,28.36,-0.1058745,154965,0,20.07363,1
14744,2023-01-20 10:50:34.997442,155065348,0,15.3076,92744.72,28.37,-0.3529119,155065,0,20.07363,1
14776,2023-01-20 10:50:35.097483,155165307,0,15.35869,92744.2,28.38,-0.259642,155165,0,20.07363,1
14809,2023-01-20 10:50:35.197564,155265302,0,15.31566,92744.63,28.38,0.02100706,155265,0,20.07363,1
14841,2023-01-20 10:50:35.297567,155365305,0,15.41784,92743.54,28.39,0.1932615,155365,0,20.07363,1
14872,2023-01-20 10:50:35.397556,155465297,0,15.44204,92743.29,28.4,0.2403158,155465,0,20.07363,1
14906,2023-01-20 10:50:35.497569,155565309,0,15.46086,92743.06,28.41,0.3184602,155565,0,20.07363,1
14937,2023-01-20 10:50:35.597612,155665351,0,15.46624,92743.01,28.42,0.374758,155665,0,20.07363,1
14972,2023-01-20 10:50:35.697545,155765304,0,15.4528,92743.16,28.42,0.2848494,155765,0,20.07363,1
15003,2023-01-20 10:50:35.797538,155865317,0,15.46624,92743.02,28.4,0.1285604,155865,0,20.07363,1
15036,2023-01-20 10:50:35.897481,155965301,0,15.61144,92741.45,28.39,0.07814496,155965,0,20.07363,1
15067,2023-01-20 10:50:35.997475,156065336,0,15.62219,92741.33,28.38,0.2445173,156065,0,20.07363,1
15099,2023-01-20 10:50:36.097502,156165307,0,15.54153,92742.19,28.39,0.4680276,156165,0,20.07363,1
15132,2023-01-20 10:50:36.197562,156265309,0,15.72168,92740.26,28.41,0.4344171,156265,0,20.07363,1
15164,2023-01-20 10:50:36.297575,156365368,0,15.75664,92739.88,28.42,0.3050163,156365,0,20.07363,1
15195,2023-01-20 10:50:36.397451,156465293,0,15.68135,92740.7,28.43,0.4041675,156465,0,20.07363,1
15229,2023-01-20 10:50:36.497502,156565290,0,15.71899,92740.3,28.44,0.4436597,156565,0,20.07363,1
15260,2023-01-20 10:50:36.597588,156665319,0,15.9099,92738.22,28.44,0.2487177,156665,0,20.07363,1
15295,2023-01-20 10:50:36.697567,156765293,0,15.9341,92737.95,28.44,0.2991331,156765,0,20.07363,1
15326,2023-01-20 10:50:36.797670,156865392,0,15.93141,92738,28.43,0.6444821,156865,0,20.07363,1
15359,2023-01-20 10:50:36.897526,156965339,0,15.79966,92739.42,28.44,0.6621277,156965,0,20.07363,1
15390,2023-01-20 10:50:36.997474,157065380,0,15.67059,92740.82,28.45,0.1310805,157065,0,20.07363,1
15422,2023-01-20 10:50:37.097477,157165307,0,15.85612,92738.8,28.47,-0.4663467,157165,0,20.07363,1
15455,2023-01-20 10:50:37.197625,157265375,0,16.04972,92736.7,28.48,-0.4613042,157265,0,20.07363,1
15487,2023-01-20 10:50:37.297570,157365316,0,15.96368,92737.66,28.51,0.2453575,157365,0,20.07363,1
15518,2023-01-20 10:50:37.397634,157465377,0,16.19223,92735.18,28.53,0.8789155,157465,0,20.07363,1
15552,2023-01-20 10:50:37.497592,157565320,0,16.25407,92734.52,28.53,0.9621022,157565,0,20.07363,1
15583,2023-01-20 10:50:37.597712,157665424,0,16.32667,92733.72,28.52,0.9251317,157665,0,20.07363,1
15618,2023-01-20 10:50:37.697590,157765317,0,16.33205,92733.66,28.53,0.9486586,157765,0,20.07363,1
15649,2023-01-20 10:50:37.797687,157865429,0,16.45305,92732.37,28.52,0.7965696,157865,0,20.07363,1
15683,2023-01-20 10:50:37.897515,157965299,0,16.49876,92731.84,28.53,0.6150734,157965,0,20.07363,1
15714,2023-01-20 10:50:37.997566,158065393,0,16.5848,92730.94,28.54,0.6259984,158065,0,20.07363,1
15746,2023-01-20 10:50:38.088708,158165301,0,16.6574,92730.14,28.53,0.7091844,158165,0,20.07363,1
15779,2023-01-20 10:50:38.179825,158265420,0,16.62782,92730.47,28.51,0.7066625,158265,0,20.07363,1
15811,2023-01-20 10:50:38.277731,158365318,0,16.70849,92729.58,28.51,0.5839825,158365,0,20.07363,1
15842,2023-01-20 10:50:38.377809,158465394,0,16.73269,92729.34,28.51,0.4167694,158465,0,20.07363,1
15877,2023-01-20 10:50:38.477700,158565310,0,16.84562,92728.1,28.53,0.3730774,158565,0,20.07363,1
15909,2023-01-20 10:50:38.577719,158665360,0,16.98275,92726.63,28.55,0.5234855,158665,0,20.07363,1
15944,2023-01-20 10:50:38.677649,158765301,0,16.96124,92726.85,28.57,0.7528758,158765,0,20.07363,1
15975,2023-01-20 10:50:38.777737,158865394,0,16.95317,92726.94,28.6,0.8083326,158865,0,20.07363,1
16010,2023-01-20 10:50:38.886203,158965331,0,16.96124,92726.86,28.62,0.5352485,158965,0,20.07363,1
16041,2023-01-20 10:50:38.997252,159065391,0,17.07417,92725.63,28.63,0.2050257,159065,0,20.07363,1
16073,2023-01-20 10:50:39.088648,159165280,0,17.03115,92726.11,28.65,0.172255,159165,0,20.07363,1
16107,2023-01-20 10:50:39.179727,159265365,0,17.17097,92724.61,28.66,0.3352666,159265,0,20.07363,1
16139,2023-01-20 10:50:39.277667,159365337,0,17.34574,92722.7,28.69,0.5016398,159365,0,20.07363,1
16170,2023-01-20 10:50:39.377593,159465299,0,17.46136,92721.47,28.7,0.7906902,159465,0,20.07363,1
16204,2023-01-20 10:50:39.477575,159565301,0,17.62,92719.75,28.71,1.18141,159565,0,20.07363,1
16235,2023-01-20 10:50:39.577606,159665349,0,17.6926,92718.97,28.72,1.383071,159665,0,20.07363,1
16270,2023-01-20 10:50:39.677512,159765303,0,17.75176,92718.3,28.74,1.305768,159765,0,20.07363,1
16301,2023-01-20 10:50:39.777441,159865290,0,17.92116,92716.48,28.74,1.103267,159865,0,20.07363,1
16335,2023-01-20 10:50:39.877450,159965308,0,17.69798,92718.89,28.75,0.8906817,159965,0,20.07363,1
16366,2023-01-20 10:50:39.977477,160065330,0,17.91309,92716.56,28.77,0.5957496,160065,0,20.07363,1
16398,2023-01-20 10:50:40.077505,160165314,0,18.00989,92715.52,28.77,0.3134209,160165,0,20.07363,1
16432,2023-01-20 10:50:40.177598,160265352,0,18.12013,92714.34,28.78,0.44366,160265,0,20.07363,1
16464,2023-01-20 10:50:40.277523,160365305,0,18.17391,92713.75,28.79,0.8679914,160365,0,20.07363,1
16495,2023-01-20 10:50:40.377466,160465299,0,18.15777,92713.92,28.81,0.9923512,160465,0,20.07363,1
16529,2023-01-20 10:50:40.477474,160565309,0,18.02871,92715.32,28.82,0.6654894,160565,0,20.07363,1
16561,2023-01-20 10:50:40.577469,160665291,0,18.16046,92713.91,28.82,0.1596493,160665,0,20.07363,1
16596,2023-01-20 10:50:40.677493,160765298,0,18.19004,92713.58,28.83,-0.1201594,160765,0,20.07363,1
16627,2023-01-20 10:50:40.777519,160865306,0,18.26802,92712.73,28.83,0.07058202,160865,0,20.07363,1
16661,2023-01-20 10:50:40.877536,160965352,0,18.31104,92712.28,28.84,0.4327369,160965,0,20.07363,1
16692,2023-01-20 10:50:40.977453,161065312,0,18.52884,92709.91,28.84,0.6369209,161065,0,20.07363,1
16724,2023-01-20 10:50:41.077479,161165303,0,18.36213,92711.73,28.86,0.753718,161165,0,20.07363,1
16758,2023-01-20 10:50:41.177534,161265299,0,18.44279,92710.84,28.86,0.7108653,161265,0,20.07363,1
16790,2023-01-20 10:50:41.277578,161365325,0,18.33524,92712,28.86,0.3436697,161365,0,20.07363,1
16821,2023-01-20 10:50:41.377578,161465318,0,18.52077,92710,28.86,-0.025208,161465,0,20.07363,1
16855,2023-01-20 10:50:41.477572,161565344,0,18.60681,92709.09,28.88,0.04033088,161565,0,20.07363,1
16887,2023-01-20 10:50:41.577491,161665305,0,18.78965,92707.11,28.87,0.5091988,161665,0,20.07363,1
16922,2023-01-20 10:50:41.677513,161765305,0,18.62563,92708.88,28.87,0.9402561,161765,0,20.07363,1
16953,2023-01-20 10:50:41.777549,161865302,0,18.57992,92709.38,28.88,0.8259802,161865,0,20.07363,1
16987,2023-01-20 10:50:41.877511,161965295,0,18.57992,92709.38,28.88,0.1798165,161965,0,20.07363,1
17018,2023-01-20 10:50:41.977479,162065315,0,18.70092,92708.06,28.87,-0.3050154,162065,0,20.07363,1
17050,2023-01-20 10:50:42.077493,162165303,0,18.65252,92708.59,28.86,-0.1680517,162165,0,20.07363,1
17084,2023-01-20 10:50:42.177574,162265335,0,18.99669,92704.87,28.85,0.2873701,162265,0,20.07363,1
17116,2023-01-20 10:50:42.277540,162365328,0,18.88107,92706.12,28.84,0.7142222,162365,0,20.07363,1
17147,2023-01-20 10:50:42.377453,162465289,0,18.95636,92705.3,28.84,0.9562183,162465,0,20.07363,1
17181,2023-01-20 10:50:42.477457,162565293,0,18.8999,92705.92,28.83,0.7764036,162565,0,20.07363,1
17213,2023-01-20 10:50:42.577504,162665325,0,19.01552,92704.66,28.83,0.3445101,162665,0,20.07363,1
17248,2023-01-20 10:50:42.677490,162765310,0,19.19029,92702.78,28.81,0.220992,162765,0,20.07363,1
17279,2023-01-20 10:50:42.777530,162865353,0,19.32204,92701.36,28.81,0.5806226,162865,0,20.07363,1
17313,2023-01-20 10:50:42.877458,162965310,0,19.16609,92703.03,28.79,0.999912,162965,0,20.07363,1
17344,2023-01-20 10:50:42.977386,163065276,0,19.12576,92703.48,28.81,0.864631,163065,0,20.07363,1
17376,2023-01-20 10:50:43.077457,163165295,0,19.115,92703.59,28.8,0.1672143,163165,0,20.07363,1
17410,2023-01-20 10:50:43.177547,163265307,0,19.115,92703.59,28.82,-0.3697145,163265,0,20.07363,1
17442,2023-01-20 10:50:43.277586,163365328,0,19.14996,92703.21,28.83,-0.3512305,163365,0,20.07363,1
17473,2023-01-20 10:50:43.377561,163465302,0,19.3086,92701.5,28.85,-0.04117489,163465,0,20.07363,1
17507,2023-01-20 10:50:43.477581,163565356,0,19.4054,92700.45,28.85,0.3579497,163565,0,20.07363,1
17540,2023-01-20 10:50:43.577509,163665328,0,19.74688,92696.75,28.87,0.859589,163665,0,20.07363,1
17575,2023-01-20 10:50:43.677469,163765295,0,19.82217,92695.95,28.87,1.409965,163765,0,20.07363,1
17606,2023-01-20 10:50:43.777487,163865310,0,20.03459,92693.66,28.88,1.812451,163865,0,20.07363,1
17642,2023-01-20 10:50:43.877474,163965310,0,20.01577,92693.85,28.89,1.829255,163965,0,20.07363,1
17673,2023-01-20 10:50:43.977429,164065282,0,20.2497,92691.31,28.9,1.506593,164065,0,20.07363,1
17705,2023-01-20 10:50:44.077522,164165336,0,19.98081,92694.22,28.9,1.110829,164165,0,20.07363,1
17739,2023-01-20 10:50:44.177548,164265307,0,19.74688,92696.75,28.92,0.5344099,164265,0,20.07363,1
17771,2023-01-20 10:50:44.277571,164365318,0,19.58824,92698.46,28.92,-0.487352,164365,0,20.07363,1
17802,2023-01-20 10:50:44.377558,164465306,0,19.79528,92696.23,28.94,-1.39484,164465,0,20.07363,1
17837,2023-01-20 10:50:44.477557,164565305,0,19.86519,92695.47,28.94,-1.228467,164565,0,20.07363,1
17869,2023-01-20 10:50:44.577571,164665320,0,19.90552,92695.05,28.95,-0.1764548,164665,0,20.07363,1
17904,2023-01-20 10:50:44.677539,164765301,0,20.35994,92690.13,28.95,0.7495153,164765,0,20.07363,1
17935,2023-01-20 10:50:44.777575,164865353,0,20.58043,92687.75,28.97,1.397359,164865,0,20.07363,1
17969,2023-01-20 10:50:44.877469,164965295,0,21.12357,92681.88,28.98,2.234265,164965,0,20.07363,1
18000,2023-01-20 10:50:44.977404,165065287,0,21.06979,92682.48,28.97,3.025795,165065,0,20.07363,1
18032,2023-01-20 10:50:45.077467,165165295,0,20.82242,92685.15,28.95,2.947647,165165,0,20.07363,1
18066,2023-01-20 10:50:45.177554,165265294,0,20.80898,92685.28,28.94,1.625068,165265,0,20.07363,1
18098,2023-01-20 10:50:45.277598,165365330,0,20.48631,92688.77,28.94,-0.1453668,165365,0,20.07363,1
18129,2023-01-20 10:50:45.377589,165465336,0,20.41103,92689.58,28.93,-1.257033,165465,0,20.07363,1
18163,2023-01-20 10:50:45.477526,165565311,0,20.59925,92687.55,28.92,-1.512473,165565,0,20.07363,1
18195,2023-01-20 10:50:45.577499,165665330,0,20.69067,92686.57,28.93,-1.019239,165665,0,20.07363,1
18230,2023-01-20 10:50:45.677484,165765289,0,20.81973,92685.18,28.92,0.02772749,165765,0,20.07363,1
18261,2023-01-20 10:50:45.777545,165865303,0,20.75789,92685.83,28.93,0.8377397,165865,0,20.07363,1
18295,2023-01-20 10:50:45.877521,165965304,0,20.83318,92685.02,28.93,0.8864761,165965,0,20.07363,1
18326,2023-01-20 10:50:45.977471,166065301,0,20.80629,92685.3,28.94,0.5209649,166065,0,20.07363,1
18358,2023-01-20 10:50:46.077524,166165355,0,20.69336,92686.52,28.96,0.1949435,166165,0,20.07363,1
18392,2023-01-20 10:50:46.177480,166265299,0,20.70949,92686.36,28.97,-0.07646323,166265,0,20.07363,1
18424,2023-01-20 10:50:46.277544,166365320,0,20.96224,92683.62,28.97,-0.2344334,166365,0,20.07363,1
18455,2023-01-20 10:50:46.377571,166465296,0,21.02946,92682.89,28.96,0.09495019,166465,0,20.07363,1
18489,2023-01-20 10:50:46.477579,166565306,0,21.05097,92682.67,28.95,0.7671601,166565,0,20.07363,1
18521,2023-01-20 10:50:46.577576,166665319,0,21.1881,92681.18,28.95,1.066293,166665,0,20.07363,1
18556,2023-01-20 10:50:46.677564,166765340,0,21.0456,92682.72,28.95,0.8469844,166765,0,20.07363,1
18587,2023-01-20 10:50:46.777497,166865310,0,21.27683,92680.22,28.95,0.5293668,166865,0,20.07363,1
18621,2023-01-20 10:50:46.870484,166965303,0,21.36288,92679.3,28.95,0.4260152,166965,0,20.07363,1
18652,2023-01-20 10:50:46.961441,167065291,0,21.05904,92682.58,28.95,0.5377698,167065,0,20.07363,1
18684,2023-01-20 10:50:47.057645,167165302,0,20.89771,92684.34,28.95,0.2865303,167165,0,20.07363,1
18717,2023-01-20 10:50:47.157674,167265294,0,21.12626,92681.87,28.94,-0.5444902,167265,0,20.07363,1
18749,2023-01-20 10:50:47.257717,167365319,0,21.00257,92683.2,28.93,-0.9284896,167365,0,20.07363,1
18780,2023-01-20 10:50:47.357752,167465351,0,20.95686,92683.69,28.93,-0.4453379,167465,0,20.07363,1
18814,2023-01-20 10:50:47.457698,167565297,0,20.42716,92689.42,28.93,-0.2562803,167565,0,20.07363,1
18846,2023-01-20 10:50:47.557704,167665306,0,20.40565,92689.64,28.93,-1.057053,167665,0,20.07363,1
18881,2023-01-20 10:50:47.657723,167765314,0,20.45136,92689.15,28.92,-1.939331,167765,0,20.07363,1
18912,2023-01-20 10:50:47.757741,167865310,0,20.82511,92685.11,28.93,-1.644397,167865,0,20.07363,1
18946,2023-01-20 10:50:47.857721,167965304,0,21.10206,92682.11,28.94,-0.09578945,167965,0,20.07363,1
18977,2023-01-20 10:50:47.957717,168065340,0,21.2607,92680.39,28.94,1.593981,168065,0,20.07363,1
19009,2023-01-20 10:50:48.057663,168165303,0,21.19079,92681.16,28.94,2.324169,168165,0,20.07363,1
19043,2023-01-20 10:50:48.157677,168265317,0,21.30372,92679.95,28.94,1.885551,168265,0,20.07363,1
19075,2023-01-20 10:50:48.257664,168365323,0,21.44354,92678.42,28.93,1.046969,168365,0,20.07363,1
19106,2023-01-20 10:50:48.357612,168465304,0,21.61563,92676.57,28.93,0.7411146,168465,0,20.07363,1
19140,2023-01-20 10:50:48.457608,168565321,0,21.6479,92676.22,28.92,1.009158,168565,0,20.07363,1
19172,2023-01-20 10:50:48.557592,168665319,0,21.90065,92673.5,28.91,1.258714,168665,0,20.07363,1
19208,2023-01-20 10:50:48.657584,168765336,0,21.81192,92674.45,28.9,1.259555,168765,0,20.07363,1
19239,2023-01-20 10:50:48.757535,168865321,0,22.04585,92671.91,28.89,1.13772,168865,0,20.07363,1
19273,2023-01-20 10:50:48.857469,168965297,0,22.13727,92670.94,28.88,1.01084,168965,0,20.07363,1
19306,2023-01-20 10:50:48.957422,169065297,0,22.23406,92669.9,28.88,1.031844,169065,0,20.07363,1
19338,2023-01-20 10:50:49.057440,169165308,0,22.31473,92669,28.88,1.133515,169165,0,20.07363,1
19372,2023-01-20 10:50:49.157480,169265300,0,22.54328,92666.53,28.89,1.123432,169265,0,20.07363,1
19404,2023-01-20 10:50:49.257592,169365356,0,22.64277,92665.48,28.9,1.158724,169365,0,20.07363,1
19435,2023-01-20 10:50:49.357602,169465306,0,22.82561,92663.49,28.92,1.358708,169465,0,20.07363,1
19469,2023-01-20 10:50:49.457586,169565312,0,22.90628,92662.63,28.93,1.492311,169565,0,20.07363,1
19501,2023-01-20 10:50:49.557488,169665296,0,22.84981,92663.23,28.94,1.372994,169665,0,20.07363,1
19536,2023-01-20 10:50:49.657483,169765297,0,22.86863,92663.04,28.96,0.9679855,169765,0,20.07363,1
19567,2023-01-20 10:50:49.757565,169865328,0,22.81754,92663.59,28.96,0.405845,169865,0,20.07363,1
19601,2023-01-20 10:50:49.857531,169965303,0,22.83637,92663.38,28.98,-0.008406634,169965,0,20.07363,1
19632,2023-01-20 10:50:49.957504,170065327,0,22.83905,92663.35,28.99,-0.1336032,170065,0,20.07363,1
19664,2023-01-20 10:50:50.057454,170165304,0,23.12676,92660.25,29.01,0.005043148,170165,0,20.07363,1
19740,2023-01-20 10:50:50.157429,170265287,0,23.11332,92660.38,29.02,0.4386187,170265,0,20.07363,1
19772,2023-01-20 10:50:50.257479,170365316,0,23.15096,92659.98,29.02,0.9116864,170365,0,20.07363,1
19803,2023-01-20 10:50:50.357510,170465304,0,23.39833,92657.32,29.03,1.003277,170465,0,20.07363,1
19837,2023-01-20 10:50:50.457523,170565289,0,23.41178,92657.17,29.04,0.9167302,170565,0,20.07363,1
19869,2023-01-20 10:50:50.557558,170665306,0,23.33649,92657.97,29.04,0.9570616,170665,0,20.07363,1
19904,2023-01-20 10:50:50.657566,170765308,0,23.33649,92657.98,29.05,0.752036,170765,0,20.07363,1
19935,2023-01-20 10:50:50.757570,170865314,0,23.41985,92657.08,29.05,0.2310711,170865,0,20.07363,1
19969,2023-01-20 10:50:50.857498,170965285,0,23.58655,92655.28,29.06,0.04537284,170965,0,20.07363,1
20000,2023-01-20 10:50:50.957434,171065293,0,23.4064,92657.23,29.05,0.3512305,171065,0,20.07363,1
20032,2023-01-20 10:50:51.057460,171165308,0,23.63764,92654.73,29.05,0.5486929,171165,0,20.07363,1
20066,2023-01-20 10:50:51.157532,171265307,0,23.68066,92654.25,29.03,0.4629856,171265,0,20.07363,1
20098,2023-01-20 10:50:51.257617,171365363,0,23.97644,92651.06,29.03,0.6058317,171365,0,20.07363,1
20129,2023-01-20 10:50:51.357558,171465308,0,24.10012,92649.72,29.02,1.128477,171465,0,20.07363,1
20163,2023-01-20 10:50:51.457527,171565305,0,24.25339,92648.06,29.01,1.604904,171565,0,20.07363,1
20195,2023-01-20 10:50:51.557495,171665320,0,24.41472,92646.32,29,1.740185,171665,0,20.07363,1
20230,2023-01-20 10:50:51.657490,171765301,0,24.5169,92645.23,29,1.625071,171765,0,20.07363,1
20261,2023-01-20 10:50:51.757562,171865315,0,24.39321,92646.56,28.99,1.3898,171865,0,20.07363,1
20295,2023-01-20 10:50:51.857584,171965350,0,24.42816,92646.19,29,0.9192514,171965,0,20.07363,1
20326,2023-01-20 10:50:51.957475,172065306,0,24.64058,92643.89,29,0.35375,172065,0,20.07363,1
20358,2023-01-20 10:50:52.057453,172165313,0,24.55723,92644.8,29.01,0.2386314,172165,0,20.07363,1
20392,2023-01-20 10:50:52.157432,172265295,0,24.81804,92641.97,29.01,0.5629742,172265,0,20.07363,1
20424,2023-01-20 10:50:52.257472,172365311,0,24.77771,92642.41,29.03,0.8142149,172365,0,20.07363,1
20455,2023-01-20 10:50:52.357505,172465300,0,24.52496,92645.14,29.03,0.7553977,172465,0,20.07363,1
20489,2023-01-20 10:50:52.457534,172565301,0,24.83956,92641.73,29.03,0.328545,172565,0,20.07363,1
20521,2023-01-20 10:50:52.557608,172665358,0,24.83149,92641.82,29.03,-0.04537166,172665,0,20.07363,1
20556,2023-01-20 10:50:52.657529,172765303,0,25.06542,92639.3,29.02,0.2722472,172765,0,20.07363,1
20587,2023-01-20 10:50:52.757482,172865311,0,25.02509,92639.73,29.01,0.9032834,172865,0,20.07363,1
20621,2023-01-20 10:50:52.857450,172965303,0,25.06542,92639.3,29,1.067973,172965,0,20.07363,1
20652,2023-01-20 10:50:52.957453,173065308,0,24.95249,92640.53,28.99,0.7184237,173065,0,20.07363,1
20684,2023-01-20 10:50:53.057461,173165294,0,24.84225,92641.72,28.99,0.1520884,173165,0,20.07363,1
20718,2023-01-20 10:50:53.157502,173265296,0,24.86644,92641.45,28.97,-0.3814769,173265,0,20.07363,1
20750,2023-01-20 10:50:53.257604,173365373,0,24.8046,92642.11,28.95,-0.6285155,173365,0,20.07363,1
20781,2023-01-20 10:50:53.357537,173465293,0,24.85031,92641.63,28.95,-0.5150819,173465,0,20.07363,1
20815,2023-01-20 10:50:53.457531,173565309,0,25.18104,92638.05,28.93,-0.150407,173565,0,20.07363,1
20847,2023-01-20 10:50:53.557497,173665323,0,25.18642,92637.98,28.91,0.4713893,173665,0,20.07363,1
20882,2023-01-20 10:50:53.657495,173765305,0,25.41497,92635.53,28.9,1.167127,173765,0,20.07363,1
20914,2023-01-20 10:50:53.757564,173865311,0,25.32624,92636.5,28.89,1.431809,173865,0,20.07363,1
20948,2023-01-20 10:50:53.857674,173965433,0,25.26708,92637.13,28.89,1.104946,173965,0,20.07363,1
20981,2023-01-20 10:50:53.957483,174065309,0,25.40959,92635.59,28.89,0.500797,174065,0,20.07363,1
21013,2023-01-20 10:50:54.052215,174165302,0,25.44724,92635.19,28.88,0.1310825,174165,0,20.07363,1
21047,2023-01-20 10:50:54.143098,174265291,0,25.39346,92635.76,28.87,0.2352756,174265,0,20.07363,1
21079,2023-01-20 10:50:54.241636,174365335,0,25.52521,92634.34,28.87,0.3999657,174365,0,20.07363,1
21110,2023-01-20 10:50:54.352784,174465285,0,25.39884,92635.7,28.87,0.3201389,174465,0,20.07363,1
21145,2023-01-20 10:50:54.457549,174565303,0,25.43648,92635.3,28.87,0.1613301,174565,0,20.07363,1
21177,2023-01-20 10:50:54.557591,174665363,0,25.53328,92634.24,28.86,0.03361166,174665,0,20.07363,1
21212,2023-01-20 10:50:54.657498,174765297,0,25.56017,92633.95,28.85,0.07142305,174765,0,20.07363,1
21243,2023-01-20 10:50:54.757476,174865309,0,25.60588,92633.48,28.83,0.3201407,174865,0,20.07363,1
21277,2023-01-20 10:50:54.857453,174965306,0,25.71343,92632.3,28.82,0.5108815,174965,0,20.07363,1
21308,2023-01-20 10:50:54.957453,175065314,0,26.03071,92628.88,28.81,0.657087,175065,0,20.07363,1
21340,2023-01-20 10:50:55.057467,175165306,0,26.20818,92626.96,28.8,1.102425,175165,0,20.07363,1
21374,2023-01-20 10:50:55.157551,175265346,0,26.60075,92622.72,28.78,1.807406,175265,0,20.07363,1
21406,2023-01-20 10:50:55.257521,175365326,0,26.72444,92621.38,28.77,2.380468,175365,0,20.07363,1
21437,2023-01-20 10:50:55.357497,175465352,0,26.88308,92619.67,28.77,2.553563,175465,0,20.07363,1
21471,2023-01-20 10:50:55.457470,175565310,0,26.93417,92619.11,28.77,2.253588,175565,0,20.07363,1
21503,2023-01-20 10:50:55.557554,175665331,0,27.11163,92617.21,28.78,1.686408,175665,0,20.07363,1
21538,2023-01-20 10:50:55.657553,175765301,0,27.09281,92617.41,28.79,1.24275,175765,0,20.07363,1
21569,2023-01-20 10:50:55.757581,175865324,0,27.13583,92616.95,28.8,0.9847897,175865,0,20.07363,1
21603,2023-01-20 10:50:55.857581,175965354,0,27.25145,92615.71,28.82,0.7285101,175965,0,20.07363,1
21634,2023-01-20 10:50:55.957479,176065307,0,27.17347,92616.53,28.85,0.5251664,176065,0,20.07363,1
21666,2023-01-20 10:50:56.057457,176165316,0,27.45042,92613.55,28.85,0.4865134,176165,0,20.07363,1
21700,2023-01-20 10:50:56.157437,176265307,0,27.601,92611.92,28.87,0.6587666,176265,0,20.07363,1
21732,2023-01-20 10:50:56.252221,176365320,0,27.93711,92608.3,28.88,1.156203,176365,0,20.07363,1
21763,2023-01-20 10:50:56.343115,176465308,0,27.98282,92607.81,28.89,1.789763,176465,0,20.07363,1
21797,2023-01-20 10:50:56.437453,176565344,0,28.28397,92604.56,28.88,2.09478,176565,0,20.07363,1
21829,2023-01-20 10:50:56.537406,176665316,0,28.29741,92604.41,28.89,1.989749,176665,0,20.07363,1
21864,2023-01-20 10:50:56.637386,176765307,0,28.37808,92603.55,28.91,1.702378,176765,0,20.07363,1
21895,2023-01-20 10:50:56.737389,176865309,0,27.99895,92607.63,28.92,1.167127,176865,0,20.07363,1
21928,2023-01-20 10:50:56.837365,176965301,0,28.14146,92606.08,28.93,0.2310705,176965,0,20.07363,1
21959,2023-01-20 10:50:56.937324,177065307,0,28.0097,92607.51,28.93,-0.6360811,177065,0,20.07363,1
