LineNo,UTC_Approx,TimeUS,Instance,Volt,VoltR,Curr,CurrTot,EnrgTot,Temp,Res,RemPct
322,2023-01-20 10:49:56.254701,116243262,0,16.49496,16.49359,0.5363305,16.63105,0.2742863,0,0.001560342,99
937,2023-01-20 10:49:56.345712,116343323,0,16.49718,16.49359,0.5363305,16.64596,0.2745322,0,0.001560342,99
1102,2023-01-20 10:49:56.445933,116448532,0,16.49452,16.49359,0.5363305,16.66164,0.2747908,0,0.001560342,99
1311,2023-01-20 10:49:56.559848,116561427,0,16.49275,16.49359,0.5363305,16.67846,0.2750682,0,0.001560342,99
1517,2023-01-20 10:49:56.660697,116662144,0,16.49275,16.49359,0.5363305,16.69346,0.2753157,0,0.001560342,99
1864,2023-01-20 10:49:56.760313,116762135,0,16.49364,16.49359,0.5363305,16.70836,0.2755614,0,0.001560342,99
1910,2023-01-20 10:49:56.860159,116862130,0,16.49275,16.49359,0.5363305,16.72326,0.2758071,0,0.001560342,99
1957,2023-01-20 10:49:56.960150,116962122,0,16.49275,16.49359,0.5363305,16.73816,0.2760529,0,0.001560342,99
2005,2023-01-20 10:49:57.060172,117062132,0,16.49364,16.49359,0.5363305,16.75306,0.2762986,0,0.001560342,99
2051,2023-01-20 10:49:57.160178,117162117,0,16.49275,16.49359,0.5363305,16.76796,0.2765443,0,0.001560342,99
2102,2023-01-20 10:49:57.266830,117262125,0,16.49275,16.49359,0.5363305,16.78286,0.2767901,0,0.001560342,99
2162,2023-01-20 10:49:57.377973,117362231,0,16.49275,16.49359,0.5363305,16.79777,0.2770361,0,0.001560342,99
2219,2023-01-20 10:49:57.472425,117461734,0,16.49275,16.49359,0.5363305,16.8126,0.2772806,0,0.001560342,99
2275,2023-01-20 10:49:57.563361,117561759,0,16.49275,16.49359,0.5363305,16.8275,0.2775263,0,0.001560342,99
2332,2023-01-20 10:49:57.659795,117661868,0,16.49275,16.49359,0.5363305,16.84241,0.2777723,0,0.001560342,99
2387,2023-01-20 10:49:57.759740,117761835,0,16.49275,16.49359,0.5363305,16.8573,0.2780179,0,0.001560342,99
2434,2023-01-20 10:49:57.859715,117861837,0,16.49275,16.49359,0.5363305,16.87221,0.2782637,0,0.001560342,99
2477,2023-01-20 10:49:57.959591,117961743,0,16.49275,16.49359,0.5363305,16.88709,0.2785092,0,0.001560342,99
2519,2023-01-20 10:49:58.059634,118061749,0,16.49275,16.49359,0.5363305,16.90199,0.2787549,0,0.001560342,99
2558,2023-01-20 10:49:58.159699,118161731,0,16.49275,16.49359,0.5363305,16.91689,0.2790006,0,0.001560342,99
2601,2023-01-20 10:49:58.259760,118261777,0,16.49472,16.49359,0.5363305,16.93179,0.2792464,0,0.001560342,99
2639,2023-01-20 10:49:58.359851,118361899,0,16.47414,16.47687,0.5491003,16.94707,0.2794981,0,0.004975071,99
2680,2023-01-20 10:49:58.459777,118461838,0,16.45198,16.45805,0.5899637,16.96345,0.2797676,0,0.01028163,99
2717,2023-01-20 10:49:58.559773,118561836,0,16.46527,16.47079,0.5363305,16.97835,0.2800129,0,0.01028163,99
2761,2023-01-20 10:49:58.659781,118661861,0,16.47502,16.48054,0.5363305,16.99325,0.2802584,0,0.01028163,99
2801,2023-01-20 10:49:58.759728,118761834,0,16.47502,16.48054,0.5363305,17.00814,0.2805038,0,0.01028163,99
2845,2023-01-20 10:49:58.859971,118862087,0,16.47502,16.48054,0.5363305,17.02308,0.2807499,0,0.01028163,99
2883,2023-01-20 10:49:58.959702,118961817,0,16.47325,16.47877,0.5363305,17.03794,0.2809946,0,0.01028163,99
2924,2023-01-20 10:49:59.059767,119061865,0,16.45287,16.46099,0.5797479,17.05405,0.2812598,0,0.01401019,99
2961,2023-01-20 10:49:59.159760,119161832,0,16.39438,16.41725,1.141618,17.08576,0.2817796,0,0.02003959,99
3004,2023-01-20 10:49:59.259786,119261848,0,16.42628,16.44511,0.8351434,17.10896,0.2821607,0,0.02254631,99
3042,2023-01-20 10:49:59.359833,119361896,0,16.43564,16.453,0.7236206,17.12907,0.2824913,0,0.02400171,99
3081,2023-01-20 10:49:59.459762,119461828,0,16.43603,16.45405,0.7151074,17.14893,0.2828176,0,0.02519335,99
3119,2023-01-20 10:49:59.559757,119561828,0,16.43692,16.45515,0.6972297,17.16829,0.2831359,0,0.02614574,99
3161,2023-01-20 10:49:59.659791,119661874,0,16.43603,16.4548,0.6946758,17.1876,0.2834533,0,0.02702249,99
3202,2023-01-20 10:49:59.759725,119761827,0,16.43426,16.45378,0.6997837,17.20703,0.2837726,0,0.02789603,99
3243,2023-01-20 10:49:59.859729,119861841,0,16.43465,16.45507,0.7151074,17.2269,0.2840991,0,0.02855163,99
3281,2023-01-20 10:49:59.959713,119961830,0,16.4316,16.45309,0.7329851,17.24726,0.2844337,0,0.02931959,99
3321,2023-01-20 10:50:00.059722,120061825,0,16.43249,16.45403,0.7202153,17.26726,0.2847623,0,0.02991272,99
3359,2023-01-20 10:50:00.159750,120161826,0,16.43514,16.45623,0.7048916,17.28685,0.2850843,0,0.02991272,99
3402,2023-01-20 10:50:00.259746,120261816,0,16.43514,16.45608,0.6997837,17.30628,0.2854036,0,0.02991272,99
3439,2023-01-20 10:50:00.359754,120361832,0,16.43465,16.45553,0.6980811,17.32568,0.2857225,0,0.02991272,99
3481,2023-01-20 10:50:00.459763,120461840,0,16.43426,16.45519,0.6997837,17.34512,0.286042,0,0.02991272,99
3518,2023-01-20 10:50:00.559766,120561836,0,16.43249,16.45382,0.7048916,17.3647,0.2863638,0,0.03026576,99
3562,2023-01-20 10:50:00.659805,120661879,0,16.43071,16.4528,0.7202153,17.38472,0.2866927,0,0.03067466,99
3601,2023-01-20 10:50:00.759761,120761847,0,16.43071,16.45275,0.7099995,17.40444,0.2870167,0,0.03104244,99
3643,2023-01-20 10:50:00.859742,120861844,0,16.43268,16.45444,0.7009188,17.42391,0.2873366,0,0.03104244,99
3680,2023-01-20 10:50:00.959718,120961839,0,16.43426,16.45581,0.6946758,17.4432,0.2876537,0,0.03103135,99
3713,2023-01-20 10:50:01.059710,121061834,0,16.43249,16.45404,0.6946758,17.4625,0.2879708,0,0.03103135,99
3743,2023-01-20 10:50:01.159756,121161874,0,16.42274,16.44803,0.796834,17.48465,0.2883345,0,0.03174457,99
3778,2023-01-20 10:50:01.259733,121261880,0,16.39881,16.43318,1.016474,17.51289,0.2887976,0,0.03381946,99
3808,2023-01-20 10:50:01.359687,121361888,0,16.27217,16.36007,2.295722,17.57667,0.2898355,0,0.03828835,99
3841,2023-01-20 10:50:01.459683,121461875,0,16.15598,16.30336,3.452947,17.67257,0.291385,0,0.04268141,99
3871,2023-01-20 10:50:01.559740,121561881,0,16.04963,16.25952,4.497515,17.79752,0.2933903,0,0.04666752,99
3907,2023-01-20 10:50:01.659759,121661878,0,15.92822,16.21383,5.679996,17.95531,0.2959036,0,0.05028421,99
3939,2023-01-20 10:50:01.759764,121761881,0,15.81124,16.17887,6.880355,18.14645,0.2989258,0,0.05343143,99
3973,2023-01-20 10:50:01.859802,121861963,0,15.67387,16.13478,8.182872,18.37396,0.3024917,0,0.05632644,99
4004,2023-01-20 10:50:01.959651,121961888,0,15.54842,16.1048,9.452472,18.63635,0.3065715,0,0.05886048,99
4037,2023-01-20 10:50:02.059685,122061912,0,15.50992,16.11142,9.876144,18.91078,0.3108278,0,0.06090447,99
4067,2023-01-20 10:50:02.159786,122161948,0,15.70134,16.18767,7.866181,19.12938,0.3142601,0,0.06182481,99
4102,2023-01-20 10:50:02.259768,122261904,0,15.76515,16.20811,7.097441,19.32646,0.3173671,0,0.06241091,99
4132,2023-01-20 10:50:02.359772,122361910,0,15.74743,16.20331,7.237909,19.52754,0.3205337,0,0.06298534,99
4165,2023-01-20 10:50:02.459574,122461951,0,15.78376,16.21966,6.884327,19.71886,0.3235535,0,0.06331711,99
4195,2023-01-20 10:50:02.559131,122561905,0,15.79174,16.22043,6.739888,19.90601,0.3265089,0,0.06360425,99
4232,2023-01-20 10:50:02.658979,122661894,0,15.77845,16.21452,6.821614,20.09549,0.3294987,0,0.063925,99
4264,2023-01-20 10:50:02.759088,122761966,0,15.75718,16.20907,7.031038,20.29095,0.3325786,0,0.06427142,99
4298,2023-01-20 10:50:02.859045,122861923,0,15.73325,16.20023,7.220031,20.49144,0.335733,0,0.06467816,99
4329,2023-01-20 10:50:02.958994,122961897,0,15.69514,16.19078,7.607948,20.70274,0.3390492,0,0.06514709,99
4362,2023-01-20 10:50:03.059035,123061949,0,15.68185,16.18828,7.720606,20.91733,0.3424144,0,0.06559483,99
4392,2023-01-20 10:50:03.158973,123161889,0,15.6721,16.1865,7.792117,21.13366,0.3458048,0,0.0660161,99
4427,2023-01-20 10:50:03.258971,123261885,0,15.67033,16.1854,7.756362,21.34912,0.3491812,0,0.06640637,99
4457,2023-01-20 10:50:03.359036,123361944,0,15.63576,16.17715,8.098592,21.57424,0.352701,0,0.06684951,99
4490,2023-01-20 10:50:03.458995,123461893,0,15.65083,16.18346,7.928612,21.79438,0.3561464,0,0.0671782,99
4520,2023-01-20 10:50:03.558997,123561882,0,15.61893,16.17193,8.180318,22.02161,0.3596955,0,0.06760249,99
4556,2023-01-20 10:50:03.659023,123661904,0,15.556,16.15593,8.80093,22.26615,0.3634996,0,0.0681659,99
4588,2023-01-20 10:50:03.759025,123761910,0,15.50992,16.14622,9.250425,22.52314,0.3674855,0,0.06878611,99
4622,2023-01-20 10:50:03.859416,123862117,0,15.49751,16.14579,9.347475,22.78335,0.3715181,0,0.06935344,99
4654,2023-01-20 10:50:03.959832,123962222,0,15.50805,16.15161,9.219777,23.03974,0.3754943,0,0.0698022,99
4687,2023-01-20 10:50:04.060040,124062264,0,15.52587,16.15786,9.010354,23.29016,0.3793821,0,0.07014012,99
4717,2023-01-20 10:50:04.160118,124162275,0,15.58436,16.17264,8.387189,23.52318,0.3830136,0,0.07014012,99
4752,2023-01-20 10:50:04.260096,124262229,0,15.61715,16.17837,8.006649,23.74549,0.3864855,0,0.07009333,99
4782,2023-01-20 10:50:04.360122,124362259,0,15.6659,16.19123,7.485642,23.95349,0.389744,0,0.0701783,99
4815,2023-01-20 10:50:04.460081,124462244,0,15.66855,16.18959,7.41924,24.15959,0.3929733,0,0.07022817,99
4845,2023-01-20 10:50:04.560038,124562241,0,15.61834,16.1741,7.925774,24.37976,0.396412,0,0.07012109,99
4882,2023-01-20 10:50:04.660038,124662232,0,15.58968,16.16475,8.177765,24.60692,0.3999533,0,0.0703214,99
4914,2023-01-20 10:50:04.760136,124762287,0,15.57816,16.16397,8.308016,24.83784,0.4035507,0,0.07051208,99
4948,2023-01-20 10:50:04.859697,124861859,0,15.57373,16.16156,8.313124,25.06778,0.4071318,0,0.07071187,99
4978,2023-01-20 10:50:04.959698,124961908,0,15.58259,16.1636,8.198195,25.29564,0.4106824,0,0.0708709,99
5011,2023-01-20 10:50:05.059777,125061977,0,15.60061,16.16833,8.019419,25.51857,0.4141603,0,0.07079259,99
5041,2023-01-20 10:50:05.159743,125161894,0,15.59234,16.16457,8.083267,25.74293,0.4176585,0,0.07079259,99
5076,2023-01-20 10:50:05.259768,125261903,0,15.56398,16.15621,8.343771,25.97476,0.4212667,0,0.07097898,99
5106,2023-01-20 10:50:05.359782,125361922,0,15.58259,16.16195,8.162441,26.20156,0.4248008,0,0.07097898,99
5139,2023-01-20 10:50:05.459776,125461910,0,15.60475,16.16253,7.866181,26.42005,0.4282104,0,0.07090965,99
5169,2023-01-20 10:50:05.559780,125561900,0,15.62424,16.16706,7.656189,26.63272,0.4315332,0,0.07089869,99
5206,2023-01-20 10:50:05.659791,125661904,0,15.62424,16.16684,7.654203,26.84536,0.4348556,0,0.07088816,99
5238,2023-01-20 10:50:05.759803,125761913,0,15.61272,16.16098,7.741038,27.06043,0.4382133,0,0.07082509,99
5272,2023-01-20 10:50:05.854357,125861891,0,15.64197,16.16773,7.421793,27.26656,0.4414376,0,0.07083984,99
5302,2023-01-20 10:50:05.945287,125961897,0,15.65703,16.17292,7.276218,27.46871,0.4446027,0,0.07090019,99
5335,2023-01-20 10:50:06.039857,126061913,0,15.64886,16.17118,7.363904,27.67331,0.4478044,0,0.07093038,99
5365,2023-01-20 10:50:06.139889,126161909,0,15.63754,16.16673,7.462657,27.8806,0.451046,0,0.07091169,99
5400,2023-01-20 10:50:06.239411,126261902,0,15.65526,16.16853,7.237909,28.08167,0.4541937,0,0.07091423,99
5432,2023-01-20 10:50:06.338199,126361925,0,15.65792,16.16985,7.217477,28.28222,0.4573339,0,0.0709286,99
5465,2023-01-20 10:50:06.437361,126461865,0,15.67299,16.17307,7.046362,28.47785,0.4604,0,0.07097016,99
5495,2023-01-20 10:50:06.537396,126561912,0,15.6656,16.16948,7.099995,28.67518,0.4634913,0,0.0709684,99
5531,2023-01-20 10:50:06.637321,126661868,0,15.62424,16.15975,7.534168,28.88439,0.46676,0,0.07107663,99
5563,2023-01-20 10:50:06.737264,126761876,0,15.68805,16.17806,6.885463,29.07566,0.4697608,0,0.07116579,99
5597,2023-01-20 10:50:06.837440,126862125,0,15.71996,16.18485,6.520247,29.25726,0.4726155,0,0.07129958,99
5627,2023-01-20 10:50:06.937319,126962094,0,15.69071,16.17555,6.798629,29.44607,0.475578,0,0.07131481,99
5660,2023-01-20 10:50:07.037275,127062113,0,15.65438,16.16761,7.189384,29.64583,0.4787051,0,0.07138792,99
5690,2023-01-20 10:50:07.137251,127162107,0,15.65871,16.16759,7.128373,29.84384,0.4818058,0,0.07138792,99
5725,2023-01-20 10:50:07.237276,127262119,0,15.65438,16.16611,7.16129,30.04281,0.4849204,0,0.07145894,99
5755,2023-01-20 10:50:07.337351,127362131,0,15.61981,16.15772,7.511182,30.25149,0.4881801,0,0.07161491,99
5788,2023-01-20 10:50:07.437329,127462102,0,15.63222,16.16119,7.375822,30.45634,0.4913822,0,0.07171692,99
5818,2023-01-20 10:50:07.537265,127562125,0,15.64729,16.16252,7.184275,30.65596,0.4945058,0,0.07171692,99
5854,2023-01-20 10:50:07.641435,127662151,0,15.60947,16.15423,7.579571,30.86657,0.4977933,0,0.07187225,99
5886,2023-01-20 10:50:07.752679,127762125,0,15.59411,16.14939,7.705283,31.08057,0.5011305,0,0.07206529,99
5920,2023-01-20 10:50:07.852154,127862098,0,15.59766,16.15135,7.666974,31.2935,0.5044516,0,0.07221752,99
5951,2023-01-20 10:50:07.942944,127962102,0,15.57018,16.14557,7.945354,31.51422,0.5078882,0,0.07241859,99
5985,2023-01-20 10:50:08.037276,128062231,0,15.57018,16.14553,7.924922,31.73467,0.5113207,0,0.07260023,99
6015,2023-01-20 10:50:08.137138,128162111,0,15.59273,16.15025,7.667541,31.94742,0.5146381,0,0.07271181,99
6050,2023-01-20 10:50:08.237152,128262121,0,15.56309,16.1418,7.937692,32.16795,0.5180702,0,0.07290593,99
6080,2023-01-20 10:50:08.337194,128362121,0,15.52853,16.13552,8.2978,32.39846,0.5216495,0,0.07315125,99
6113,2023-01-20 10:50:08.437210,128462113,0,15.55157,16.1403,8.029635,32.62151,0.5251184,0,0.07331964,99
6143,2023-01-20 10:50:08.537200,128562110,0,15.53473,16.1382,8.210965,32.8496,0.5286618,0,0.07349546,99
6179,2023-01-20 10:50:08.637197,128662114,0,15.53562,16.13916,8.195358,33.07727,0.5321988,0,0.073644,99
6211,2023-01-20 10:50:08.737286,128762212,0,15.5436,16.14025,8.088376,33.30207,0.535693,0,0.0737664,99
6245,2023-01-20 10:50:08.836937,128861832,0,15.52321,16.13328,8.249275,33.53045,0.5392381,0,0.07395444,99
6278,2023-01-20 10:50:08.937035,128961832,0,15.53651,16.13896,8.134347,33.75646,0.5427496,0,0.07406239,99
6311,2023-01-20 10:50:09.037111,129061832,0,15.56752,16.14315,7.776793,33.9725,0.5461128,0,0.07401849,99
6341,2023-01-20 10:50:09.137065,129161747,0,15.56122,16.13912,7.815103,34.18942,0.5494884,0,0.07394689,99
6376,2023-01-20 10:50:09.237124,129261849,0,15.54714,16.13794,7.98111,34.41136,0.5529389,0,0.07402474,99
6406,2023-01-20 10:50:09.336966,129361870,0,15.58348,16.14665,7.605678,34.62269,0.5562322,0,0.0740464,99
6439,2023-01-20 10:50:09.436671,129462142,0,15.61627,16.15234,7.232801,34.82417,0.5593785,0,0.07411681,99
6469,2023-01-20 10:50:09.535450,129562140,0,15.60652,16.1488,7.314528,35.02736,0.5625497,0,0.07413763,99
6505,2023-01-20 10:50:09.634721,129662208,0,15.59411,16.14617,7.447333,35.23428,0.5657765,0,0.07412896,99
6537,2023-01-20 10:50:09.734772,129762260,0,15.60947,16.14943,7.28161,35.43677,0.5689372,0,0.07415289,99
6571,2023-01-20 10:50:09.834719,129862216,0,15.62158,16.15075,7.133196,35.63475,0.5720298,0,0.07418396,99
6602,2023-01-20 10:50:09.934633,129962152,0,15.61538,16.15018,7.207262,35.83494,0.5751559,0,0.07420254,99
6635,2023-01-20 10:50:10.034739,130062263,0,15.59677,16.14475,7.388592,36.04042,0.5783607,0,0.07416577,99
6665,2023-01-20 10:50:10.134656,130162155,0,15.59677,16.14351,7.375822,36.2451,0.581553,0,0.07412556,99
6700,2023-01-20 10:50:10.234581,130262153,0,15.61243,16.14828,7.227693,36.44588,0.5846878,0,0.07413944,99
6730,2023-01-20 10:50:10.334315,130362146,0,15.61538,16.14727,7.17406,36.64516,0.5877996,0,0.07414062,99
6763,2023-01-20 10:50:10.434477,130462487,0,15.61538,16.14728,7.17406,36.84514,0.5909223,0,0.07414161,99
6793,2023-01-20 10:50:10.534468,130562505,0,15.60652,16.14366,7.248124,37.04652,0.5940652,0,0.07410828,99
6829,2023-01-20 10:50:10.634452,130662513,0,15.59234,16.14213,7.414131,37.25251,0.597277,0,0.07415504,99
6861,2023-01-20 10:50:10.734482,130762561,0,15.59057,16.13903,7.388592,37.45786,0.6004786,0,0.0742311,99
6894,2023-01-20 10:50:10.834399,130862520,0,15.56812,16.1344,7.616462,37.66936,0.6037712,0,0.07435049,99
6924,2023-01-20 10:50:10.934304,130962514,0,15.556,16.1329,7.746146,37.88453,0.6071185,0,0.07447472,99
6957,2023-01-20 10:50:11.034324,131062562,0,15.59323,16.14168,7.365606,38.08925,0.6103107,0,0.07446149,99
6987,2023-01-20 10:50:11.134337,131162489,0,15.6074,16.14314,7.194492,38.28897,0.6134278,0,0.07446503,99
7023,2023-01-20 10:50:11.234388,131262485,0,15.61095,16.14492,7.168952,38.48811,0.6165366,0,0.07448459,99
7053,2023-01-20 10:50:11.334370,131362474,0,15.61735,16.14141,7.037565,38.68359,0.6195894,0,0.07446658,99
7086,2023-01-20 10:50:11.434382,131462489,0,15.59677,16.13955,7.288988,38.88612,0.6227482,0,0.07446658,99
7116,2023-01-20 10:50:11.534377,131562478,0,15.61449,16.14286,7.094887,39.08319,0.6258254,0,0.07447154,99
7152,2023-01-20 10:50:11.634402,131662499,0,15.62779,16.14694,6.967189,39.27678,0.6288508,0,0.07451398,99
7184,2023-01-20 10:50:11.734404,131762502,0,15.63842,16.14777,6.83183,39.46657,0.6318188,0,0.07455478,99
7218,2023-01-20 10:50:11.834381,131862505,0,15.64787,16.15007,6.73109,39.65356,0.6347449,0,0.0746083,99
7248,2023-01-20 10:50:11.934315,131962514,0,15.6659,16.15361,6.530463,39.835,0.6375872,0,0.07468361,99
7281,2023-01-20 10:50:12.034340,132062560,0,15.65792,16.14999,6.58665,40.01806,0.6404536,0,0.07470775,99
7311,2023-01-20 10:50:12.134360,132162499,0,15.63754,16.14894,6.8446,40.20809,0.6434251,0,0.07471651,99
7346,2023-01-20 10:50:12.234406,132262493,0,15.64551,16.14813,6.727118,40.39495,0.6463488,0,0.07471568,99
7376,2023-01-20 10:50:12.334381,132362472,0,15.63704,16.14642,6.81906,40.58435,0.6493104,0,0.0746988,99
7409,2023-01-20 10:50:12.434387,132462483,0,15.61272,16.13988,7.048916,40.78019,0.6523679,0,0.07478528,99
7439,2023-01-20 10:50:12.534382,132562485,0,15.62424,16.14416,6.949312,40.97324,0.6553843,0,0.074816,99
7475,2023-01-20 10:50:12.634377,132662481,0,15.61981,16.14218,6.977406,41.16706,0.6584118,0,0.07486515,99
7507,2023-01-20 10:50:12.734398,132762492,0,15.59323,16.13467,7.220031,41.36766,0.6615397,0,0.07499138,99
7541,2023-01-20 10:50:12.834410,132862522,0,15.58791,16.13547,7.291542,41.57028,0.6646982,0,0.0750958,99
7571,2023-01-20 10:50:12.934320,132962506,0,15.58978,16.13378,7.233369,41.77119,0.6678303,0,0.07520783,99
7605,2023-01-20 10:50:13.034336,133062545,0,15.595,16.13819,7.217477,41.97177,0.6709583,0,0.07526024,99
7635,2023-01-20 10:50:13.134371,133162505,0,15.59323,16.13597,7.204708,42.17184,0.674078,0,0.07533154,99
7670,2023-01-20 10:50:13.234409,133262496,0,15.61006,16.13854,7.018269,42.36679,0.6771212,0,0.07530048,99
7700,2023-01-20 10:50:13.334378,133362468,0,15.60032,16.137,7.122981,42.56461,0.6802073,0,0.07534522,99
7733,2023-01-20 10:50:13.434414,133462506,0,15.60455,16.13394,7.026214,42.75987,0.6832542,0,0.07534522,99
7763,2023-01-20 10:50:13.534417,133562508,0,15.60475,16.13392,7.023376,42.95498,0.6862988,0,0.07534522,99
7799,2023-01-20 10:50:13.634410,133662502,0,15.58259,16.13032,7.260894,43.15668,0.6894418,0,0.07543587,99
7831,2023-01-20 10:50:13.734407,133762500,0,15.58436,16.13269,7.263448,43.35845,0.6925863,0,0.07549139,99
7865,2023-01-20 10:50:13.834394,133862517,0,15.59677,16.13276,7.099995,43.55573,0.6956631,0,0.07549139,99
7897,2023-01-20 10:50:13.934294,133962499,0,15.57993,16.12934,7.270259,43.75765,0.698809,0,0.07556967,99
7930,2023-01-20 10:50:14.034304,134062539,0,15.59323,16.13151,7.122981,43.95561,0.7018959,0,0.07556967,99
7960,2023-01-20 10:50:14.134326,134162487,0,15.61893,16.13872,6.875247,44.14651,0.7048775,0,0.07560431,99
7995,2023-01-20 10:50:14.234379,134262489,0,15.5436,16.1187,7.587801,44.35728,0.7081536,0,0.07579279,99
8025,2023-01-20 10:50:14.334391,134362494,0,15.48954,16.1098,8.154778,44.58385,0.7116631,0,0.07606135,99
8058,2023-01-20 10:50:14.434420,134462518,0,15.48333,16.11235,8.24672,44.813,0.7152111,0,0.07627495,99
8088,2023-01-20 10:50:14.534399,134562497,0,15.48245,16.11277,8.243599,45.04196,0.718756,0,0.07646271,99
8125,2023-01-20 10:50:14.634409,134662507,0,15.4851,16.11151,8.172656,45.26902,0.722272,0,0.07664601,99
8157,2023-01-20 10:50:14.734412,134762510,0,15.46561,16.10981,8.384634,45.50195,0.7258744,0,0.0768308,99
8191,2023-01-20 10:50:14.834377,134862504,0,15.47092,16.11055,8.308016,45.73273,0.7294449,0,0.07698952,99
8221,2023-01-20 10:50:14.934270,134962481,0,15.50017,16.11626,7.99388,45.95475,0.7328861,0,0.07706992,99
8254,2023-01-20 10:50:15.034293,135062537,0,15.50115,16.11528,7.959827,46.176,0.7363157,0,0.07715344,99
8284,2023-01-20 10:50:15.134301,135162480,0,15.51612,16.11905,7.817657,46.39305,0.7396835,0,0.07712436,99
8319,2023-01-20 10:50:15.234364,135262493,0,15.52764,16.11812,7.659311,46.60585,0.7429879,0,0.07709313,99
8349,2023-01-20 10:50:15.334382,135362491,0,15.50194,16.11334,7.922369,46.82594,0.7463996,0,0.07717399,99
8382,2023-01-20 10:50:15.434397,135462494,0,15.50815,16.1165,7.878952,47.04482,0.749794,0,0.07721244,99
8412,2023-01-20 10:50:15.534405,135562505,0,15.53857,16.11682,7.491602,47.25296,0.7530282,0,0.07718565,99
8448,2023-01-20 10:50:15.634402,135662503,0,15.52942,16.11797,7.62611,47.46481,0.7563181,0,0.07717581,99
8480,2023-01-20 10:50:15.734391,135762490,0,15.56487,16.12422,7.243017,47.66599,0.7594495,0,0.07722721,99
8514,2023-01-20 10:50:15.834395,135862503,0,15.56752,16.12167,7.17406,47.86531,0.7625524,0,0.07724278,99
8544,2023-01-20 10:50:15.934368,135962507,0,15.53828,16.11598,7.483088,48.0732,0.7657827,0,0.07720128,99
8577,2023-01-20 10:50:16.034381,136062529,0,15.55334,16.11897,7.327013,48.27679,0.7689492,0,0.07719726,99
8607,2023-01-20 10:50:16.134380,136162497,0,15.55778,16.12055,7.288988,48.47921,0.7720984,0,0.07720906,99
8642,2023-01-20 10:50:16.234372,136262488,0,15.5436,16.11619,7.41924,48.6853,0.7753018,0,0.07717711,99
8672,2023-01-20 10:50:16.334320,136362490,0,15.53828,16.11694,7.495858,48.89354,0.7785375,0,0.07719768,99
8705,2023-01-20 10:50:16.434350,136462536,0,15.51967,16.11118,7.654203,49.10627,0.781839,0,0.0772795,99
8735,2023-01-20 10:50:16.534356,136562484,0,15.51888,16.11314,7.684567,49.31964,0.7851502,0,0.07733179,99
8771,2023-01-20 10:50:16.634409,136662500,0,15.50726,16.10916,7.774239,49.53564,0.7884998,0,0.07742273,99
8803,2023-01-20 10:50:16.734410,136762503,0,15.50637,16.1093,7.779347,49.75176,0.791851,0,0.07750331,99
8837,2023-01-20 10:50:16.834412,136862515,0,15.50637,16.10927,7.771685,49.96768,0.7951992,0,0.07757634,99
8867,2023-01-20 10:50:16.934364,136962491,0,15.51346,16.10952,7.677189,50.1809,0.798507,0,0.07763955,99
8900,2023-01-20 10:50:17.034390,137062522,0,15.4984,16.10628,7.820211,50.39822,0.801875,0,0.07773232,99
8930,2023-01-20 10:50:17.134446,137162550,0,15.51888,16.11355,7.650514,50.61081,0.8051742,0,0.07772896,99
8965,2023-01-20 10:50:17.234396,137262484,0,15.54094,16.11194,7.347729,50.81479,0.8083443,0,0.0777112,99
8995,2023-01-20 10:50:17.334394,137362490,0,15.4851,16.10305,7.940246,51.03537,0.8117601,0,0.07782507,99
9028,2023-01-20 10:50:17.434400,137462498,0,15.48422,16.105,7.96834,51.25676,0.8151881,0,0.07790648,99
9058,2023-01-20 10:50:17.534434,137562521,0,15.51258,16.1091,7.659311,51.46959,0.8184895,0,0.07788222,99
9094,2023-01-20 10:50:17.634423,137662503,0,15.51297,16.10459,7.602273,51.68074,0.8217651,0,0.07782102,99
9126,2023-01-20 10:50:17.734430,137762511,0,15.51524,16.10757,7.61334,51.89226,0.8250468,0,0.07780171,99
9160,2023-01-20 10:50:17.831374,137862524,0,15.52676,16.10958,7.49075,52.10035,0.8282779,0,0.07780572,99
9190,2023-01-20 10:50:17.922448,137962504,0,15.53917,16.11013,7.337513,52.30417,0.8314451,0,0.07781396,99
9223,2023-01-20 10:50:18.016463,138062497,0,15.54271,16.11036,7.294096,52.50679,0.8345943,0,0.07782248,99
9254,2023-01-20 10:50:18.127243,138162480,0,15.52676,16.10765,7.466062,52.71416,0.8378141,0,0.07780355,99
9289,2023-01-20 10:50:18.234413,138262545,0,15.55246,16.11158,7.184275,52.91387,0.84092,0,0.07782602,99
9319,2023-01-20 10:50:18.334410,138362502,0,15.55689,16.11071,7.115319,53.11144,0.8439936,0,0.07783519,99
9352,2023-01-20 10:50:18.431377,138462506,0,15.50815,16.10291,7.633772,53.32351,0.8472824,0,0.07791252,99
9382,2023-01-20 10:50:18.522477,138562503,0,15.49308,16.10017,7.781901,53.5397,0.8506318,0,0.0780125,99
9418,2023-01-20 10:50:18.614898,138662500,0,15.49397,16.09906,7.746146,53.75488,0.8539658,0,0.0781148,99
9450,2023-01-20 10:50:18.714850,138762486,0,15.51987,16.10584,7.502952,53.96328,0.8572002,0,0.07809962,99
9484,2023-01-20 10:50:18.814820,138862490,0,15.52233,16.10522,7.46521,54.17068,0.8604195,0,0.07808203,99
9516,2023-01-20 10:50:18.914807,138962513,0,15.50903,16.10227,7.592908,54.38165,0.8636915,0,0.07813031,99
9549,2023-01-20 10:50:19.014780,139062512,0,15.51701,16.10147,7.480534,54.58946,0.8669161,0,0.07813031,99
9579,2023-01-20 10:50:19.114803,139162499,0,15.54448,16.10839,7.214923,54.78986,0.8700313,0,0.07815805,99
9614,2023-01-20 10:50:19.214817,139262487,0,15.54054,16.10706,7.247557,54.99117,0.8731598,0,0.07816704,99
9644,2023-01-20 10:50:19.314823,139362518,0,15.51346,16.1025,7.531613,55.20047,0.8764066,0,0.07820893,99
9677,2023-01-20 10:50:19.414777,139462502,0,15.50637,16.1001,7.585247,55.41114,0.8796734,0,0.07827312,99
9707,2023-01-20 10:50:19.514696,139562474,0,15.51524,16.10259,7.500967,55.61947,0.8829057,0,0.07830363,99
9743,2023-01-20 10:50:19.614665,139662488,0,15.51612,16.10168,7.47798,55.82724,0.8861294,0,0.07830363,99
9775,2023-01-20 10:50:19.714663,139762489,0,15.4982,16.09926,7.670379,56.04032,0.8894319,0,0.07836144,99
9809,2023-01-20 10:50:19.814657,139862488,0,15.45675,16.08982,8.062837,56.26431,0.892894,0,0.07851789,99
9839,2023-01-20 10:50:19.914681,139962529,0,15.45143,16.09207,8.147117,56.49073,0.8963925,0,0.07863439,99
9872,2023-01-20 10:50:20.014638,140062499,0,15.46295,16.09254,7.996433,56.7128,0.8998264,0,0.07873426,99
9902,2023-01-20 10:50:20.114645,140162495,0,15.48688,16.09536,7.728268,56.92748,0.9031512,0,0.07873426,99
9937,2023-01-20 10:50:20.214684,140262516,0,15.48067,16.0937,7.779347,57.14364,0.9064974,0,0.07880175,99
9970,2023-01-20 10:50:20.314734,140362503,0,15.47654,16.09478,7.840642,57.36142,0.909868,0,0.07885095,99
10003,2023-01-20 10:50:20.414816,140462531,0,15.47004,16.09134,7.87129,57.58015,0.9132517,0,0.07893324,99
10033,2023-01-20 10:50:20.514765,140562484,0,15.45497,16.08898,8.021974,57.80289,0.9166942,0,0.07903387,99
10069,2023-01-20 10:50:20.614763,140662481,0,15.45586,16.09176,8.03985,58.02623,0.9201462,0,0.07909427,99
10101,2023-01-20 10:50:20.714803,140762482,0,15.45586,16.0892,7.998988,58.24845,0.9235807,0,0.07917721,99
10135,2023-01-20 10:50:20.814821,140862486,0,15.46078,16.09122,7.956989,58.4695,0.9269984,0,0.07923004,99
10165,2023-01-20 10:50:20.914681,140962465,0,15.4594,16.08926,7.9428,58.69011,0.9304088,0,0.07929938,99
10198,2023-01-20 10:50:21.014635,141062512,0,15.47358,16.09231,7.804887,58.90702,0.9337653,0,0.07927445,99
10228,2023-01-20 10:50:21.114642,141162463,0,15.47536,16.0921,7.781901,59.12311,0.9371092,0,0.07925319,99
10263,2023-01-20 10:50:21.214694,141262471,0,15.47801,16.09177,7.746146,59.33831,0.9404401,0,0.07923371,99
10293,2023-01-20 10:50:21.314665,141362467,0,15.46866,16.08765,7.812264,59.55532,0.9437971,0,0.07923371,99
10326,2023-01-20 10:50:21.414654,141462472,0,15.47092,16.09176,7.835534,59.77301,0.9471648,0,0.07923371,99
10356,2023-01-20 10:50:21.514682,141562464,0,15.48245,16.08844,7.651649,59.98556,0.9504555,0,0.0791973,99
10392,2023-01-20 10:50:21.614701,141662461,0,15.48067,16.08869,7.679743,60.19889,0.9537581,0,0.0791716,98
10424,2023-01-20 10:50:21.714698,141762520,0,15.46206,16.08681,7.886613,60.41808,0.9571472,0,0.07921561,98
10458,2023-01-20 10:50:21.814613,141862489,0,15.45487,16.08582,7.959827,60.63916,0.9605641,0,0.07926631,98
10488,2023-01-20 10:50:21.914583,141962473,0,15.43991,16.08196,8.090929,60.8639,0.9640339,0,0.07935483,98
10521,2023-01-20 10:50:22.014591,142062485,0,15.44079,16.08337,8.090929,61.08869,0.9675049,0,0.07941945,98
10551,2023-01-20 10:50:22.114642,142162485,0,15.43902,16.07957,8.055174,61.31246,0.9709597,0,0.07951989,98
10586,2023-01-20 10:50:22.214656,142262461,0,15.42395,16.07612,8.18798,61.53987,0.9744672,0,0.07964908,98
10615,2023-01-20 10:50:22.314633,142362473,0,15.39973,16.07401,8.450754,61.77466,0.9780828,0,0.07978983,98
10648,2023-01-20 10:50:22.414655,142462518,0,15.41066,16.07886,8.366756,62.00719,0.9816663,0,0.07986375,98
10678,2023-01-20 10:50:22.514662,142562479,0,15.43902,16.07882,8.016865,62.22982,0.9851034,0,0.07980654,98
10714,2023-01-20 10:50:22.614708,142662488,0,15.4275,16.07724,8.134347,62.45581,0.9885899,0,0.07987589,98
10746,2023-01-20 10:50:22.714681,142762478,0,15.41066,16.07762,8.343771,62.68758,0.9921616,0,0.07993477,98
10779,2023-01-20 10:50:22.814680,142862496,0,15.39028,16.07303,8.53021,62.92459,0.9958093,0,0.08003922,98
10810,2023-01-20 10:50:22.914640,142962487,0,15.35148,16.06536,8.899115,63.17178,0.999604,0,0.08021979,98
10843,2023-01-20 10:50:23.014647,143062514,0,15.3309,16.0634,9.109958,63.42493,1.003485,0,0.08040634,98
10873,2023-01-20 10:50:23.114644,143162459,0,15.32027,16.06244,9.209562,63.68063,1.007402,0,0.08058714,98
10910,2023-01-20 10:50:23.214700,143262476,0,15.33888,16.06592,9.0078,63.93091,1.011241,0,0.08071283,98
10940,2023-01-20 10:50:23.314677,143362482,0,15.33001,16.062,9.051217,64.18237,1.015096,0,0.08087139,98
10973,2023-01-20 10:50:23.414664,143462492,0,15.30323,16.06192,9.364502,64.44254,1.019078,0,0.08101764,98
11003,2023-01-20 10:50:23.514666,143562479,0,15.29368,16.05841,9.418986,64.70416,1.023079,0,0.08119075,98
11039,2023-01-20 10:50:23.614688,143662491,0,15.30431,16.06055,9.298951,64.96251,1.027033,0,0.08132514,98
11071,2023-01-20 10:50:23.714707,143762524,0,15.31406,16.06213,9.186577,65.2178,1.030942,0,0.08143054,98
11104,2023-01-20 10:50:23.814671,143862502,0,15.30165,16.0583,9.275966,65.47543,1.034885,0,0.08157013,98
11138,2023-01-20 10:50:23.914620,143962468,0,15.31012,16.06331,9.225453,65.73162,1.038807,0,0.08164212,98
11171,2023-01-20 10:50:24.014611,144062464,0,15.34508,16.06628,8.836684,65.9771,1.042574,0,0.08161478,98
11201,2023-01-20 10:50:24.114674,144162465,0,15.35128,16.06399,8.737081,66.21983,1.0463,0,0.08157258,98
11236,2023-01-20 10:50:24.214718,144262466,0,15.3566,16.06426,8.678339,66.46091,1.050002,0,0.08154283,98
11266,2023-01-20 10:50:24.314682,144362493,0,15.36989,16.0674,8.553195,66.69859,1.053655,0,0.0815494,98
11299,2023-01-20 10:50:24.414622,144462476,0,15.33573,16.05751,8.850873,66.94442,1.057425,0,0.0815494,98
11329,2023-01-20 10:50:24.514696,144562484,0,15.37167,16.07087,8.56852,67.18247,1.061084,0,0.08160122,98
11367,2023-01-20 10:50:24.614733,144662477,0,15.43902,16.07462,7.781901,67.39864,1.064422,0,0.0816763,98
11399,2023-01-20 10:50:24.714660,144762486,0,15.41686,16.07507,8.052621,67.62236,1.067871,0,0.08173776,98
11433,2023-01-20 10:50:24.814616,144862511,0,15.44257,16.08157,7.807441,67.8393,1.071221,0,0.08184598,98
11464,2023-01-20 10:50:24.914582,144962476,0,15.51878,16.08927,6.956974,68.0325,1.074219,0,0.0820024,98
11497,2023-01-20 10:50:25.014613,145062503,0,15.57107,16.10202,6.455831,68.21189,1.077012,0,0.08224414,98
11527,2023-01-20 10:50:25.114647,145162508,0,15.65969,16.11779,5.547191,68.366,1.079426,0,0.08258273,98
11563,2023-01-20 10:50:25.214660,145262497,0,15.69603,16.1206,5.123234,68.50831,1.081659,0,0.08287159,98
11593,2023-01-20 10:50:25.314675,145362518,0,15.66324,16.11765,5.470572,68.66032,1.08404,0,0.08306593,98
11626,2023-01-20 10:50:25.414698,145462544,0,15.70666,16.13268,5.110465,68.80232,1.086271,0,0.08336203,98
11656,2023-01-20 10:50:25.514665,145562498,0,15.72173,16.13432,4.934809,68.93935,1.088425,0,0.08360874,98
11692,2023-01-20 10:50:25.614672,145662495,0,15.7625,16.14321,4.538378,69.06542,1.090412,0,0.08388815,98
11724,2023-01-20 10:50:25.714639,145762474,0,15.71818,16.13719,4.98532,69.20389,1.092588,0,0.08404785,98
11757,2023-01-20 10:50:25.814653,145862503,0,15.55246,16.11729,6.714348,69.39046,1.09549,0,0.08412273,98
11789,2023-01-20 10:50:25.914609,145962483,0,15.46915,16.11226,7.633772,69.60249,1.09877,0,0.08424493,98
11822,2023-01-20 10:50:26.014615,146062503,0,15.50194,16.11705,7.29665,69.80523,1.101913,0,0.08430061,98
11852,2023-01-20 10:50:26.114640,146162491,0,15.55531,16.12267,6.73109,69.9922,1.104821,0,0.08428887,98
11887,2023-01-20 10:50:26.214682,146262506,0,15.5046,16.1082,7.14852,70.19081,1.107901,0,0.08443633,98
11917,2023-01-20 10:50:26.314651,146362511,0,15.33001,16.09468,9.025678,70.44156,1.111745,0,0.08472128,98
11950,2023-01-20 10:50:26.414615,146462502,0,15.31583,16.09612,9.184023,70.69667,1.115652,0,0.08496062,98
11980,2023-01-20 10:50:26.514635,146562492,0,15.30254,16.09355,9.283627,70.95454,1.119598,0,0.08520456,98
12016,2023-01-20 10:50:26.614650,146662482,0,15.23332,16.08381,9.943399,71.23074,1.123805,0,0.08553335,98
12048,2023-01-20 10:50:26.714654,146762491,0,15.16074,16.07987,10.70618,71.52818,1.128315,0,0.0858505,98
12081,2023-01-20 10:50:26.814658,146862503,0,15.12352,16.07696,11.06629,71.83564,1.132965,0,0.08615686,98
12112,2023-01-20 10:50:26.914612,146962481,0,15.14479,16.08019,10.82622,72.13633,1.137519,0,0.08640093,98
12145,2023-01-20 10:50:27.014629,147062518,0,15.14656,16.07976,10.77258,72.4357,1.142053,0,0.0866267,98
12175,2023-01-20 10:50:27.114634,147162513,0,15.16045,16.0809,10.60175,72.7302,1.146518,0,0.08682051,98
12210,2023-01-20 10:50:27.214633,147262502,0,15.19353,16.08397,10.23881,73.0146,1.150839,0,0.08696618,98
12240,2023-01-20 10:50:27.314660,147362514,0,15.17847,16.08243,10.37672,73.3029,1.155215,0,0.08711472,98
12273,2023-01-20 10:50:27.413332,147462488,0,15.14391,16.07765,10.69596,73.59996,1.159713,0,0.08729884,98
12303,2023-01-20 10:50:27.504354,147562479,0,15.15365,16.08143,10.61168,73.89473,1.16418,0,0.08742954,98
12336,2023-01-20 10:50:27.595388,147662485,0,15.18408,16.07942,10.22433,74.17878,1.168493,0,0.08756894,98
12371,2023-01-20 10:50:27.694948,147762506,0,15.21126,16.08075,9.939993,74.45497,1.172694,0,0.08747347,98
12402,2023-01-20 10:50:27.794945,147862511,0,15.19885,16.07817,10.05237,74.73424,1.176939,0,0.08747347,98
12436,2023-01-20 10:50:27.894913,147962540,0,15.20506,16.07507,9.95787,75.01095,1.181146,0,0.08736923,98
12467,2023-01-20 10:50:27.994818,148062509,0,15.20771,16.07467,9.932331,75.28677,1.185341,0,0.08728632,98
12499,2023-01-20 10:50:28.094836,148162506,0,15.22012,16.07391,9.78931,75.55872,1.18948,0,0.08721662,98
12532,2023-01-20 10:50:28.194858,148262503,0,15.24809,16.07344,9.469498,75.82177,1.193491,0,0.08715932,98
12565,2023-01-20 10:50:28.294885,148362505,0,15.27241,16.07626,9.224887,76.07804,1.197405,0,0.08713894,98
12596,2023-01-20 10:50:28.394934,148462529,0,15.25734,16.0752,9.388339,76.33891,1.201385,0,0.0871146,98
12628,2023-01-20 10:50:28.505290,148562481,0,15.24228,16.07532,9.564562,76.60449,1.205433,0,0.08709697,98
12663,2023-01-20 10:50:28.613333,148662486,0,15.25646,16.07223,9.370461,76.86481,1.209405,0,0.08705766,98
12696,2023-01-20 10:50:28.704340,148762493,0,15.27861,16.07529,9.151672,77.11906,1.213289,0,0.08705309,98
12727,2023-01-20 10:50:28.795361,148862516,0,15.28393,16.07203,9.056325,77.3707,1.217135,0,0.08702234,98
12762,2023-01-20 10:50:28.894781,148962503,0,15.22455,16.06799,9.684598,77.63971,1.221231,0,0.08709035,98
12793,2023-01-20 10:50:28.994674,149062510,0,15.25114,16.07193,9.426649,77.90159,1.225225,0,0.08707103,98
12825,2023-01-20 10:50:29.094741,149162532,0,15.26532,16.07028,9.247872,78.15856,1.229148,0,0.08704241,98
12859,2023-01-20 10:50:29.194752,149262489,0,15.28058,16.0719,9.09208,78.41103,1.233005,0,0.08703398,98
12891,2023-01-20 10:50:29.294697,149362492,0,15.25557,16.06761,9.334706,78.67036,1.236962,0,0.08699179,98
12922,2023-01-20 10:50:29.394631,149462491,0,15.22721,16.06396,9.610533,78.93734,1.241027,0,0.08706639,98
12954,2023-01-20 10:50:29.494640,149562486,0,15.24316,16.06837,9.475173,79.20055,1.245039,0,0.08709078,98
12987,2023-01-20 10:50:29.594652,149662478,0,15.2733,16.06829,9.130389,79.45417,1.248913,0,0.08707141,98
13022,2023-01-20 10:50:29.694659,149762492,0,15.28846,16.06838,8.958707,79.70308,1.252718,0,0.08705726,98
13053,2023-01-20 10:50:29.794672,149862515,0,15.26798,16.06348,9.14316,79.95714,1.256597,0,0.08700554,98
13086,2023-01-20 10:50:29.894627,149962491,0,15.25912,16.06573,9.270858,80.21462,1.260526,0,0.08700554,98
13117,2023-01-20 10:50:29.994631,150062518,0,15.26798,16.06385,9.150821,80.4689,1.264408,0,0.0869723,98
13149,2023-01-20 10:50:30.094644,150162500,0,15.30786,16.06853,8.744741,80.71178,1.268126,0,0.08698586,98
13182,2023-01-20 10:50:30.194686,150262508,0,15.31318,16.06765,8.673232,80.95274,1.271816,0,0.08698895,98
13214,2023-01-20 10:50:30.294722,150362541,0,15.31209,16.068,8.689123,81.19421,1.275513,0,0.08699422,98
13245,2023-01-20 10:50:30.394662,150462480,0,15.32381,16.06696,8.54298,81.43139,1.279148,0,0.08698957,98
13277,2023-01-20 10:50:30.494652,150562475,0,15.3114,16.06816,8.698771,81.67303,1.282848,0,0.08699606,98
13311,2023-01-20 10:50:30.594667,150662496,0,15.33445,16.06862,8.438268,81.90749,1.286443,0,0.08700489,98
13346,2023-01-20 10:50:30.694660,150762491,0,15.34774,16.0684,8.282476,82.13757,1.289974,0,0.08700985,98
13377,2023-01-20 10:50:30.794708,150862541,0,15.34163,16.06832,8.351433,82.36969,1.293535,0,0.08701301,98
13410,2023-01-20 10:50:30.894634,150962499,0,15.33001,16.06588,8.4587,82.60457,1.297136,0,0.08699498,98
13441,2023-01-20 10:50:30.994627,151062525,0,15.33622,16.07195,8.453591,82.83947,1.300738,0,0.08703201,98
13473,2023-01-20 10:50:31.094663,151162480,0,15.34242,16.06764,8.333555,83.07087,1.304289,0,0.08702447,98
13506,2023-01-20 10:50:31.194772,151262500,0,15.34242,16.06711,8.328447,83.30228,1.307839,0,0.08701418,98
13538,2023-01-20 10:50:31.294787,151362558,0,15.31899,16.06586,8.581288,83.5408,1.311493,0,0.0870357,98
13569,2023-01-20 10:50:31.394667,151462488,0,15.30609,16.06663,8.737081,83.78335,1.315206,0,0.08704768,98
13601,2023-01-20 10:50:31.494641,151562483,0,15.32115,16.06591,8.55575,84.02101,1.318847,0,0.08704768,98
13634,2023-01-20 10:50:31.594624,151662486,0,15.31761,16.06829,8.624707,84.26061,1.322517,0,0.08703919,98
13669,2023-01-20 10:50:31.694629,151762480,0,15.37787,16.07266,7.978555,84.48225,1.325925,0,0.0870826,98
13700,2023-01-20 10:50:31.794724,151862562,0,15.46472,16.08014,7.059132,84.67851,1.32896,0,0.0871799,98
13734,2023-01-20 10:50:31.894640,151962499,0,15.56024,16.09171,6.084089,84.84742,1.331589,0,0.08735493,98
13765,2023-01-20 10:50:31.994622,152062504,0,15.61981,16.09572,5.43737,84.99848,1.333948,0,0.08752577,98
13797,2023-01-20 10:50:32.094646,152162503,0,15.66146,16.10117,5.013414,85.13775,1.336129,0,0.08770607,98
13830,2023-01-20 10:50:32.194670,152262500,0,15.61538,16.09757,5.491004,85.29028,1.338511,0,0.08781505,98
13862,2023-01-20 10:50:32.294679,152362502,0,15.58348,16.10111,5.886866,85.45383,1.34106,0,0.08793041,98
13893,2023-01-20 10:50:32.394664,152462480,0,15.5819,16.10514,5.942202,85.61887,1.343632,0,0.08805547,98
13925,2023-01-20 10:50:32.494682,152562522,0,15.56664,16.10114,6.065643,85.78744,1.346256,0,0.08811931,98
13958,2023-01-20 10:50:32.594615,152662480,0,15.54005,16.10263,6.37978,85.96459,1.349009,0,0.08818218,98
13993,2023-01-20 10:50:32.694629,152762482,0,15.51612,16.10097,6.635175,86.14892,1.351869,0,0.08814253,98
14024,2023-01-20 10:50:32.794716,152862556,0,15.48954,16.09776,6.900787,86.34075,1.35484,0,0.08813825,98
14057,2023-01-20 10:50:32.894632,152962491,0,15.46078,16.09569,7.202153,86.54071,1.357932,0,0.08815449,98
14088,2023-01-20 10:50:32.994639,153062519,0,15.42484,16.0923,7.567369,86.75099,1.361175,0,0.08820182,98
14120,2023-01-20 10:50:33.094650,153162504,0,15.39116,16.0925,7.947909,86.97175,1.364573,0,0.08824196,98
14153,2023-01-20 10:50:33.194664,153262491,0,15.37876,16.09109,8.067945,87.19585,1.368019,0,0.08829146,98
14185,2023-01-20 10:50:33.294696,153362517,0,15.38319,16.09134,8.016865,87.41861,1.371446,0,0.08833302,98
14217,2023-01-20 10:50:33.394680,153462497,0,15.39185,16.09242,7.928612,87.63882,1.374836,0,0.08835953,98
14249,2023-01-20 10:50:33.494656,153562477,0,15.4018,16.09273,7.817657,87.85596,1.37818,0,0.08838024,98
14284,2023-01-20 10:50:33.594661,153662487,0,15.41686,16.09196,7.636326,88.06812,1.381451,0,0.08840612,98
14319,2023-01-20 10:50:33.694649,153762481,0,15.42395,16.09032,7.534168,88.2774,1.384679,0,0.08844519,98
14350,2023-01-20 10:50:33.794713,153862552,0,15.42307,16.09142,7.554599,88.48742,1.387918,0,0.08846943,98
14384,2023-01-20 10:50:33.894646,153962510,0,15.43636,16.09412,7.434564,88.69386,1.391105,0,0.0884734,98
14415,2023-01-20 10:50:33.994612,154062503,0,15.43321,16.09215,7.449035,88.90078,1.394298,0,0.0884598,98
14447,2023-01-20 10:50:34.094619,154162498,0,15.43282,16.09245,7.457549,89.10794,1.397495,0,0.08845171,98
14480,2023-01-20 10:50:34.194642,154262507,0,15.43902,16.09106,7.373269,89.31279,1.400658,0,0.08843365,98
14512,2023-01-20 10:50:34.294667,154362508,0,15.43016,16.09134,7.475427,89.52045,1.403862,0,0.08844712,98
14543,2023-01-20 10:50:34.394699,154462516,0,15.41421,16.08793,7.61334,89.73198,1.407122,0,0.08849227,98
14575,2023-01-20 10:50:34.494709,154562490,0,15.40859,16.08979,7.695919,89.94572,1.410416,0,0.08851456,98
14609,2023-01-20 10:50:34.594751,154662496,0,15.38142,16.08458,7.937692,90.16624,1.413808,0,0.08858529,98
14644,2023-01-20 10:50:34.694701,154762491,0,15.37433,16.08645,8.034743,90.38943,1.417239,0,0.0886304,98
14675,2023-01-20 10:50:34.794665,154862503,0,15.39382,16.08719,7.820211,90.6067,1.420584,0,0.08866348,98
14711,2023-01-20 10:50:34.894628,154962500,0,15.3761,16.0842,7.98111,90.82841,1.423993,0,0.08872227,98
14742,2023-01-20 10:50:34.994633,155062538,0,15.37216,16.08526,8.033607,91.05166,1.427425,0,0.08876464,98
14774,2023-01-20 10:50:35.094656,155162482,0,15.37964,16.08606,7.95557,91.27254,1.430822,0,0.08879483,98
14807,2023-01-20 10:50:35.194736,155262477,0,15.37167,16.08475,8.027081,91.49553,1.43425,0,0.08883465,98
14839,2023-01-20 10:50:35.294750,155362488,0,15.37078,16.08546,8.042404,91.71897,1.437684,0,0.08886349,98
14870,2023-01-20 10:50:35.394765,155462506,0,15.35128,16.0821,8.218627,91.94733,1.44119,0,0.08892216,98
14902,2023-01-20 10:50:35.494759,155562499,0,15.36625,16.0872,8.107388,92.17253,1.44465,0,0.08892503,98
14935,2023-01-20 10:50:35.594777,155662516,0,15.38496,16.08522,7.876398,92.39137,1.448017,0,0.08890608,98
14970,2023-01-20 10:50:35.694705,155762464,0,15.39737,16.08671,7.753808,92.60666,1.451332,0,0.08890393,98
15001,2023-01-20 10:50:35.794718,155862497,0,15.3956,16.08529,7.758915,92.82227,1.454651,0,0.08889022,98
15034,2023-01-20 10:50:35.894644,155962463,0,15.39648,16.0842,7.738484,93.03718,1.45796,0,0.08887041,98
15065,2023-01-20 10:50:35.994698,156062558,0,15.39914,16.08571,7.725714,93.252,1.461268,0,0.08886769,98
15097,2023-01-20 10:50:36.094671,156162478,0,15.38299,16.08466,7.894559,93.47114,1.464639,0,0.08888029,98
15130,2023-01-20 10:50:36.194829,156262578,0,15.39294,16.08354,7.771685,93.68725,1.467966,0,0.08886097,98
15162,2023-01-20 10:50:36.294702,156362494,0,15.40357,16.08338,7.651649,93.89964,1.471237,0,0.08884459,98
15193,2023-01-20 10:50:36.394665,156462505,0,15.35837,16.07819,8.096038,94.12457,1.474692,0,0.08890988,98
15225,2023-01-20 10:50:36.494679,156562469,0,15.36103,16.08215,8.108808,94.34975,1.478151,0,0.08892985,98
15258,2023-01-20 10:50:36.594784,156662517,0,15.36034,16.07708,8.053472,94.57358,1.481589,0,0.08899718,98
15293,2023-01-20 10:50:36.694717,156762443,0,15.33976,16.07841,8.295246,94.80385,1.485121,0,0.08904473,98
15324,2023-01-20 10:50:36.794853,156862575,0,15.30254,16.07484,8.665569,95.0449,1.48881,0,0.08912261,98
15357,2023-01-20 10:50:36.894654,156962464,0,15.26355,16.07473,9.094634,95.29726,1.492662,0,0.08919393,98
15388,2023-01-20 10:50:36.994634,157062537,0,15.25203,16.07265,9.191684,95.55279,1.496559,0,0.08927873,98
15420,2023-01-20 10:50:37.094648,157162480,0,15.26581,16.07219,9.023974,95.80334,1.500384,0,0.08935952,98
15453,2023-01-20 10:50:37.194773,157262525,0,15.29368,16.07504,8.739635,96.04623,1.504099,0,0.08940428,98
15485,2023-01-20 10:50:37.294737,157362483,0,15.32204,16.07625,8.438268,96.28055,1.507689,0,0.08937985,98
15516,2023-01-20 10:50:37.394776,157462519,0,15.35394,16.07603,8.080714,96.5051,1.511137,0,0.08935904,98
15548,2023-01-20 10:50:37.494773,157562501,0,15.35394,16.07491,8.070498,96.72927,1.514579,0,0.0893335,98
15581,2023-01-20 10:50:37.594799,157662512,0,15.34951,16.07352,8.107388,96.95451,1.518036,0,0.08930204,98
15616,2023-01-20 10:50:37.694738,157762464,0,15.33356,16.06733,8.223736,97.18286,1.521538,0,0.08922561,98
15647,2023-01-20 10:50:37.794796,157862537,0,15.28216,16.06693,8.78816,97.42718,1.525271,0,0.08929863,98
15681,2023-01-20 10:50:37.894690,157962473,0,15.29191,16.07118,8.724311,97.66939,1.528975,0,0.08932266,98
15712,2023-01-20 10:50:37.994697,158062523,0,15.26089,16.06446,8.987369,97.91918,1.532787,0,0.08941058,98
15744,2023-01-20 10:50:38.086144,158162484,0,15.23519,16.06774,9.306613,98.17762,1.536725,0,0.08945782,98
15777,2023-01-20 10:50:38.177152,158262484,0,15.1762,16.0605,9.872456,98.45187,1.540887,0,0.0895725,98
15809,2023-01-20 10:50:38.274922,158362509,0,15.11732,16.05819,10.48909,98.74333,1.545293,0,0.08970003,98
15840,2023-01-20 10:50:38.374902,158462487,0,15.18467,16.06632,9.825066,99.01621,1.549436,0,0.08973435,98
15873,2023-01-20 10:50:38.474859,158562467,0,15.17492,16.05813,9.830173,99.28924,1.55358,0,0.08984675,98
15907,2023-01-20 10:50:38.574825,158662465,0,15.15188,16.05919,10.08812,99.56948,1.557826,0,0.08993872,98
15942,2023-01-20 10:50:38.674802,158762454,0,15.1959,16.0633,9.639762,99.83724,1.561895,0,0.0899815,98
15973,2023-01-20 10:50:38.774861,158862518,0,15.2024,16.05919,9.513483,100.1017,1.565915,0,0.09006105,98
16008,2023-01-20 10:50:38.883028,158962470,0,15.15011,16.05205,9.998734,100.3793,1.570121,0,0.09020492,98
16039,2023-01-20 10:50:38.994076,159062529,0,15.11909,16.05565,10.37161,100.6676,1.57448,0,0.09030063,98
16071,2023-01-20 10:50:39.086101,159162482,0,15.13239,16.05702,10.23114,100.9517,1.578779,0,0.09037431,98
16105,2023-01-20 10:50:39.177105,159262484,0,15.20181,16.05485,9.446796,101.2141,1.582768,0,0.09029997,98
16137,2023-01-20 10:50:39.274812,159362481,0,15.17404,16.05179,9.720353,101.4842,1.586866,0,0.09029997,98
16168,2023-01-20 10:50:39.374793,159462498,0,15.16252,16.05232,9.845497,101.7577,1.591014,0,0.09037653,98
16200,2023-01-20 10:50:39.474774,159562500,0,15.16163,16.05214,9.845497,102.0312,1.59516,0,0.09044826,98
16233,2023-01-20 10:50:39.574722,159662464,0,15.20683,16.05575,9.388339,102.2919,1.599125,0,0.09042329,98
16268,2023-01-20 10:50:39.674678,159762467,0,15.27271,16.06009,8.706149,102.5338,1.602819,0,0.09044042,98
16299,2023-01-20 10:50:39.774649,159862496,0,15.27861,16.05416,8.578735,102.7722,1.606461,0,0.09040382,98
16333,2023-01-20 10:50:39.874613,159962471,0,15.25114,16.05564,8.900533,103.0194,1.610231,0,0.09038821,98
16364,2023-01-20 10:50:39.974639,160062492,0,15.22455,16.05073,9.145713,103.2735,1.6141,0,0.09033526,98
16396,2023-01-20 10:50:40.074717,160162528,0,15.15986,16.04961,9.842942,103.547,1.618247,0,0.09039477,98
16430,2023-01-20 10:50:40.174707,160262463,0,15.17581,16.05074,9.674381,103.8156,1.622323,0,0.09043767,98
16462,2023-01-20 10:50:40.274704,160362484,0,15.22347,16.04972,9.140322,104.0696,1.626189,0,0.09039625,98
16493,2023-01-20 10:50:40.374650,160462482,0,15.25823,16.05407,8.803483,104.3142,1.629921,0,0.09040076,98
16525,2023-01-20 10:50:40.474625,160562460,0,15.28127,16.05157,8.522549,104.5509,1.633538,0,0.09038322,98
16559,2023-01-20 10:50:40.574642,160662464,0,15.26798,16.05354,8.69111,104.7923,1.637224,0,0.09038625,98
16594,2023-01-20 10:50:40.674683,160762489,0,15.2857,16.05574,8.51744,105.029,1.640842,0,0.09040707,98
16625,2023-01-20 10:50:40.774750,160862537,0,15.34163,16.05602,7.900235,105.2486,1.644211,0,0.09042551,98
16659,2023-01-20 10:50:40.874675,160962490,0,15.33888,16.05558,7.924922,105.4686,1.647586,0,0.090436,98
16690,2023-01-20 10:50:40.974646,161062504,0,15.32027,16.05426,8.116469,105.6941,1.651041,0,0.09043302,98
16722,2023-01-20 10:50:41.074646,161162471,0,15.33533,16.05653,7.973448,105.9155,1.654436,0,0.09044982,98
16756,2023-01-20 10:50:41.174721,161262488,0,15.33001,16.05688,8.034743,106.1388,1.657859,0,0.09046578,98
16788,2023-01-20 10:50:41.274728,161362475,0,15.31899,16.05276,8.113064,106.3641,1.661311,0,0.0904434,98
16819,2023-01-20 10:50:41.374768,161462508,0,15.26975,16.05296,8.657907,106.6047,1.664985,0,0.09046163,98
16851,2023-01-20 10:50:41.474698,161562468,0,15.30609,16.05787,8.308016,106.8354,1.668516,0,0.09048879,98
16885,2023-01-20 10:50:41.574648,161662460,0,15.35837,16.0586,7.735929,107.0503,1.671816,0,0.09051611,98
16920,2023-01-20 10:50:41.674660,161762454,0,15.36812,16.0556,7.595462,107.2613,1.675059,0,0.09051193,98
16951,2023-01-20 10:50:41.774750,161862504,0,15.33267,16.05698,8.00154,107.4837,1.678469,0,0.09052026,98
16985,2023-01-20 10:50:41.874692,161962475,0,15.3436,16.05754,7.886045,107.7027,1.681829,0,0.09053148,98
17016,2023-01-20 10:50:41.974658,162062493,0,15.36015,16.05731,7.700175,107.9167,1.685116,0,0.09053824,98
17048,2023-01-20 10:50:42.074709,162162520,0,15.39294,16.06223,7.388592,108.122,1.688276,0,0.09058524,98
17082,2023-01-20 10:50:42.174701,162262463,0,15.37876,16.05332,7.449887,108.3288,1.691457,0,0.09054622,98
17114,2023-01-20 10:50:42.274698,162362484,0,15.31229,16.06141,8.277369,108.5588,1.694979,0,0.09050217,98
17145,2023-01-20 10:50:42.374640,162462475,0,15.35936,16.06042,7.74416,108.7739,1.698283,0,0.09052799,98
17177,2023-01-20 10:50:42.474625,162562461,0,15.35926,16.05721,7.71039,108.9881,1.701572,0,0.09052096,98
17211,2023-01-20 10:50:42.574647,162662469,0,15.30697,16.05658,8.279922,109.2181,1.705093,0,0.09053344,98
17246,2023-01-20 10:50:42.674694,162762514,0,15.25646,16.05444,8.811145,109.463,1.708829,0,0.0905657,98
17277,2023-01-20 10:50:42.774650,162862472,0,15.25734,16.05464,8.80093,109.7074,1.712558,0,0.09059273,98
17311,2023-01-20 10:50:42.874627,162962478,0,15.32292,16.05355,8.06766,109.9315,1.715992,0,0.09056269,98
17342,2023-01-20 10:50:42.974597,163062486,0,15.33533,16.05379,7.935139,110.152,1.719373,0,0.09054135,98
17374,2023-01-20 10:50:43.074635,163162475,0,15.26798,16.05175,8.6528,110.3923,1.723043,0,0.09058056,98
17408,2023-01-20 10:50:43.174717,163262479,0,15.26355,16.05478,8.734527,110.635,1.726747,0,0.09058624,98
17440,2023-01-20 10:50:43.274753,163362495,0,15.29368,16.05273,8.376973,110.8677,1.730306,0,0.09061136,98
17471,2023-01-20 10:50:43.374786,163462527,0,15.27074,16.05238,8.623855,111.1074,1.733966,0,0.09063745,98
17503,2023-01-20 10:50:43.474688,163562462,0,15.19353,16.04746,9.413878,111.3687,1.737936,0,0.0907097,98
17538,2023-01-20 10:50:43.574650,163662468,0,15.13948,16.04672,9.993626,111.6464,1.74214,0,0.09078263,98
17573,2023-01-20 10:50:43.674628,163762454,0,15.09428,16.03938,10.3946,111.9351,1.746498,0,0.09092212,98
17604,2023-01-20 10:50:43.774656,163862479,0,15.10048,16.04892,10.4278,112.2248,1.750873,0,0.09095333,98
17640,2023-01-20 10:50:43.874652,163962487,0,15.17492,16.0446,9.554346,112.4903,1.754901,0,0.09102421,98
17671,2023-01-20 10:50:43.974665,164062518,0,15.16931,16.041,9.565981,112.7561,1.758934,0,0.09112427,98
17703,2023-01-20 10:50:44.074667,164162483,0,15.20328,16.04513,9.242764,113.0128,1.762836,0,0.09108188,98
17737,2023-01-20 10:50:44.174718,164262479,0,15.2857,16.04667,8.356542,113.2449,1.766384,0,0.09106196,98
17769,2023-01-20 10:50:44.274733,164362480,0,15.37344,16.05033,7.432009,113.4514,1.769558,0,0.09107755,98
17800,2023-01-20 10:50:44.374754,164462502,0,15.36192,16.04632,7.51629,113.6602,1.772767,0,0.09105559,98
17832,2023-01-20 10:50:44.474721,164562469,0,15.31012,16.04336,8.05631,113.884,1.776192,0,0.09101381,98
17867,2023-01-20 10:50:44.574694,164662443,0,15.28659,16.0479,8.364203,114.1163,1.779743,0,0.09101973,98
17902,2023-01-20 10:50:44.674750,164762511,0,15.34597,16.05053,7.738484,114.3314,1.783044,0,0.09104657,98
17933,2023-01-20 10:50:44.774697,164862475,0,15.37078,16.05311,7.49075,114.5394,1.786242,0,0.09108919,98
17967,2023-01-20 10:50:44.874633,164962458,0,15.37787,16.0453,7.329851,114.743,1.789373,0,0.09105603,98
17998,2023-01-20 10:50:44.974580,165062461,0,15.2924,16.04773,8.294679,114.9734,1.792896,0,0.09106193,98
18030,2023-01-20 10:50:45.074655,165162485,0,15.32913,16.05271,7.9428,115.1941,1.79628,0,0.09109937,98
18064,2023-01-20 10:50:45.174738,165262480,0,15.35926,16.04984,7.580138,115.4047,1.799514,0,0.09110426,98
18096,2023-01-20 10:50:45.274808,165362539,0,15.37167,16.05443,7.49075,115.6129,1.802714,0,0.09114684,98
18127,2023-01-20 10:50:45.374745,165462491,0,15.41155,16.05079,7.013161,115.8076,1.805715,0,0.09114915,98
18159,2023-01-20 10:50:45.474690,165562474,0,15.22642,16.04005,8.916142,116.0553,1.809486,0,0.09125268,98
18193,2023-01-20 10:50:45.574619,165662448,0,15.20683,16.05211,9.265749,116.3126,1.813399,0,0.09122685,98
18228,2023-01-20 10:50:45.674658,165762464,0,15.23873,16.04591,8.844346,116.5584,1.817144,0,0.09126467,98
18259,2023-01-20 10:50:45.774711,165862470,0,15.23785,16.0458,8.849454,116.8042,1.820891,0,0.0912998,98
18293,2023-01-20 10:50:45.874688,165962470,0,15.23519,16.0479,8.900533,117.0515,1.824658,0,0.09131082,98
18324,2023-01-20 10:50:45.974681,166062509,0,15.27566,16.04963,8.476293,117.287,1.828256,0,0.09131082,98
18356,2023-01-20 10:50:46.074626,166162457,0,15.32115,16.05223,8.004095,117.5093,1.831661,0,0.09133773,98
18390,2023-01-20 10:50:46.174648,166262467,0,15.36901,16.04646,7.41924,117.7154,1.834829,0,0.09130979,98
18422,2023-01-20 10:50:46.274698,166362476,0,15.37078,16.04693,7.40647,117.9212,1.837992,0,0.09129217,98
18453,2023-01-20 10:50:46.374745,166462472,0,15.28216,16.03992,8.292692,118.1515,1.841512,0,0.09137648,98
18485,2023-01-20 10:50:46.474750,166562476,0,15.19176,16.04456,9.329598,118.4107,1.84545,0,0.09140729,98
18519,2023-01-20 10:50:46.574798,166662541,0,15.22544,16.04744,8.99276,118.6607,1.849256,0,0.0914066,98
18553,2023-01-20 10:50:46.674697,166762472,0,15.29013,16.05272,8.338663,118.8922,1.852795,0,0.0914515,98
18584,2023-01-20 10:50:46.774678,166862490,0,15.35394,16.04656,7.575031,119.1027,1.856027,0,0.09143443,98
18618,2023-01-20 10:50:46.867900,166962463,0,15.32647,16.04604,7.87129,119.3213,1.859377,0,0.09141683,98
18649,2023-01-20 10:50:46.958863,167062457,0,15.30431,16.04319,8.085822,119.5459,1.862815,0,0.09137923,98
18681,2023-01-20 10:50:47.054809,167162467,0,15.36527,16.04535,7.443361,119.7527,1.865992,0,0.09136822,98
18715,2023-01-20 10:50:47.154852,167262473,0,15.35394,16.04878,7.603125,119.9639,1.869235,0,0.09138869,98
18747,2023-01-20 10:50:47.254900,167362502,0,15.33799,16.04508,7.738484,120.1789,1.872534,0,0.09137329,97
18778,2023-01-20 10:50:47.354872,167462471,0,15.34242,16.04748,7.715498,120.3932,1.875821,0,0.09138155,97
18810,2023-01-20 10:50:47.454879,167562478,0,15.49485,16.06209,6.198449,120.5654,1.878489,0,0.09151313,97
18844,2023-01-20 10:50:47.554889,167662491,0,15.55925,16.05197,5.38317,120.715,1.880816,0,0.09152883,97
18879,2023-01-20 10:50:47.654892,167762483,0,15.38142,16.04483,7.248124,120.9163,1.883913,0,0.09152883,97
18910,2023-01-20 10:50:47.754904,167862474,0,15.32913,16.05197,7.899383,121.1357,1.887277,0,0.09150576,97
18944,2023-01-20 10:50:47.854931,167962513,0,15.41421,16.05584,7.008052,121.3305,1.890279,0,0.09155663,97
18975,2023-01-20 10:50:47.954842,168062464,0,15.36369,16.04767,7.467765,121.5378,1.893465,0,0.09159052,97
19007,2023-01-20 10:50:48.054823,168162463,0,15.38004,16.05554,7.375255,121.7427,1.896616,0,0.09159052,97
19041,2023-01-20 10:50:48.154820,168262460,0,15.38142,16.04885,7.288988,121.9452,1.89973,0,0.09156737,97
19073,2023-01-20 10:50:48.254818,168362476,0,15.30786,16.05214,8.129238,122.1711,1.903188,0,0.09155609,97
19104,2023-01-20 10:50:48.354787,168462478,0,15.32381,16.0519,7.953016,122.392,1.906574,0,0.09154843,97
19136,2023-01-20 10:50:48.454755,168562468,0,15.31583,16.04661,7.978555,122.6136,1.909968,0,0.09159302,97
19170,2023-01-20 10:50:48.554839,168662565,0,15.28659,16.04843,8.315678,122.8449,1.913503,0,0.09161528,97
19206,2023-01-20 10:50:48.654718,168762469,0,15.27172,16.04797,8.470618,123.08,1.917093,0,0.09163981,97
19237,2023-01-20 10:50:48.754713,168862498,0,15.23607,16.04729,8.849454,123.3259,1.92084,0,0.09166852,97
19271,2023-01-20 10:50:48.854654,168962480,0,15.2024,16.04453,9.181469,123.5809,1.924716,0,0.09172152,97
19304,2023-01-20 10:50:48.954582,169062456,0,15.15631,16.04245,9.653951,123.849,1.92878,0,0.09179006,97
19336,2023-01-20 10:50:49.054599,169162468,0,15.13859,16.0433,9.850605,124.1227,1.932923,0,0.09184349,97
19370,2023-01-20 10:50:49.154681,169262502,0,15.12992,16.04242,9.92921,124.3986,1.937098,0,0.09190052,97
19402,2023-01-20 10:50:49.254719,169362485,0,15.13416,16.04102,9.860821,124.6725,1.941243,0,0.09196605,97
19433,2023-01-20 10:50:49.354764,169462470,0,15.16252,16.03847,9.516036,124.9368,1.945251,0,0.09205043,97
19465,2023-01-20 10:50:49.454741,169562465,0,15.151,16.03528,9.59521,125.2034,1.949289,0,0.09215873,97
19499,2023-01-20 10:50:49.554658,169662464,0,15.12086,16.03874,9.952764,125.4798,1.95347,0,0.09222312,97
19534,2023-01-20 10:50:49.654661,169762477,0,15.20673,16.03877,9.026813,125.7307,1.957284,0,0.09217408,97
19565,2023-01-20 10:50:49.754734,169862499,0,15.19974,16.03709,9.089526,125.9832,1.961123,0,0.09212239,97
19599,2023-01-20 10:50:49.854738,169962508,0,15.24405,16.03655,8.606829,126.2223,1.964768,0,0.09207798,97
19630,2023-01-20 10:50:49.954643,170062465,0,15.28659,16.03824,8.164994,126.4491,1.968234,0,0.09205794,97
19662,2023-01-20 10:50:50.054617,170162467,0,15.28482,16.0362,8.164994,126.6759,1.971701,0,0.09202537,97
19738,2023-01-20 10:50:50.154593,170262451,0,15.3052,16.03984,7.982528,126.8976,1.975094,0,0.09203089,97
19770,2023-01-20 10:50:50.254637,170362475,0,15.32736,16.03578,7.700175,127.1116,1.978374,0,0.09200084,97
19801,2023-01-20 10:50:50.354681,170462477,0,15.2857,16.03753,8.172656,127.3386,1.981844,0,0.09199243,97
19833,2023-01-20 10:50:50.454728,170562494,0,15.30609,16.03942,7.970894,127.5601,1.985234,0,0.09200191,97
19867,2023-01-20 10:50:50.554762,170662511,0,15.30786,16.03937,7.950462,127.781,1.988615,0,0.09200881,97
19902,2023-01-20 10:50:50.654747,170762489,0,15.32115,16.04107,7.822764,127.9982,1.991944,0,0.09202849,97
19933,2023-01-20 10:50:50.754734,170862478,0,15.33769,16.04137,7.644839,128.2106,1.995201,0,0.09204633,97
19967,2023-01-20 10:50:50.854697,170962482,0,15.34951,16.03871,7.488196,128.4186,1.998394,0,0.09203762,97
19998,2023-01-20 10:50:50.954622,171062479,0,15.33888,16.03859,7.603125,128.6298,2.001634,0,0.09202988,97
20030,2023-01-20 10:50:51.054631,171162481,0,15.30165,16.04074,8.032188,128.853,2.005048,0,0.09201585,97
20064,2023-01-20 10:50:51.154749,171262526,0,15.30786,16.03716,7.927476,129.0733,2.008421,0,0.09199652,97
20096,2023-01-20 10:50:51.254729,171362475,0,15.30816,16.03942,7.948476,129.294,2.011799,0,0.09200056,97
20127,2023-01-20 10:50:51.354720,171462469,0,15.27418,16.03552,8.272261,129.5238,2.015309,0,0.09203502,97
20159,2023-01-20 10:50:51.454700,171562477,0,15.23696,16.03634,8.683448,129.765,2.018985,0,0.09205803,97
20193,2023-01-20 10:50:51.554674,171662498,0,15.2343,16.03601,8.706433,130.0069,2.022671,0,0.09208201,97
20228,2023-01-20 10:50:51.654661,171762474,0,15.22721,16.03377,8.754958,130.2501,2.026373,0,0.09212558,97
20259,2023-01-20 10:50:51.754735,171862489,0,15.24415,16.03639,8.598315,130.489,2.030015,0,0.09213906,97
20293,2023-01-20 10:50:51.854708,171962472,0,15.22987,16.03143,8.693663,130.7305,2.033693,0,0.09219991,97
20324,2023-01-20 10:50:51.954633,172062462,0,15.22278,16.03358,8.790713,130.9746,2.03741,0,0.09223369,97
20356,2023-01-20 10:50:52.054603,172162463,0,15.23164,16.03418,8.698771,131.2163,2.041091,0,0.09225829,97
20390,2023-01-20 10:50:52.154620,172262483,0,15.25469,16.03218,8.430606,131.4505,2.044664,0,0.09222249,97
20422,2023-01-20 10:50:52.254652,172362492,0,15.27684,16.03094,8.180318,131.6778,2.048136,0,0.09218431,97
20453,2023-01-20 10:50:52.354695,172462492,0,15.28944,16.03278,8.064822,131.9019,2.051561,0,0.09217025,97
20485,2023-01-20 10:50:52.454755,172562523,0,15.31406,16.0344,7.815103,132.119,2.054887,0,0.09217303,97
20519,2023-01-20 10:50:52.554731,172662482,0,15.30165,16.03223,7.927476,132.3392,2.058255,0,0.09215682,97
20554,2023-01-20 10:50:52.654713,172762486,0,15.28304,16.03134,8.121577,132.5648,2.061704,0,0.09213682,97
20585,2023-01-20 10:50:52.754653,172862480,0,15.30786,16.03233,7.863627,132.7832,2.065048,0,0.09212962,97
