LineNo,UTC_Approx,UTC_GPS,TimeUS,GPSTime,GPSWeek,Lat,Lng,Alt,RelAlt,GPSAlt,Roll,Pitch,Yaw
39800,2023-01-20 10:51:51.881821,2023-01-20 10:51:51.800000,232109940,471129800,2245,39.8052507,32.383537,788.84,54.59,778.8,8.72,7.26,102.05
41010,2023-01-20 10:51:55.614776,2023-01-20 10:51:55.600000,235862433,471133600,2245,39.8051858,32.3834895,789.11,54.86,781.32,-3.95,1.97,212.06
42084,2023-01-20 10:51:58.899843,2023-01-20 10:51:58.800000,239147680,471136800,2245,39.8050674,32.383403,789.23,54.98,784.32,-1.94,-4.65,209.68
42846,2023-01-20 10:52:01.099871,2023-01-20 10:52:01.000000,241347707,471139000,2245,39.8049505,32.3833149,789.46,55.21,786.03,-2.78,-1.95,209.48
43560,2023-01-20 10:52:03.259879,2023-01-20 10:52:03.200000,243507686,471141200,2245,39.8048332,32.3832274,789.46,55.21,786.49,-2.43,-1.89,209.48
44284,2023-01-20 10:52:05.420058,2023-01-20 10:52:05.400000,245687730,471143400,2245,39.8047165,32.3831395,789.35,55.1,786.29,-2.12,-2.75,210.1
45003,2023-01-20 10:52:07.619931,2023-01-20 10:52:07.600000,247887712,471145600,2245,39.8046,32.3830493,789.36,55.11,787.06,-3.11,-3.47,209.91
45692,2023-01-20 10:52:09.779979,2023-01-20 10:52:09.600000,250047720,471147600,2245,39.8044829,32.3829614,789.33,55.08,787.01,-2.18,-3.08,210.44
46410,2023-01-20 10:52:11.939859,2023-01-20 10:52:11.800000,252207693,471149800,2245,39.8043657,32.3828734,789.27,55.02,787.18,-2.24,-4.06,210.31
47098,2023-01-20 10:52:14.054771,2023-01-20 10:52:14.000000,254328011,471152000,2245,39.8042485,32.3827857,789.19,54.94,786.68,-1.7,-3.11,210.89
47791,2023-01-20 10:52:16.180139,2023-01-20 10:52:16.000000,256467856,471154000,2245,39.8041314,32.3826983,789.04,54.79,786.14,-1.89,-3.23,210.71
48551,2023-01-20 10:52:18.319932,2023-01-20 10:52:18.200000,258607698,471156200,2245,39.8040143,32.3826106,788.99,54.74,785.92,-2.14,-2.35,210.03
49272,2023-01-20 10:52:20.499850,2023-01-20 10:52:20.400000,260787687,471158400,2245,39.8038963,32.3825225,788.97,54.72,786.2,-1.92,-3.51,210.46
49960,2023-01-20 10:52:22.640266,2023-01-20 10:52:22.600000,262928069,471160600,2245,39.8037786,32.3824343,788.97,54.72,786.06,-1.7,-2.28,209.99
50653,2023-01-20 10:52:24.759957,2023-01-20 10:52:24.600000,265067657,471162600,2245,39.8036622,32.3823454,788.97,54.72,786.06,-2.64,-3.05,209.3
51367,2023-01-20 10:52:26.920486,2023-01-20 10:52:26.800000,267228345,471164800,2245,39.8035451,32.3822567,789.01,54.76,786.54,-2.79,-3.66,209.59
52061,2023-01-20 10:52:29.059846,2023-01-20 10:52:29.000000,269367715,471167000,2245,39.8034277,32.3821696,789.06,54.81,786.55,-2.7,-3.07,209.69
52771,2023-01-20 10:52:31.220283,2023-01-20 10:52:31.200000,271528016,471169200,2245,39.8033094,32.3820822,789,54.75,786.25,-1.66,-2.18,210.17
53464,2023-01-20 10:52:33.359980,2023-01-20 10:52:33.200000,273667735,471171200,2245,39.8031918,32.3819948,788.99,54.74,786.32,-1.58,-2.63,210.43
54235,2023-01-20 10:52:35.539608,2023-01-20 10:52:35.400000,275867698,471173400,2245,39.8030755,32.3819048,789.04,54.79,786.81,-2.27,-4.08,211.2
54947,2023-01-20 10:52:37.679590,2023-01-20 10:52:37.600000,278007691,471175600,2245,39.8029586,32.3818166,789.13,54.88,787.85,-2.28,-3.86,209.77
55635,2023-01-20 10:52:39.800278,2023-01-20 10:52:39.800000,280128352,471177800,2245,39.8028416,32.3817295,789.11,54.86,787.91,-2.14,-2.57,209.88
56330,2023-01-20 10:52:41.939574,2023-01-20 10:52:41.800000,282267693,471179800,2245,39.8027237,32.3816421,789.08,54.83,787.83,-1.02,-2.05,210.87
57042,2023-01-20 10:52:44.099886,2023-01-20 10:52:44.000000,284447687,471182000,2245,39.8026062,32.3815538,789.07,54.82,787.77,-1.57,-2.88,210.71
57761,2023-01-20 10:52:46.239843,2023-01-20 10:52:46.200000,286587711,471184200,2245,39.8024893,32.3814656,789.11,54.86,787.81,-1.35,-1.81,210.66
58456,2023-01-20 10:52:48.419843,2023-01-20 10:52:48.400000,288767690,471186400,2245,39.8023723,32.3813756,789.17,54.92,787.62,-2.95,-2.96,209.53
59216,2023-01-20 10:52:50.559869,2023-01-20 10:52:50.400000,290907698,471188400,2245,39.8022549,32.3812894,789.16,54.91,787.09,-2.15,-2.99,209.82
59932,2023-01-20 10:52:52.720022,2023-01-20 10:52:52.600000,293087686,471190600,2245,39.8021379,32.3812006,789.21,54.96,787.7,-2.04,-2.84,209.81
60625,2023-01-20 10:52:54.860162,2023-01-20 10:52:54.800000,295228014,471192800,2245,39.8020211,32.3811121,789.21,54.96,787.81,-2.13,-1.91,210.06
61318,2023-01-20 10:52:57.000225,2023-01-20 10:52:57.000000,297368100,471195000,2245,39.8019038,32.3810254,789.16,54.91,787.76,-1.44,-1.7,211.01
62030,2023-01-20 10:52:59.179890,2023-01-20 10:52:59.000000,299547719,471197000,2245,39.8017869,32.3809361,789.28,55.03,788.2,-1.92,-3.32,211.18
62724,2023-01-20 10:53:01.299966,2023-01-20 10:53:01.200000,301667731,471199200,2245,39.8016688,32.380849,789.33,55.08,787.68,-0.62,-1.56,211.07
63436,2023-01-20 10:53:03.459983,2023-01-20 10:53:03.400000,303847701,471201400,2245,39.8015521,32.3807596,789.36,55.11,787.91,-2.05,-3.22,209.41
64155,2023-01-20 10:53:05.619936,2023-01-20 10:53:05.600000,306007690,471203600,2245,39.8014338,32.3806727,789.32,55.07,788.06,-0.57,-2.14,211.82
64890,2023-01-20 10:53:07.759886,2023-01-20 10:53:07.600000,308147694,471205600,2245,39.8013167,32.3805843,789.28,55.03,788.97,-1.52,-2.91,211.96
65612,2023-01-20 10:53:09.899885,2023-01-20 10:53:09.800000,310287733,471207800,2245,39.8011998,32.3804965,789.3,55.05,789.53,-0.46,-3.24,212.72
66300,2023-01-20 10:53:12.020293,2023-01-20 10:53:12.000000,312428040,471210000,2245,39.8010827,32.3804079,789.38,55.13,789.89,-1.24,-3.35,211.19
67020,2023-01-20 10:53:14.200277,2023-01-20 10:53:14.200000,314608029,471212200,2245,39.8009658,32.3803199,789.38,55.13,789.57,-1.34,-2.94,209.51
67707,2023-01-20 10:53:16.320205,2023-01-20 10:53:16.200000,316728014,471214200,2245,39.800849,32.3802321,789.32,55.07,789.95,-1.99,-2.69,208.62
68400,2023-01-20 10:53:18.459878,2023-01-20 10:53:18.400000,318867700,471216400,2245,39.8007312,32.3801446,789.25,55,789.63,-1.4,-1.97,210.15
69113,2023-01-20 10:53:20.620275,2023-01-20 10:53:20.600000,321028016,471218600,2245,39.8006138,32.3800556,789.19,54.94,789.61,-2.03,-2.02,209.98
69803,2023-01-20 10:53:22.739777,2023-01-20 10:53:22.600000,323167737,471220600,2245,39.8004961,32.3799688,789.18,54.93,789.59,-1.09,-1.3,209.57
70569,2023-01-20 10:53:24.899915,2023-01-20 10:53:24.800000,325328026,471222800,2245,39.8003788,32.3798801,789.23,54.98,790,-1.73,-1.59,209.68
71284,2023-01-20 10:53:27.059555,2023-01-20 10:53:27.000000,327487688,471225000,2245,39.8002622,32.3797919,789.21,54.96,790.51,-1.42,-2.52,210.42
71976,2023-01-20 10:53:29.219616,2023-01-20 10:53:29.200000,329647702,471227200,2245,39.8001459,32.3797032,789.3,55.05,790.23,-1.21,-2.9,210.38
72692,2023-01-20 10:53:31.340065,2023-01-20 10:53:31.200000,331787721,471229200,2245,39.8000287,32.3796146,789.31,55.06,790.01,-1.96,-2.85,210.32
73408,2023-01-20 10:53:33.539855,2023-01-20 10:53:33.400000,333987684,471231400,2245,39.7999114,32.3795282,789.27,55.02,789.27,-0.02,6.55,211.11
74875,2023-01-20 10:53:38.040123,2023-01-20 10:53:38.000000,338487967,471236000,2245,39.7997957,32.3794379,789.54,55.29,790.32,0.14,4.65,209.77
76411,2023-01-20 10:53:42.779927,2023-01-20 10:53:42.600000,343247742,471240600,2245,39.7998386,32.3792709,789.77,55.52,790.01,3.47,-7.13,303.96
77557,2023-01-20 10:53:46.280089,2023-01-20 10:53:46.200000,346747931,471244200,2245,39.7999156,32.3791269,789.79,55.54,789.28,14.98,-3.59,340.87
78757,2023-01-20 10:53:49.956870,2023-01-20 10:53:49.800000,350440242,471247800,2245,39.7999867,32.3791735,789.21,54.96,787.47,-1.39,-8.47,29.27
79847,2023-01-20 10:53:53.140206,2023-01-20 10:53:53.000000,353627987,471251000,2245,39.8001034,32.3792614,789.57,55.32,785.85,-0.53,-19.78,30.02
80544,2023-01-20 10:53:55.279916,2023-01-20 10:53:55.200000,355767712,471253200,2245,39.8002189,32.3793518,789.24,54.99,783.69,-2.6,-15.36,29.36
81255,2023-01-20 10:53:57.419875,2023-01-20 10:53:57.400000,357907726,471255400,2245,39.8003377,32.3794375,789.12,54.87,782.79,0.09,-14.59,29.83
81941,2023-01-20 10:53:59.540056,2023-01-20 10:53:59.400000,360047677,471257400,2245,39.8004555,32.3795259,789.1,54.85,782.4,-0.13,-13.09,30.11
82660,2023-01-20 10:54:01.699929,2023-01-20 10:54:01.600000,362207666,471259600,2245,39.8005732,32.3796146,789.18,54.93,781.86,-0.56,-13.45,29.85
83353,2023-01-20 10:54:03.859861,2023-01-20 10:54:03.800000,364367719,471261800,2245,39.8006914,32.3797019,789.34,55.09,781.44,-0.38,-15.3,30.2
84066,2023-01-20 10:54:06.000293,2023-01-20 10:54:06.000000,366508208,471264000,2245,39.800809,32.3797893,789.4,55.15,781.69,0.19,-14.65,30.05
84785,2023-01-20 10:54:08.159781,2023-01-20 10:54:08.000000,368687688,471266000,2245,39.8009262,32.379879,789.46,55.21,781.03,-1.94,-16.53,31.08
85525,2023-01-20 10:54:10.319628,2023-01-20 10:54:10.200000,370847682,471268200,2245,39.8010436,32.3799673,789.41,55.16,779.98,-1.1,-15.3,30.78
86218,2023-01-20 10:54:12.439609,2023-01-20 10:54:12.400000,372967683,471270400,2245,39.801161,32.3800539,789.4,55.15,779.2,-0.18,-14.9,29.95
86931,2023-01-20 10:54:14.600291,2023-01-20 10:54:14.600000,375128394,471272600,2245,39.8012779,32.3801431,789.36,55.11,777.67,-1.57,-15.45,30.48
87648,2023-01-20 10:54:16.759615,2023-01-20 10:54:16.600000,377287680,471274600,2245,39.8013948,32.380231,789.33,55.08,777.01,-0.95,-15.6,29.53
88337,2023-01-20 10:54:18.880344,2023-01-20 10:54:18.800000,379428002,471276800,2245,39.8015115,32.3803193,789.32,55.07,776.35,-2.4,-14.37,30.51
89032,2023-01-20 10:54:21.019826,2023-01-20 10:54:21.000000,381567683,471279000,2245,39.8016293,32.3804067,789.31,55.06,776.77,-1.46,-15.22,29.96
89743,2023-01-20 10:54:23.180225,2023-01-20 10:54:23.000000,383728010,471281000,2245,39.8017455,32.3804957,789.2,54.95,776.49,-2.41,-15.22,30.94
90510,2023-01-20 10:54:25.339972,2023-01-20 10:54:25.200000,385887738,471283200,2245,39.8018624,32.3805855,789.21,54.96,776.08,-4.01,-14.54,28.63
91205,2023-01-20 10:54:27.509134,2023-01-20 10:54:27.400000,388067666,471285400,2245,39.8019794,32.3806731,789.04,54.79,775.59,-3.14,-15.86,29.56
91918,2023-01-20 10:54:29.639888,2023-01-20 10:54:29.600000,390207679,471287600,2245,39.8020967,32.3807605,789.11,54.86,776.09,-2.49,-14.88,29.53
92636,2023-01-20 10:54:31.819990,2023-01-20 10:54:31.800000,392387747,471289800,2245,39.802214,32.3808493,789,54.75,776.44,-3.22,-16.56,31.57
93323,2023-01-20 10:54:33.939918,2023-01-20 10:54:33.800000,394507734,471291800,2245,39.8023313,32.380936,789.1,54.85,776.89,-0.93,-14.43,29.75
94019,2023-01-20 10:54:36.090862,2023-01-20 10:54:36.000000,396667688,471294000,2245,39.8024485,32.3810242,789,54.75,776.55,-3.13,-16.15,30.09
94730,2023-01-20 10:54:38.220041,2023-01-20 10:54:38.200000,398807683,471296200,2245,39.8025662,32.3811125,788.91,54.66,776.93,-1.3,-13.95,30.88
95424,2023-01-20 10:54:40.379931,2023-01-20 10:54:40.200000,400967682,471298200,2245,39.8026838,32.3812013,788.91,54.66,777.37,-2.37,-14.66,30.32
96187,2023-01-20 10:54:42.559957,2023-01-20 10:54:42.400000,403147710,471300400,2245,39.8027999,32.3812904,788.94,54.69,777.28,-2.73,-16.39,29.8
96907,2023-01-20 10:54:44.699885,2023-01-20 10:54:44.600000,405287684,471302600,2245,39.8029181,32.3813762,789.07,54.82,777.58,-0.78,-15.45,31.45
97595,2023-01-20 10:54:46.839983,2023-01-20 10:54:46.800000,407447674,471304800,2245,39.8030355,32.3814649,789.02,54.77,777.9,-1.43,-15.47,30.93
98316,2023-01-20 10:54:49.000261,2023-01-20 10:54:49.000000,409608160,471307000,2245,39.8031529,32.381554,789.03,54.78,778.21,-1.36,-14.3,30.14
99008,2023-01-20 10:54:51.159932,2023-01-20 10:54:51.000000,411767698,471309000,2245,39.8032701,32.3816427,789.05,54.8,778.39,-2.12,-15.03,30.02
99720,2023-01-20 10:54:53.320175,2023-01-20 10:54:53.200000,413927984,471311200,2245,39.8033874,32.3817314,789.02,54.77,778.64,-3.1,-14.23,29.73
100415,2023-01-20 10:54:55.444244,2023-01-20 10:54:55.400000,416067685,471313400,2245,39.8035047,32.3818183,789.09,54.84,778.55,-2.42,-14.92,29.85
101128,2023-01-20 10:54:57.619643,2023-01-20 10:54:57.600000,418247708,471315600,2245,39.8036216,32.3819085,789.08,54.83,778.24,-3.92,-16.47,29.75
101893,2023-01-20 10:54:59.759620,2023-01-20 10:54:59.600000,420387682,471317600,2245,39.8037405,32.3819943,788.98,54.73,778.23,-2.23,-14.89,30.16
102582,2023-01-20 10:55:01.919599,2023-01-20 10:55:01.800000,422547694,471319800,2245,39.8038571,32.3820837,789.15,54.9,778.39,-1.33,-15.51,30.31
103273,2023-01-20 10:55:04.019574,2023-01-20 10:55:04.000000,424647712,471322000,2245,39.803975,32.3821714,788.91,54.66,777.22,-1.34,-11.45,30.01
103991,2023-01-20 10:55:06.200289,2023-01-20 10:55:06.200000,426847909,471324200,2245,39.8040911,32.3822617,788.97,54.72,776.86,-3.42,-14.16,29.59
104706,2023-01-20 10:55:08.380251,2023-01-20 10:55:08.200000,429027992,471326200,2245,39.8042095,32.3823483,789.12,54.87,775.34,-0.86,-16.75,30.69
105400,2023-01-20 10:55:10.519878,2023-01-20 10:55:10.400000,431167683,471328400,2245,39.8043264,32.3824377,789.04,54.79,775.72,-1.31,-15.39,30.94
106115,2023-01-20 10:55:12.659839,2023-01-20 10:55:12.600000,433307668,471330600,2245,39.8044433,32.3825262,789.12,54.87,776.23,-1.52,-15.1,31.61
106805,2023-01-20 10:55:14.800289,2023-01-20 10:55:14.800000,435448030,471332800,2245,39.8045615,32.3826131,789.25,55,777.11,-1.7,-15.23,30.36
107547,2023-01-20 10:55:16.899911,2023-01-20 10:55:16.800000,437567677,471334800,2245,39.8046793,32.3827013,789.1,54.85,777.58,-3.77,-11.63,28.88
108262,2023-01-20 10:55:19.079879,2023-01-20 10:55:19.000000,439747738,471337000,2245,39.8047978,32.3827871,789.07,54.82,778.08,-0.77,-13.58,30.59
108978,2023-01-20 10:55:21.260133,2023-01-20 10:55:21.200000,441927979,471339200,2245,39.8049137,32.3828786,789.11,54.86,778.91,-3.32,-15.18,29.82
109693,2023-01-20 10:55:23.419970,2023-01-20 10:55:23.400000,444087716,471341400,2245,39.8050307,32.3829668,789.11,54.86,778.37,-2.93,-15.79,29.03
110391,2023-01-20 10:55:25.580145,2023-01-20 10:55:25.400000,446267872,471343400,2245,39.8051482,32.3830552,789.04,54.79,777.69,-2.34,-16.92,30.36
111166,2023-01-20 10:55:27.899826,2023-01-20 10:55:27.800000,448587683,471345800,2245,39.8052646,32.3831445,788.66,54.41,776.58,-5.12,1.87,28.67
112991,2023-01-20 10:55:33.559953,2023-01-20 10:55:33.400000,454247690,471351400,2245,39.8053894,32.3832107,788.86,54.61,778.4,-8.82,-14.33,321.89
114032,2023-01-20 10:55:36.699905,2023-01-20 10:55:36.600000,457407693,471354600,2245,39.8054508,32.3830543,789.01,54.76,780.43,3.92,-8.24,299.66
115544,2023-01-20 10:55:41.179909,2023-01-20 10:55:41.000000,461887702,471359000,2245,39.805473,32.3828811,789.08,54.83,780.98,-5.77,4.69,203.28
116234,2023-01-20 10:55:43.349393,2023-01-20 10:55:43.200000,464057440,471361200,2245,39.8054291,32.3828525,789,54.75,780.75,-1.88,3.49,212.28
117307,2023-01-20 10:55:46.559931,2023-01-20 10:55:46.400000,467290592,471364400,2245,39.8053105,32.3827685,788.89,54.64,780.75,-3.34,-4.21,205.78
117996,2023-01-20 10:55:48.720269,2023-01-20 10:55:48.600000,469451246,471366600,2245,39.8051926,32.3826824,788.89,54.64,780.8,0.38,-2.17,210.93
118715,2023-01-20 10:55:50.879782,2023-01-20 10:55:50.800000,471611306,471368800,2245,39.805077,32.3825917,788.86,54.61,780.46,-1.71,-2.21,209.8
119435,2023-01-20 10:55:53.081686,2023-01-20 10:55:53.000000,473816928,471371000,2245,39.804961,32.3825012,789.03,54.78,781.82,-2.85,-2.96,208.95
120155,2023-01-20 10:55:55.280290,2023-01-20 10:55:55.200000,476016941,471373200,2245,39.8048435,32.3824127,789.27,55.02,782.8,-2.91,-2.49,208.8
120843,2023-01-20 10:55:57.420221,2023-01-20 10:55:57.400000,478156875,471375400,2245,39.804725,32.3823267,789.31,55.06,782.95,-0.98,-1.25,211.37
121607,2023-01-20 10:55:59.540050,2023-01-20 10:55:59.400000,480296621,471377400,2245,39.8046076,32.3822393,789.3,55.05,783.47,-0.75,-2.14,212.51
122295,2023-01-20 10:56:01.679953,2023-01-20 10:56:01.600000,482436648,471379600,2245,39.8044902,32.3821512,789.34,55.09,783.43,0,-1.67,211.94
123016,2023-01-20 10:56:03.860196,2023-01-20 10:56:03.800000,484616861,471381800,2245,39.8043734,32.3820606,789.44,55.19,783.18,-2.15,-2.07,209
123736,2023-01-20 10:56:06.060230,2023-01-20 10:56:06.000000,486816944,471384000,2245,39.8042558,32.3819718,789.54,55.29,783.1,-2.21,-3.76,211.01
124423,2023-01-20 10:56:08.179816,2023-01-20 10:56:08.000000,488956734,471386000,2245,39.8041377,32.3818857,789.59,55.34,782.49,-0.15,-2.54,210.98
125139,2023-01-20 10:56:10.340365,2023-01-20 10:56:10.200000,491117039,471388200,2245,39.8040206,32.3817966,789.64,55.39,782.31,-1.08,-2.85,209.83
125828,2023-01-20 10:56:12.479609,2023-01-20 10:56:12.400000,493256574,471390400,2245,39.8039034,32.3817086,789.57,55.32,782.22,-1.09,-3.16,210.37
126547,2023-01-20 10:56:14.600301,2023-01-20 10:56:14.600000,495377014,471392600,2245,39.8037858,32.3816218,789.42,55.17,781.66,-0.1,-2.1,210.64
127283,2023-01-20 10:56:16.719805,2023-01-20 10:56:16.600000,497496569,471394600,2245,39.8036688,32.3815345,789.21,54.96,781.34,-0.09,-1.62,211.25
128005,2023-01-20 10:56:18.879607,2023-01-20 10:56:18.800000,499676589,471396800,2245,39.8035515,32.3814461,789.18,54.93,781.47,-0.8,-3.33,209.95
128695,2023-01-20 10:56:21.039905,2023-01-20 10:56:21.000000,501836626,471399000,2245,39.8034343,32.381358,789.24,54.99,781.72,-0.27,-2.33,210.56
129410,2023-01-20 10:56:23.200302,2023-01-20 10:56:23.200000,503996941,471401200,2245,39.8033176,32.3812695,789.32,55.07,781.84,0.51,-3.02,212.61
130098,2023-01-20 10:56:25.320410,2023-01-20 10:56:25.200000,506117059,471403200,2245,39.8032004,32.3811827,789.33,55.08,781.05,0.8,-2.14,212.22
130814,2023-01-20 10:56:27.490643,2023-01-20 10:56:27.400000,508296565,471405400,2245,39.8030831,32.3810936,789.37,55.12,780.96,0.27,-3.31,212.01
131506,2023-01-20 10:56:29.619925,2023-01-20 10:56:29.600000,510436602,471407600,2245,39.8029654,32.3810058,789.37,55.12,781.05,0.73,-2.49,211.2
132220,2023-01-20 10:56:31.759679,2023-01-20 10:56:31.600000,512576577,471409600,2245,39.8028481,32.3809176,789.44,55.19,781.77,0.72,-2.12,211.7
132964,2023-01-20 10:56:33.939433,2023-01-20 10:56:33.800000,514757239,471411800,2245,39.8027312,32.3808276,789.36,55.11,782.39,-2.02,-4.9,208.38
133679,2023-01-20 10:56:36.060108,2023-01-20 10:56:36.000000,516897212,471414000,2245,39.8026129,32.3807415,789.37,55.12,782.86,0.72,-3.68,212.26
134367,2023-01-20 10:56:38.200230,2023-01-20 10:56:38.200000,519037546,471416200,2245,39.8024956,32.3806536,789.36,55.11,782.57,0.65,-2.34,211.45
135084,2023-01-20 10:56:40.359925,2023-01-20 10:56:40.200000,521197232,471418200,2245,39.8023786,32.380564,789.3,55.05,782.87,0.08,-2.53,212.1
135772,2023-01-20 10:56:42.519950,2023-01-20 10:56:42.400000,523357269,471420400,2245,39.8022615,32.3804765,789.26,55.01,782.85,-1.31,-3.52,206.79
136492,2023-01-20 10:56:44.659882,2023-01-20 10:56:44.600000,525497226,471422600,2245,39.802144,32.3803899,789.3,55.05,783.13,1,-2.15,209.06
137182,2023-01-20 10:56:46.800286,2023-01-20 10:56:46.800000,527657438,471424800,2245,39.802027,32.3803012,789.16,54.91,783.11,0.62,-2.63,210.07
137952,2023-01-20 10:56:48.979856,2023-01-20 10:56:48.800000,529837249,471426800,2245,39.8019102,32.3802125,789.23,54.98,782.92,-1.51,-4.47,211.25
138665,2023-01-20 10:56:51.119884,2023-01-20 10:56:51.000000,531977243,471429000,2245,39.801794,32.3801232,789.2,54.95,782.8,-1.98,-3.22,207
139353,2023-01-20 10:56:53.260295,2023-01-20 10:56:53.200000,534117649,471431200,2245,39.801677,32.3800361,789.34,55.09,782.48,-1.46,-3.32,207.31
140074,2023-01-20 10:56:55.436366,2023-01-20 10:56:55.400000,536297282,471433400,2245,39.8015597,32.3799471,789.2,54.95,782.22,-1.58,-4.39,207.29
140760,2023-01-20 10:56:57.559961,2023-01-20 10:56:57.400000,538437252,471435400,2245,39.8014422,32.3798591,789,54.75,781.75,-1.97,-4.2,208.61
141449,2023-01-20 10:56:59.680002,2023-01-20 10:56:59.600000,540557310,471437600,2245,39.8013245,32.3797737,788.93,54.68,781.97,0.31,-2.29,211.01
142167,2023-01-20 10:57:01.819871,2023-01-20 10:57:01.800000,542697234,471439800,2245,39.8012077,32.3796848,788.93,54.68,782.26,-0.09,-3.44,212.25
142889,2023-01-20 10:57:04.000221,2023-01-20 10:57:04.000000,544877580,471442000,2245,39.8010907,32.3795951,788.97,54.72,782.38,-1.54,-5.16,207.63
143624,2023-01-20 10:57:06.140131,2023-01-20 10:57:06.000000,547037234,471444000,2245,39.8009742,32.3795062,789.07,54.82,782.38,-3.39,-4.04,207.37
144311,2023-01-20 10:57:08.259959,2023-01-20 10:57:08.200000,549157252,471446200,2245,39.8008562,32.3794206,788.86,54.61,782.21,-1.98,-3.32,205.72
145029,2023-01-20 10:57:10.400222,2023-01-20 10:57:10.400000,551297570,471448400,2245,39.800739,32.379331,788.88,54.63,781.9,-2.68,-1.77,206.71
145743,2023-01-20 10:57:12.579932,2023-01-20 10:57:12.400000,553477226,471450400,2245,39.8006214,32.3792438,788.91,54.66,781.53,-2.07,-2.35,207.45
146440,2023-01-20 10:57:14.739723,2023-01-20 10:57:14.600000,555657266,471452600,2245,39.800504,32.3791549,788.81,54.56,782.03,-1.67,-3.71,208.33
147158,2023-01-20 10:57:16.900218,2023-01-20 10:57:16.800000,557817944,471454800,2245,39.8003862,32.3790665,788.86,54.61,781.87,-1.87,-1.73,210.28
147848,2023-01-20 10:57:19.019592,2023-01-20 10:57:19.000000,559937472,471457000,2245,39.8002687,32.3789791,788.86,54.61,781.77,-2.52,-1.9,209.34
148722,2023-01-20 10:57:21.659434,2023-01-20 10:57:21.600000,562577235,471459600,2245,39.8001517,32.3788904,788.88,54.63,782.26,-1.58,12.06,212.17
151016,2023-01-20 10:57:28.539924,2023-01-20 10:57:28.400000,569477226,471466400,2245,39.8000979,32.3787291,789.27,55.02,782.91,4.02,-13.46,305.89
151866,2023-01-20 10:57:31.180321,2023-01-20 10:57:31.000000,572117643,471469000,2245,39.8001718,32.3785817,789.4,55.15,782.58,2.24,4.3,302.11
153692,2023-01-20 10:57:36.772284,2023-01-20 10:57:36.600000,577729662,471474600,2245,39.8002783,32.3785736,789.05,54.8,780.09,0.77,-7.17,30
154736,2023-01-20 10:57:39.979893,2023-01-20 10:57:39.800000,580937292,471477800,2245,39.8003942,32.3786637,789.37,55.12,780.41,-2.61,-18.56,30.24
155452,2023-01-20 10:57:42.119908,2023-01-20 10:57:42.000000,583077269,471480000,2245,39.8005116,32.3787519,789.18,54.93,779.97,-2.72,-13.78,28.56
156145,2023-01-20 10:57:44.260065,2023-01-20 10:57:44.200000,585237240,471482200,2245,39.8006293,32.3788386,789,54.75,779.4,-1.07,-14.49,30.53
156863,2023-01-20 10:57:46.440338,2023-01-20 10:57:46.400000,587417639,471484400,2245,39.8007462,32.378927,789.07,54.82,779.13,-1.92,-14.35,28.96
157579,2023-01-20 10:57:48.600225,2023-01-20 10:57:48.600000,589577530,471486600,2245,39.8008635,32.3790158,788.99,54.74,778.96,-1.98,-14.81,29.41
158316,2023-01-20 10:57:50.740309,2023-01-20 10:57:50.600000,591717621,471488600,2245,39.800981,32.379103,789.1,54.85,779.21,-2.04,-13.8,29.63
159031,2023-01-20 10:57:52.899921,2023-01-20 10:57:52.800000,593877234,471490800,2245,39.8010983,32.379192,789.08,54.83,779.48,-1.89,-11.85,30.64
159724,2023-01-20 10:57:55.059994,2023-01-20 10:57:55.000000,596057320,471493000,2245,39.8012154,32.3792807,789.24,54.99,779.3,-3.02,-16.45,30.25
160442,2023-01-20 10:57:57.239980,2023-01-20 10:57:57.200000,598237246,471495200,2245,39.8013328,32.3793693,789.26,55.01,778.45,-0.97,-18.11,30.9
161156,2023-01-20 10:57:59.379934,2023-01-20 10:57:59.200000,600377238,471497200,2245,39.8014497,32.3794588,789.32,55.07,778.4,-2.06,-18.56,30.42
161843,2023-01-20 10:58:01.499904,2023-01-20 10:58:01.400000,602497216,471499400,2245,39.8015676,32.3795451,789.11,54.86,777.68,-2.52,-17.74,31.06
162532,2023-01-20 10:58:03.619246,2023-01-20 10:58:03.600000,604618492,471501600,2245,39.8016846,32.3796328,789.29,55.04,778.06,-1.73,-16.34,30.37
163225,2023-01-20 10:58:05.739506,2023-01-20 10:58:05.600000,606757255,471503600,2245,39.8018032,32.3797194,789.19,54.94,778.17,-0.75,-15.62,30.99
163988,2023-01-20 10:58:07.919531,2023-01-20 10:58:07.800000,608937274,471505800,2245,39.8019197,32.3798096,789.28,55.03,778.87,-2.2,-18.1,30.96
164678,2023-01-20 10:58:10.039569,2023-01-20 10:58:10.000000,611057297,471508000,2245,39.8020372,32.3798968,789.29,55.04,778.81,-2,-15.43,31.12
165392,2023-01-20 10:58:12.145431,2023-01-20 10:58:12.000000,613177219,471510000,2245,39.8021539,32.3799847,789.22,54.97,778.36,-2.9,-14.89,30.83
166083,2023-01-20 10:58:14.299924,2023-01-20 10:58:14.200000,615337231,471512200,2245,39.8022712,32.3800727,789.29,55.04,777.89,-2.12,-14.93,30.52
166799,2023-01-20 10:58:16.439880,2023-01-20 10:58:16.400000,617477221,471514400,2245,39.8023891,32.3801607,789.28,55.03,778.22,-2.38,-14.15,29.79
167521,2023-01-20 10:58:18.639977,2023-01-20 10:58:18.600000,619677268,471516600,2245,39.8025071,32.3802481,789.46,55.21,778.7,-0.99,-16.6,30.04
168213,2023-01-20 10:58:20.800226,2023-01-20 10:58:20.800000,621837531,471518800,2245,39.8026227,32.3803386,789.43,55.18,778.61,-3.94,-15.91,30.76
168926,2023-01-20 10:58:22.939952,2023-01-20 10:58:22.800000,623997227,471520800,2245,39.8027411,32.3804248,789.39,55.14,778.3,-0.92,-16.55,31.07
169668,2023-01-20 10:58:25.099875,2023-01-20 10:58:25.000000,626157251,471523000,2245,39.8028571,32.3805157,789.23,54.98,777.66,-3.34,-16.74,31.14
170383,2023-01-20 10:58:27.239887,2023-01-20 10:58:27.200000,628297215,471525200,2245,39.8029753,32.3806025,789.33,55.08,777.89,-2.21,-14.99,29.89
171072,2023-01-20 10:58:29.379943,2023-01-20 10:58:29.200000,630437266,471527200,2245,39.8030923,32.3806908,789.11,54.86,777.83,-2.67,-13.91,29.67
171789,2023-01-20 10:58:31.540525,2023-01-20 10:58:31.400000,632617604,471529400,2245,39.8032097,32.3807787,789.2,54.95,777.88,-1.38,-15.3,29.48
172480,2023-01-20 10:58:33.679972,2023-01-20 10:58:33.600000,634757251,471531600,2245,39.8033266,32.380867,789.23,54.98,777.94,-3.61,-12.21,29.48
173200,2023-01-20 10:58:35.879939,2023-01-20 10:58:35.800000,636957264,471533800,2245,39.8034443,32.3809551,789.18,54.93,777.88,-1.9,-15.77,30.95
173914,2023-01-20 10:58:38.019878,2023-01-20 10:58:38.000000,639097216,471536000,2245,39.8035607,32.3810447,789.14,54.89,776.76,-2.76,-14.86,30.44
174654,2023-01-20 10:58:40.159922,2023-01-20 10:58:40.000000,641237229,471538000,2245,39.8036779,32.3811314,789.31,55.06,775.15,-2.2,-14.29,31.07
175369,2023-01-20 10:58:42.300056,2023-01-20 10:58:42.200000,643397254,471540200,2245,39.8037959,32.3812194,789.16,54.91,774.26,-1.97,-16.37,30.24
176060,2023-01-20 10:58:44.460029,2023-01-20 10:58:44.400000,645557314,471542400,2245,39.8039131,32.3813079,789.29,55.04,773.81,-2.65,-16.39,31.71
176779,2023-01-20 10:58:46.600226,2023-01-20 10:58:46.600000,647697517,471544600,2245,39.8040311,32.3813949,789.32,55.07,773.58,-1.62,-16.81,31.02
177496,2023-01-20 10:58:48.779917,2023-01-20 10:58:48.600000,649877219,471546600,2245,39.8041476,32.381486,789.38,55.13,774.01,-4.38,-18.55,31.07
178184,2023-01-20 10:58:50.859679,2023-01-20 10:58:50.800000,651977220,471548800,2245,39.8042655,32.381571,789.32,55.07,774.94,-1.68,-13.6,28.62
178875,2023-01-20 10:58:53.039663,2023-01-20 10:58:53.000000,654157254,471551000,2245,39.8043814,32.3816606,789.16,54.91,775.7,-3.49,-16.86,29.89
179592,2023-01-20 10:58:55.159446,2023-01-20 10:58:55.000000,656277153,471553000,2245,39.8044988,32.3817471,789.21,54.96,776.11,-1.65,-11.58,29.54
180357,2023-01-20 10:58:57.359529,2023-01-20 10:58:57.200000,658477223,471555200,2245,39.8046161,32.3818363,789.33,55.08,776.33,-0.62,-16.88,30.16
181049,2023-01-20 10:58:59.539617,2023-01-20 10:58:59.400000,660657299,471557400,2245,39.8047331,32.3819258,789.18,54.93,776.62,-2.52,-16.98,30.06
181766,2023-01-20 10:59:01.639972,2023-01-20 10:59:01.600000,662777233,471559600,2245,39.8048505,32.382013,788.98,54.73,776.72,-2.81,-14.17,29.4
182484,2023-01-20 10:59:03.839882,2023-01-20 10:59:03.800000,664977219,471561800,2245,39.8049673,32.3821028,788.99,54.74,776.84,-3.66,-17.49,31.36
183172,2023-01-20 10:59:05.959807,2023-01-20 10:59:05.800000,667097159,471563800,2245,39.8050844,32.38219,789.11,54.86,776.67,-3.58,-16.63,31.18
183862,2023-01-20 10:59:08.099883,2023-01-20 10:59:08.000000,669237216,471566000,2245,39.8052023,32.3822773,789.01,54.76,776.53,-2.61,-17.06,31.54
184550,2023-01-20 10:59:10.218191,2023-01-20 10:59:10.200000,671357302,471568200,2245,39.8053204,32.3823636,789.2,54.95,777.25,0.17,-16.9,30.29
185263,2023-01-20 10:59:12.339901,2023-01-20 10:59:12.200000,673497242,471570200,2245,39.8054367,32.382453,789.2,54.95,777.57,-1.91,-13.1,29.47
186332,2023-01-20 10:59:15.499932,2023-01-20 10:59:15.400000,676657261,471573400,2245,39.8055542,32.3825394,788.96,54.71,778.59,-0.57,-9.09,30.42
188443,2023-01-20 10:59:21.919895,2023-01-20 10:59:21.800000,683097232,471579800,2245,39.8056779,32.3824672,788.91,54.66,780.4,4.11,-10.59,298.05
189358,2023-01-20 10:59:24.759977,2023-01-20 10:59:24.600000,685937289,471582600,2245,39.8057388,32.38231,789.22,54.97,781.85,-2.36,8.4,294.08
190855,2023-01-20 10:59:29.355180,2023-01-20 10:59:29.200000,690536927,471587200,2245,39.8056697,32.3822198,788.98,54.73,782.82,0.47,2.4,207.45
191933,2023-01-20 10:59:32.600608,2023-01-20 10:59:32.600000,693797905,471590600,2245,39.8055515,32.382134,789.24,54.99,783.83,0.46,-6.65,210.57
192649,2023-01-20 10:59:34.779974,2023-01-20 10:59:34.600000,695977270,471592600,2245,39.8054347,32.382046,789.42,55.17,784.13,-0.49,-5.12,212.2
193340,2023-01-20 10:59:36.959916,2023-01-20 10:59:36.800000,698157267,471594800,2245,39.8053179,32.3819554,789.4,55.15,784.2,-0.05,-4.67,212.09
194058,2023-01-20 10:59:39.079916,2023-01-20 10:59:39.000000,700277231,471597000,2245,39.805201,32.3818679,789.26,55.01,784.24,-0.34,-3.9,213.14
194792,2023-01-20 10:59:41.219541,2023-01-20 10:59:41.200000,702437229,471599200,2245,39.8050838,32.381779,789.21,54.96,784.13,0.33,-3.53,211.06
195510,2023-01-20 10:59:43.400286,2023-01-20 10:59:43.400000,704618016,471601400,2245,39.8049671,32.3816881,789.2,54.95,784.86,-2.19,-3.11,208.03
196200,2023-01-20 10:59:45.539214,2023-01-20 10:59:45.400000,706757255,471603400,2245,39.8048492,32.3816022,789.09,54.84,785.24,-1.36,-3.66,210.93
196914,2023-01-20 10:59:47.679913,2023-01-20 10:59:47.600000,708897570,471605600,2245,39.8047319,32.3815158,789.15,54.9,785.69,0.92,-3.8,210.8
197607,2023-01-20 10:59:49.820445,2023-01-20 10:59:49.800000,711058299,471607800,2245,39.8046147,32.3814276,789.2,54.95,786.02,0.31,-4.78,212.15
198323,2023-01-20 10:59:51.959872,2023-01-20 10:59:51.800000,713197878,471609800,2245,39.8044976,32.381339,789.16,54.91,785.64,-0.01,-5.38,211.7
199013,2023-01-20 10:59:54.099953,2023-01-20 10:59:54.000000,715337941,471612000,2245,39.8043808,32.3812504,789.24,54.99,786.17,0.14,-1.46,212.32
199730,2023-01-20 10:59:56.259928,2023-01-20 10:59:56.200000,717497887,471614200,2245,39.804263,32.3811633,789.11,54.86,786.19,-0.84,-3.12,211.14
200466,2023-01-20 10:59:58.381896,2023-01-20 10:59:58.200000,719638144,471616200,2245,39.8041461,32.3810758,789.15,54.9,786.5,-0.04,-2.53,210.42
201184,2023-01-20 11:00:00.519737,2023-01-20 11:00:00.400000,721777894,471618400,2245,39.8040287,32.3809878,789.14,54.89,786.76,-0.36,-1.68,207.78
201901,2023-01-20 11:00:02.719558,2023-01-20 11:00:02.600000,723977879,471620600,2245,39.8039115,32.380898,789.22,54.97,787.5,0.31,-3.25,209.75
202593,2023-01-20 11:00:04.879587,2023-01-20 11:00:04.800000,726137897,471622800,2245,39.8037939,32.3808105,789.27,55.02,787.28,0.46,-4.07,210.96
203282,2023-01-20 11:00:07.000223,2023-01-20 11:00:07.000000,728258592,471625000,2245,39.8036774,32.3807222,789.22,54.97,786.15,-0.15,-2.81,209.42
203999,2023-01-20 11:00:09.139961,2023-01-20 11:00:09.000000,730417878,471627000,2245,39.8035607,32.380633,789.2,54.95,785.73,-2.06,-4.36,207.62
204716,2023-01-20 11:00:11.299924,2023-01-20 11:00:11.200000,732577886,471629200,2245,39.8034434,32.3805457,789.16,54.91,785.46,-2.23,-2.92,206.92
205405,2023-01-20 11:00:13.419940,2023-01-20 11:00:13.400000,734697890,471631400,2245,39.8033257,32.3804591,788.99,54.74,785.08,-1.5,-1.73,208.36
206173,2023-01-20 11:00:15.600272,2023-01-20 11:00:15.600000,736878240,471633600,2245,39.8032093,32.3803702,789,54.75,784.48,-2.14,-2.97,208.86
206859,2023-01-20 11:00:17.745568,2023-01-20 11:00:17.600000,739037910,471635600,2245,39.8030914,32.3802825,789.05,54.8,785.07,-1.05,-2.81,209.37
207581,2023-01-20 11:00:19.879917,2023-01-20 11:00:19.800000,741177888,471637800,2245,39.8029741,32.3801942,788.99,54.74,784.82,-1.07,-2.25,209.94
208270,2023-01-20 11:00:22.060266,2023-01-20 11:00:22.000000,743358247,471640000,2245,39.8028566,32.3801065,789.1,54.85,785.02,-0.16,-3.48,211.35
208988,2023-01-20 11:00:24.200266,2023-01-20 11:00:24.200000,745498216,471642200,2245,39.8027387,32.3800196,789.09,54.84,783.82,1.31,-2.4,211.6
209676,2023-01-20 11:00:26.360244,2023-01-20 11:00:26.200000,747658229,471644200,2245,39.8026228,32.379928,789.09,54.84,783.53,-1.34,-2.21,210.66
210394,2023-01-20 11:00:28.500318,2023-01-20 11:00:28.400000,749818111,471646400,2245,39.8025064,32.379839,789.16,54.91,783.66,-3.71,-2.83,206.71
211111,2023-01-20 11:00:30.659927,2023-01-20 11:00:30.600000,751977881,471648600,2245,39.8023889,32.3797531,789.25,55,783.91,-1.58,-4.01,206.75
211847,2023-01-20 11:00:32.779951,2023-01-20 11:00:32.600000,754097912,471650600,2245,39.8022716,32.3796652,789.18,54.93,783.64,-2.89,-3.61,205.54
212567,2023-01-20 11:00:34.959398,2023-01-20 11:00:34.800000,756278256,471652800,2245,39.8021538,32.3795781,789.11,54.86,783.66,-0.7,-4.8,215.09
213258,2023-01-20 11:00:37.119495,2023-01-20 11:00:37.000000,758438269,471655000,2245,39.8020371,32.3794889,789.02,54.77,784.39,-0.22,-2.94,210.96
213945,2023-01-20 11:00:39.200242,2023-01-20 11:00:39.200000,760538533,471657200,2245,39.8019197,32.3794014,788.98,54.73,784.48,-0.88,-4.31,208.82
214661,2023-01-20 11:00:41.359964,2023-01-20 11:00:41.200000,762698309,471659200,2245,39.8018029,32.3793129,789,54.75,784.84,-1.02,-5.17,209.6
215351,2023-01-20 11:00:43.499979,2023-01-20 11:00:43.400000,764838311,471661400,2245,39.8016858,32.3792247,789.05,54.8,783.96,-1.63,-4.96,209.49
216039,2023-01-20 11:00:45.619999,2023-01-20 11:00:45.600000,766958331,471663600,2245,39.8015683,32.379138,789.02,54.77,783.45,-0.87,-2.94,209.89
216803,2023-01-20 11:00:47.760526,2023-01-20 11:00:47.600000,769118663,471665600,2245,39.8014511,32.3790506,789.04,54.79,783.2,-1.31,-3.52,210.13
217494,2023-01-20 11:00:49.899952,2023-01-20 11:00:49.800000,771258292,471667800,2245,39.8013335,32.3789625,789.11,54.86,782.64,-1.62,-2.91,210.44
218212,2023-01-20 11:00:52.039865,2023-01-20 11:00:52.000000,773398270,471670000,2245,39.8012168,32.3788745,789.09,54.84,782.21,-1.34,-2.15,212.36
218934,2023-01-20 11:00:54.222091,2023-01-20 11:00:54.200000,775598241,471672200,2245,39.8011,32.3787853,789.09,54.84,782.51,-4.59,-1.01,207.49
219621,2023-01-20 11:00:56.360603,2023-01-20 11:00:56.200000,777718972,471674200,2245,39.8009826,32.3786983,788.92,54.67,782.42,-2.47,-3.09,209.45
220336,2023-01-20 11:00:58.499959,2023-01-20 11:00:58.400000,779878281,471676400,2245,39.8008654,32.3786099,788.92,54.67,782.47,-2.44,-4.14,210.58
221027,2023-01-20 11:01:00.679983,2023-01-20 11:01:00.600000,782058312,471678600,2245,39.800748,32.3785214,788.98,54.73,783.49,-0.8,-4,212.82
221745,2023-01-20 11:01:02.819974,2023-01-20 11:01:02.800000,784198307,471680800,2245,39.800631,32.3784337,789.13,54.88,784.51,-0.47,-3.17,213.3
222483,2023-01-20 11:01:04.979925,2023-01-20 11:01:04.800000,786358319,471682800,2245,39.8005148,32.3783442,789.11,54.86,784.89,-1.1,2.24,211.36
223688,2023-01-20 11:01:08.659987,2023-01-20 11:01:08.600000,790058304,471686600,2245,39.8003974,32.3782573,789.29,55.04,785.26,-0.92,2.68,207.44
225608,2023-01-20 11:01:14.479967,2023-01-20 11:01:14.400000,795878283,471692400,2245,39.8004117,32.3780821,789.61,55.36,785.47,0.86,-7.87,302.85
226613,2023-01-20 11:01:17.559578,2023-01-20 11:01:17.400000,798978248,471695400,2245,39.8004848,32.3779343,789.28,55.03,785.36,6.94,10.21,308.65
227989,2023-01-20 11:01:21.831659,2023-01-20 11:01:21.800000,803250438,471699800,2245,39.8005672,32.377976,789.1,54.85,784.29,-1.16,-6.91,28.73
229034,2023-01-20 11:01:25.022228,2023-01-20 11:01:25.000000,806458290,471703000,2245,39.8006843,32.3780645,789.26,55.01,783,-2.67,-16.84,28.94
229719,2023-01-20 11:01:27.119940,2023-01-20 11:01:27.000000,808558275,471705000,2245,39.8008021,32.3781504,789.04,54.79,782.26,-0.36,-9.68,30.42
230471,2023-01-20 11:01:29.359929,2023-01-20 11:01:29.200000,810798256,471707200,2245,39.800919,32.37824,789.22,54.97,781.89,-0.31,-17.13,29.6
231157,2023-01-20 11:01:31.499933,2023-01-20 11:01:31.400000,812938258,471709400,2245,39.8010364,32.3783283,789.28,55.03,781.35,-1.26,-15.65,28.86
231921,2023-01-20 11:01:33.639921,2023-01-20 11:01:33.600000,815078253,471711600,2245,39.8011527,32.378417,789.01,54.76,780.37,-2.7,-14.14,29.84
232614,2023-01-20 11:01:35.800228,2023-01-20 11:01:35.800000,817258467,471713800,2245,39.8012712,32.3785031,789.13,54.88,780.3,-0.89,-17.22,29.58
233328,2023-01-20 11:01:37.960274,2023-01-20 11:01:37.800000,819418670,471715800,2245,39.8013886,32.3785922,789.18,54.93,779.63,-0.7,-17.21,30.51
234017,2023-01-20 11:01:40.099904,2023-01-20 11:01:40.000000,821558289,471718000,2245,39.8015059,32.3786804,789.08,54.83,779.48,-2.65,-16.43,29.62
234736,2023-01-20 11:01:42.239863,2023-01-20 11:01:42.200000,823698258,471720200,2245,39.8016237,32.3787683,789.17,54.92,779.45,-1,-15.76,30.83
235425,2023-01-20 11:01:44.360597,2023-01-20 11:01:44.200000,825818963,471722200,2245,39.8017406,32.3788567,789.16,54.91,779.5,-0.39,-14.69,30.15
236111,2023-01-20 11:01:46.459948,2023-01-20 11:01:46.400000,827938256,471724400,2245,39.8018576,32.3789443,789.25,55,779.77,-1.81,-14.21,31.16
236827,2023-01-20 11:01:48.619932,2023-01-20 11:01:48.600000,830098249,471726600,2245,39.8019756,32.3790316,789.44,55.19,780.32,-1.83,-15.4,30.34
237566,2023-01-20 11:01:50.779933,2023-01-20 11:01:50.600000,832258295,471728600,2245,39.8020928,32.3791205,789.44,55.19,780.31,-1.62,-16.86,30.24
238283,2023-01-20 11:01:52.899909,2023-01-20 11:01:52.800000,834378264,471730800,2245,39.8022102,32.3792077,789.43,55.18,780.75,-2.33,-17.12,29.06
238975,2023-01-20 11:01:55.072700,2023-01-20 11:01:55.000000,836558283,471733000,2245,39.8023263,32.3792971,789.39,55.14,780.49,-2.62,-18.01,30.56
239691,2023-01-20 11:01:57.179924,2023-01-20 11:01:57.000000,838678261,471735000,2245,39.802444,32.3793836,789.38,55.13,781.12,-1.42,-16.27,29.82
240383,2023-01-20 11:01:59.339882,2023-01-20 11:01:59.200000,840838246,471737200,2245,39.802561,32.3794725,789.22,54.97,781.08,-1.7,-15.51,30.69
241098,2023-01-20 11:02:01.539943,2023-01-20 11:02:01.400000,843038273,471739400,2245,39.8026776,32.3795621,789.25,55,780.69,-2.78,-16.47,31.4
241787,2023-01-20 11:02:03.639722,2023-01-20 11:02:03.600000,845158278,471741600,2245,39.8027949,32.3796494,789.26,55.01,780.7,-2.51,-14.51,29.63
242551,2023-01-20 11:02:05.779638,2023-01-20 11:02:05.600000,847298334,471743600,2245,39.8029128,32.3797365,789.22,54.97,780.66,-2.58,-12.99,29.69
243241,2023-01-20 11:02:07.919444,2023-01-20 11:02:07.800000,849438245,471745800,2245,39.8030305,32.379824,789.22,54.97,780.95,-1.78,-12.26,30.16
243962,2023-01-20 11:02:10.119534,2023-01-20 11:02:10.000000,851638298,471748000,2245,39.8031478,32.3799124,789.24,54.99,781.32,-0.42,-15.49,30.42
244680,2023-01-20 11:02:12.300245,2023-01-20 11:02:12.200000,853818961,471750200,2245,39.8032637,32.3800032,789.26,55.01,781.1,-3.26,-17.33,31.24
245371,2023-01-20 11:02:14.420157,2023-01-20 11:02:14.400000,855958283,471752400,2245,39.8033817,32.3800907,789.24,54.99,780.65,-1.39,-14.89,30.99
246085,2023-01-20 11:02:16.580286,2023-01-20 11:02:16.400000,858118654,471754400,2245,39.8034991,32.3801796,789.21,54.96,780.96,-1.7,-16.86,30.85
246802,2023-01-20 11:02:18.760115,2023-01-20 11:02:18.600000,860298452,471756600,2245,39.8036159,32.3802687,789.21,54.96,781.11,-3.72,-18.52,32.36
247492,2023-01-20 11:02:20.880324,2023-01-20 11:02:20.800000,862418669,471758800,2245,39.8037339,32.3803541,789.18,54.93,781.78,-1.18,-14.86,28.92
248229,2023-01-20 11:02:23.000282,2023-01-20 11:02:23.000000,864558431,471761000,2245,39.8038503,32.3804425,789.05,54.8,782.02,-0.61,-15.58,30.15
248957,2023-01-20 11:02:25.200238,2023-01-20 11:02:25.200000,866758627,471763200,2245,39.803966,32.3805341,789.04,54.79,782.41,-4.27,-17.82,29.87
249668,2023-01-20 11:02:27.339886,2023-01-20 11:02:27.200000,868898253,471765200,2245,39.8040835,32.3806229,789.06,54.81,782.69,-5.74,-16.52,29.27
250387,2023-01-20 11:02:29.519914,2023-01-20 11:02:29.400000,871078259,471767400,2245,39.8042022,32.3807087,789.09,54.84,782.52,-3.14,-18.44,28.6
251077,2023-01-20 11:02:31.679897,2023-01-20 11:02:31.600000,873238258,471769600,2245,39.8043195,32.3807967,788.99,54.74,782.1,-2.29,-17.35,29.99
251793,2023-01-20 11:02:33.800242,2023-01-20 11:02:33.800000,875378509,471771800,2245,39.8044358,32.3808856,788.88,54.63,782.27,-3.25,-15.46,30.44
252514,2023-01-20 11:02:36.000217,2023-01-20 11:02:36.000000,877578587,471774000,2245,39.8045534,32.3809748,789.17,54.92,782.3,-3.53,-20.5,32.06
253200,2023-01-20 11:02:38.099921,2023-01-20 11:02:38.000000,879678261,471776000,2245,39.8046719,32.3810607,789.15,54.9,782.78,-2.08,-17.49,31.88
253940,2023-01-20 11:02:40.219938,2023-01-20 11:02:40.200000,881798262,471778200,2245,39.8047889,32.3811482,789.17,54.92,783.11,-2.84,-17.3,28.79
254624,2023-01-20 11:02:42.340062,2023-01-20 11:02:42.200000,883938256,471780200,2245,39.8049061,32.3812364,789.07,54.82,784.19,-2.26,-16.38,31.54
255345,2023-01-20 11:02:44.539962,2023-01-20 11:02:44.400000,886138258,471782400,2245,39.8050231,32.3813241,789.26,55.01,784.2,-2.43,-19.25,29.92
256033,2023-01-20 11:02:46.660008,2023-01-20 11:02:46.600000,888258324,471784600,2245,39.8051399,32.3814124,789.24,54.99,784.07,-4,-18.03,30.86
256750,2023-01-20 11:02:48.839916,2023-01-20 11:02:48.800000,890438255,471786800,2245,39.8052567,32.3815015,789.29,55.04,783.34,-4.04,-19.11,31.62
257436,2023-01-20 11:02:50.920302,2023-01-20 11:02:50.800000,892518649,471788800,2245,39.8053749,32.3815863,789.22,54.97,782.97,-2.28,-17.91,31.15
258156,2023-01-20 11:02:53.079585,2023-01-20 11:02:53.000000,894698250,471791000,2245,39.8054921,32.3816755,789.21,54.96,782.39,-1.53,-20.29,31.55
258850,2023-01-20 11:02:55.219561,2023-01-20 11:02:55.200000,896838289,471793200,2245,39.8056091,32.3817647,789.28,55.03,782.04,-3.35,-18.29,31.09
259616,2023-01-20 11:02:57.439561,2023-01-20 11:02:57.400000,899058292,471795400,2245,39.8057259,32.3818528,789.32,55.07,782.41,-3.38,-7.49,28.64
261077,2023-01-20 11:03:01.860070,2023-01-20 11:03:01.800000,903498251,471799800,2245,39.8058434,32.3819391,789.21,54.96,784.47,-3.64,-8.69,29.86
262609,2023-01-20 11:03:06.580392,2023-01-20 11:03:06.400000,908218723,471804400,2245,39.8059291,32.3818036,789.03,54.78,785.63,6.73,-10.31,298.75
263721,2023-01-20 11:03:10.000234,2023-01-20 11:03:10.000000,911638659,471808000,2245,39.8059826,32.3816424,789.28,55.03,785.28,-9.99,-1.22,254.28
264889,2023-01-20 11:03:13.532068,2023-01-20 11:03:13.400000,915190449,471811400,2245,39.8059137,32.3815837,789.12,54.87,784.55,-1.61,3.62,210.87
269692,2023-01-20 11:03:28.379915,2023-01-20 11:03:28.200000,930058256,471826200,2245,39.8058239,32.3814516,789.12,54.87,784.27,5.28,-7.54,207.53
270443,2023-01-20 11:03:30.600226,2023-01-20 11:03:30.600000,932278517,471828600,2245,39.805745,32.3813094,788.98,54.73,784.08,3.08,-1.73,208.11
271130,2023-01-20 11:03:32.739993,2023-01-20 11:03:32.600000,934438249,471830600,2245,39.8056656,32.3811659,788.82,54.57,783.89,2.19,-1.36,208.78
271896,2023-01-20 11:03:34.939921,2023-01-20 11:03:34.800000,936638260,471832800,2245,39.8055905,32.3810195,788.9,54.65,783.88,0,-2.59,209.26
272614,2023-01-20 11:03:37.099911,2023-01-20 11:03:37.000000,938798245,471835000,2245,39.8055092,32.3808778,788.74,54.49,783.24,0.56,-1.67,209.4
273331,2023-01-20 11:03:39.279965,2023-01-20 11:03:39.200000,940978283,471837200,2245,39.8054346,32.3807309,788.75,54.5,783.5,-0.13,-1.7,209.46
274021,2023-01-20 11:03:41.400322,2023-01-20 11:03:41.400000,943118885,471839400,2245,39.8053546,32.3805894,788.78,54.53,783.16,0.71,-2.01,208.06
274708,2023-01-20 11:03:43.539551,2023-01-20 11:03:43.400000,945258287,471841400,2245,39.8052739,32.3804474,788.73,54.48,782.46,1.84,-1.92,209.52
275426,2023-01-20 11:03:45.679501,2023-01-20 11:03:45.600000,947398249,471843600,2245,39.8051952,32.3803032,788.62,54.37,781.62,2.09,-0.08,211.44
276145,2023-01-20 11:03:47.879540,2023-01-20 11:03:47.800000,949598275,471845800,2245,39.8051199,32.380157,788.74,54.49,781.4,1.79,-2.36,210.94
276837,2023-01-20 11:03:50.022357,2023-01-20 11:03:50.000000,951758321,471848000,2245,39.8050413,32.3800127,788.78,54.53,780.96,1.69,-2.09,208.4
277601,2023-01-20 11:03:52.180668,2023-01-20 11:03:52.000000,953918933,471850000,2245,39.8049632,32.379869,788.83,54.58,781,1.93,-2.51,208.24
278291,2023-01-20 11:03:54.320006,2023-01-20 11:03:54.200000,956058314,471852200,2245,39.8048842,32.3797253,788.81,54.56,780.41,1.5,-1.45,208.94
279010,2023-01-20 11:03:56.480431,2023-01-20 11:03:56.400000,958218734,471854400,2245,39.8048069,32.379581,788.8,54.55,780.72,2.16,-2.56,208.26
279698,2023-01-20 11:03:58.620004,2023-01-20 11:03:58.600000,960358334,471856600,2245,39.8047288,32.3794371,788.72,54.47,780.53,2.08,-1.04,208.67
280413,2023-01-20 11:04:00.720111,2023-01-20 11:04:00.600000,962478241,471858600,2245,39.8046492,32.3792955,788.68,54.43,780.39,3.02,0.83,208.35
281104,2023-01-20 11:04:02.899912,2023-01-20 11:04:02.800000,964658279,471860800,2245,39.8045719,32.3791506,788.82,54.57,779.13,2.3,-1.2,209.34
281823,2023-01-20 11:04:05.039857,2023-01-20 11:04:05.000000,966798232,471863000,2245,39.8044944,32.3790069,789.02,54.77,778.6,1.63,-0.03,207.89
282571,2023-01-20 11:04:07.319886,2023-01-20 11:04:07.200000,969078229,471865200,2245,39.8044182,32.3788622,788.93,54.68,777.88,-5.41,10.85,209.12
