LineNo,UTC_Approx,TimeUS,RMSRollP,RMSRollD,RMSPitchP,RMSPitchD,RMSYaw
385,2023-01-20 10:49:56.259367,116248392,0.0237801,0.0001800214,0.002885513,0.000380325,0.01230962
973,2023-01-20 10:49:56.350368,116348442,0.02365853,0.0001738013,0.004230857,0.0004858779,0.05649159
1131,2023-01-20 10:49:56.452373,116454914,0.02349325,0.0001948173,0.006036442,0.0005653239,0.1344884
1350,2023-01-20 10:49:56.565015,116566547,0.02330241,0.0002008478,0.008070241,0.0006117848,0.2360408
1570,2023-01-20 10:49:56.665874,116667341,0.02308958,0.0002180545,0.01020306,0.0006315504,0.349595
1890,2023-01-20 10:49:56.765475,116767316,0.02287945,0.0002145695,0.01242369,0.0006387486,0.458753
1935,2023-01-20 10:49:56.865361,116867332,0.02264884,0.00021236,0.01469959,0.0006586582,0.5581123
1983,2023-01-20 10:49:56.965329,116967301,0.02242877,0.0001982485,0.01681482,0.0005979669,0.6491717
2033,2023-01-20 10:49:57.065368,117067327,0.02225661,0.0001948109,0.0180991,0.0005058193,0.7199046
2079,2023-01-20 10:49:57.165405,117167343,0.02213001,0.0001829274,0.01890402,0.0004494353,0.7665151
2129,2023-01-20 10:49:57.272574,117267298,0.02201675,0.0001760685,0.01956698,0.0003761196,0.800451
2188,2023-01-20 10:49:57.383652,117367346,0.02192409,0.0001747019,0.02001181,0.0003193916,0.8242456
2244,2023-01-20 10:49:57.477530,117467350,0.02186067,0.0001790972,0.02032189,0.0002746377,0.8402914
2303,2023-01-20 10:49:57.568399,117567301,0.02179812,0.0001938848,0.02052534,0.0002522836,0.8509914
2359,2023-01-20 10:49:57.665260,117667334,0.02175092,0.000184923,0.02064544,0.0002141445,0.858148
2417,2023-01-20 10:49:57.765285,117767382,0.02173686,0.0001724313,0.02071942,0.0002021439,0.8629256
2460,2023-01-20 10:49:57.865202,117867326,0.02171365,0.0001525838,0.02076738,0.0002008396,0.8661009
2505,2023-01-20 10:49:57.965148,117967302,0.02171267,0.0001455252,0.02078431,0.0001831105,0.8682197
2544,2023-01-20 10:49:58.065254,118067364,0.02171908,0.0001502642,0.02078392,0.0001643492,0.8696588
2586,2023-01-20 10:49:58.165315,118167343,0.02181557,0.0004903941,0.0201608,0.004661872,0.8660526
2626,2023-01-20 10:49:58.265287,118267306,0.02243743,0.000468775,0.01655615,0.004178406,0.7514634
2666,2023-01-20 10:49:58.365277,118367326,0.02275815,0.0005644248,0.01362587,0.003538607,0.6190407
2705,2023-01-20 10:49:58.465302,118467363,0.02301824,0.0008979728,0.01123354,0.003062516,0.5067989
2746,2023-01-20 10:49:58.565242,118567305,0.02318868,0.001064,0.009311317,0.002674536,0.4145773
2788,2023-01-20 10:49:58.665266,118667347,0.02329795,0.001012178,0.007753236,0.002311544,0.3390981
2827,2023-01-20 10:49:58.765265,118767373,0.02338648,0.0009631736,0.006491973,0.001948483,0.2773556
2871,2023-01-20 10:49:58.865218,118867334,0.02345598,0.0009355804,0.005477123,0.001650118,0.2268547
2910,2023-01-20 10:49:58.965189,118967303,0.02350136,0.0008746089,0.004667413,0.00140099,0.1855486
2949,2023-01-20 10:49:59.065264,119067361,0.02352234,0.001062872,0.004067313,0.001555112,0.151762
2990,2023-01-20 10:49:59.165267,119167337,0.02355069,0.002135021,0.003776448,0.00341878,0.1241301
3029,2023-01-20 10:49:59.265238,119267300,0.02351077,0.003351005,0.003478127,0.003656764,0.1015273
3068,2023-01-20 10:49:59.365272,119367335,0.023541,0.00301789,0.00322272,0.003690596,0.0830405
3108,2023-01-20 10:49:59.465279,119467346,0.02356379,0.002946125,0.002963988,0.003357141,0.06791966
3149,2023-01-20 10:49:59.565236,119567307,0.02357598,0.002893984,0.002768114,0.002959925,0.05555236
3190,2023-01-20 10:49:59.665282,119667366,0.02360876,0.002954208,0.002635463,0.00279574,0.04543754
3229,2023-01-20 10:49:59.765274,119767377,0.02360115,0.00291596,0.002652203,0.002940004,0.03716524
3268,2023-01-20 10:49:59.865204,119867316,0.02358175,0.002986886,0.002616657,0.003147785,0.03039992
3307,2023-01-20 10:49:59.965199,119967316,0.0236463,0.002945202,0.002581277,0.003464547,0.02486575
3346,2023-01-20 10:50:00.065235,120067336,0.02365622,0.00269693,0.002622301,0.003792632,0.02033863
3388,2023-01-20 10:50:00.165262,120167336,0.02370035,0.00250901,0.002575055,0.003797483,0.01663627
3427,2023-01-20 10:50:00.265238,120267308,0.0237486,0.0025349,0.002473704,0.003522035,0.0136097
3466,2023-01-20 10:50:00.365249,120367327,0.02373358,0.002935682,0.002444227,0.003274915,0.01113624
3506,2023-01-20 10:50:00.465232,120467308,0.02371814,0.003061812,0.00238878,0.003064771,0.00911451
3546,2023-01-20 10:50:00.565243,120567312,0.02377982,0.003029436,0.002360052,0.003095124,0.007460493
3589,2023-01-20 10:50:00.665255,120667330,0.02379714,0.00302822,0.002477017,0.00355844,0.006105461
3628,2023-01-20 10:50:00.765283,120767370,0.02382674,0.003055269,0.002454639,0.00383298,0.004997084
3669,2023-01-20 10:50:00.865215,120867318,0.02392952,0.002890639,0.00232461,0.003499089,0.004092378
3706,2023-01-20 10:50:00.965183,120967305,0.02390753,0.002974116,0.002284385,0.00321148,0.003359973
3738,2023-01-20 10:50:01.065269,121067393,0.02393262,0.002990378,0.00224881,0.003000057,0.002765096
3771,2023-01-20 10:50:01.165280,121167397,0.02437962,0.003689729,0.004425102,0.00365876,0.002281641
3803,2023-01-20 10:50:01.265222,121267372,0.02496241,0.003771177,0.005499073,0.004297772,0.001881699
3834,2023-01-20 10:50:01.365224,121367428,0.02460095,0.003820663,0.006462545,0.005457914,0.001549078
3866,2023-01-20 10:50:01.465164,121467353,0.02392963,0.009999924,0.00893677,0.01384527,0.001282738
3899,2023-01-20 10:50:01.565220,121567358,0.02255055,0.01149726,0.01082045,0.01620933,0.001099529
3934,2023-01-20 10:50:01.665318,121667437,0.02183123,0.01106968,0.01242336,0.01675011,0.001059723
3965,2023-01-20 10:50:01.765556,121767673,0.02209014,0.0116311,0.01114573,0.01660784,0.00508825
3998,2023-01-20 10:50:01.865501,121867667,0.0236916,0.0148385,0.01181857,0.01646024,0.007332993
4030,2023-01-20 10:50:01.965460,121967701,0.02111936,0.01436563,0.01439283,0.01811149,0.01450248
4062,2023-01-20 10:50:02.065449,122067673,0.01748394,0.01310898,0.02059944,0.02115465,0.01821807
4095,2023-01-20 10:50:02.165530,122167688,0.01706664,0.01396996,0.02207053,0.02873591,0.01952798
4127,2023-01-20 10:50:02.265586,122267722,0.0162067,0.01516406,0.01971262,0.03274801,0.01902037
4158,2023-01-20 10:50:02.365520,122367658,0.01645268,0.01422207,0.01766424,0.0325605,0.01755275
4190,2023-01-20 10:50:02.465256,122467655,0.01452663,0.01719098,0.01713519,0.0351125,0.01681413
4223,2023-01-20 10:50:02.564641,122567437,0.01585983,0.01796772,0.01636614,0.03510198,0.01922429
4259,2023-01-20 10:50:02.664484,122667397,0.01777993,0.01604957,0.01611885,0.03281338,0.02502056
4289,2023-01-20 10:50:02.764517,122767393,0.01648843,0.01957068,0.01408145,0.02820391,0.03158521
4324,2023-01-20 10:50:02.864552,122867431,0.01414715,0.01843581,0.01364878,0.03038822,0.03717652
4354,2023-01-20 10:50:02.964468,122967372,0.01352314,0.02109393,0.0123268,0.02814557,0.0403841
4387,2023-01-20 10:50:03.064493,123067407,0.0137094,0.02330408,0.01311323,0.02663089,0.04124103
4419,2023-01-20 10:50:03.164564,123167480,0.01476853,0.02301468,0.01205458,0.02342482,0.03962945
4452,2023-01-20 10:50:03.264466,123267379,0.01410965,0.02127967,0.01364673,0.02765194,0.0366744
4482,2023-01-20 10:50:03.364478,123367386,0.01483638,0.01801407,0.01770175,0.03057198,0.03493946
4515,2023-01-20 10:50:03.464485,123467382,0.01243463,0.01515877,0.0188042,0.03333842,0.03669817
4547,2023-01-20 10:50:03.564476,123567360,0.01072514,0.01547427,0.01878781,0.03662965,0.04164739
4583,2023-01-20 10:50:03.664523,123667404,0.01261105,0.02368185,0.0166281,0.03246344,0.04942955
4613,2023-01-20 10:50:03.764515,123767400,0.01202215,0.02295967,0.0174544,0.0374486,0.05749888
4647,2023-01-20 10:50:03.864707,123867392,0.0124878,0.02561444,0.01661218,0.03778384,0.0638878
4679,2023-01-20 10:50:03.965042,123967416,0.01249544,0.02494539,0.01652254,0.0405268,0.06824307
4712,2023-01-20 10:50:04.065156,124067377,0.01166335,0.02541687,0.01537574,0.03858401,0.06988565
4744,2023-01-20 10:50:04.165254,124167407,0.01107155,0.02548509,0.01655019,0.03780855,0.06725379
4777,2023-01-20 10:50:04.265295,124267428,0.01075953,0.02508361,0.01584398,0.03414254,0.06234532
4807,2023-01-20 10:50:04.365260,124367397,0.009829046,0.02253829,0.01594075,0.03470827,0.05691394
4840,2023-01-20 10:50:04.465199,124467364,0.01209906,0.02610433,0.01419555,0.0295282,0.05186966
4873,2023-01-20 10:50:04.565173,124567378,0.01148053,0.02481236,0.01342922,0.0261457,0.04642327
4909,2023-01-20 10:50:04.665209,124667400,0.01138607,0.02455226,0.01195518,0.02504758,0.04099982
4939,2023-01-20 10:50:04.765247,124767396,0.01398242,0.02181041,0.01277397,0.02897718,0.03519411
4973,2023-01-20 10:50:04.865263,124867428,0.01810138,0.01853815,0.01380284,0.03059261,0.02894761
5003,2023-01-20 10:50:04.965164,124967377,0.0167595,0.01707598,0.01385834,0.02944993,0.02381403
5036,2023-01-20 10:50:05.065202,125067399,0.01452623,0.01570697,0.01447522,0.02975501,0.02019488
5068,2023-01-20 10:50:05.165249,125167398,0.01408538,0.01597642,0.01481076,0.03251275,0.02297497
5101,2023-01-20 10:50:05.265236,125267371,0.01477726,0.01959252,0.01390681,0.03069399,0.03289063
5131,2023-01-20 10:50:05.365584,125367724,0.01358594,0.01969193,0.01544306,0.03362492,0.04269572
5164,2023-01-20 10:50:05.465236,125467369,0.01247806,0.02098592,0.01359299,0.02927768,0.04843239
5196,2023-01-20 10:50:05.565263,125567382,0.01162246,0.023401,0.01269019,0.02799417,0.0492232
5233,2023-01-20 10:50:05.665287,125667399,0.01099018,0.02404669,0.0118243,0.02492723,0.04564672
5263,2023-01-20 10:50:05.765569,125767679,0.01075904,0.02376567,0.01289932,0.02791558,0.03940857
5297,2023-01-20 10:50:05.859622,125867682,0.01103735,0.02535339,0.01747783,0.0254423,0.0324242
5327,2023-01-20 10:50:05.950520,125967652,0.01269465,0.02464517,0.01837795,0.02210483,0.02756695
5360,2023-01-20 10:50:06.045626,126067680,0.01239928,0.0258189,0.0188535,0.02396808,0.02862276
5392,2023-01-20 10:50:06.145383,126167401,0.01952467,0.0290929,0.01966,0.02483758,0.03679903
5425,2023-01-20 10:50:06.244822,126267380,0.02273603,0.02831287,0.01881063,0.02467328,0.04755524
5457,2023-01-20 10:50:06.343839,126367636,0.0233172,0.02884204,0.02013073,0.03027686,0.05435657
5490,2023-01-20 10:50:06.442869,126467373,0.02060534,0.02641554,0.02029012,0.03271978,0.05278093
5522,2023-01-20 10:50:06.542865,126567381,0.02168207,0.02711725,0.01998416,0.03329496,0.04685691
5558,2023-01-20 10:50:06.642896,126667447,0.01998667,0.02673171,0.01870731,0.02912225,0.04051492
5588,2023-01-20 10:50:06.742773,126767388,0.01944882,0.0269141,0.01947699,0.02519423,0.0354236
5622,2023-01-20 10:50:06.842697,126867387,0.01749965,0.02821894,0.01903152,0.0244345,0.03366363
5652,2023-01-20 10:50:06.942613,126967393,0.02059772,0.03755236,0.01688661,0.02396982,0.0372793
5685,2023-01-20 10:50:07.042603,127067442,0.01813646,0.03287237,0.01789674,0.02460282,0.04527577
5717,2023-01-20 10:50:07.142531,127167388,0.01702799,0.03428518,0.01730747,0.02921175,0.05257123
5750,2023-01-20 10:50:07.242534,127267374,0.01589341,0.03326939,0.01684511,0.02878275,0.05668654
5780,2023-01-20 10:50:07.342881,127367658,0.01500776,0.03319153,0.01575314,0.02617193,0.05699801
5813,2023-01-20 10:50:07.442580,127467358,0.01289156,0.02837519,0.01409529,0.02468053,0.05530582
5845,2023-01-20 10:50:07.542505,127567369,0.01257478,0.02721035,0.01289646,0.02340139,0.05323349
5881,2023-01-20 10:50:07.647276,127667401,0.01156101,0.02654154,0.01272762,0.02377771,0.05102241
5911,2023-01-20 10:50:07.758522,127767376,0.01081342,0.02560639,0.0118858,0.02432548,0.04946035
5945,2023-01-20 10:50:07.856954,127867386,0.009530326,0.02265058,0.01160779,0.02578739,0.04801971
5977,2023-01-20 10:50:07.947747,127967392,0.01039123,0.02243859,0.0123137,0.02574259,0.04615115
6010,2023-01-20 10:50:08.042432,128067388,0.01056711,0.02421102,0.01197722,0.02463604,0.0440269
6042,2023-01-20 10:50:08.142479,128167453,0.008966744,0.02074687,0.01137794,0.02336659,0.04169396
6075,2023-01-20 10:50:08.242395,128267362,0.008268524,0.01950409,0.01021094,0.02219173,0.03886624
6105,2023-01-20 10:50:08.342746,128367671,0.008968215,0.02299342,0.01201297,0.02007406,0.0338302
6138,2023-01-20 10:50:08.442467,128467371,0.008144969,0.0209406,0.01375976,0.02234894,0.0278972
6170,2023-01-20 10:50:08.542467,128567377,0.007504244,0.01827701,0.01283993,0.02153458,0.02303988
6206,2023-01-20 10:50:08.642482,128667400,0.007097203,0.01715609,0.01284186,0.02714795,0.01920876
6236,2023-01-20 10:50:08.742461,128767387,0.008387129,0.02210802,0.01208436,0.02635324,0.01584913
6270,2023-01-20 10:50:08.842538,128867427,0.008704359,0.02362756,0.01021218,0.02183218,0.0134407
6303,2023-01-20 10:50:08.942575,128967366,0.009636496,0.02532732,0.009844225,0.01964705,0.01468579
6336,2023-01-20 10:50:09.042678,129067397,0.01140103,0.02332847,0.0108925,0.02102771,0.01868707
6368,2023-01-20 10:50:09.142717,129167397,0.01207149,0.02007323,0.01254831,0.02349822,0.02094149
6401,2023-01-20 10:50:09.242635,129267370,0.01347036,0.02313029,0.01730281,0.02310769,0.01950135
6431,2023-01-20 10:50:09.342738,129367653,0.0155862,0.02139409,0.01589842,0.02221747,0.01630585
6464,2023-01-20 10:50:09.442447,129467989,0.01650553,0.01854381,0.016662,0.02493533,0.0138326
6496,2023-01-20 10:50:09.541293,129568055,0.01499542,0.01684557,0.02188627,0.02816083,0.01631379
6532,2023-01-20 10:50:09.640578,129668065,0.01311834,0.01810442,0.02264539,0.02742118,0.02524913
6562,2023-01-20 10:50:09.740559,129768047,0.01134013,0.01661237,0.02435088,0.02616939,0.03468742
6596,2023-01-20 10:50:09.840619,129868117,0.01057116,0.01971909,0.02395249,0.02523121,0.04147296
6627,2023-01-20 10:50:09.940551,129968071,0.01091538,0.02501257,0.0225296,0.02171998,0.04627448
6660,2023-01-20 10:50:10.040562,130068085,0.01028446,0.02240681,0.02450489,0.02404183,0.04829417
6692,2023-01-20 10:50:10.140646,130168144,0.01110724,0.0253418,0.02252609,0.02332499,0.04950913
6725,2023-01-20 10:50:10.240470,130268058,0.01163471,0.0268018,0.01911467,0.02161343,0.05166012
6755,2023-01-20 10:50:10.340309,130368155,0.01244735,0.02632358,0.01593277,0.01918718,0.05325491
6788,2023-01-20 10:50:10.440065,130468077,0.01169278,0.0239969,0.01501037,0.02516742,0.05353986
6820,2023-01-20 10:50:10.540057,130568096,0.01215229,0.02826072,0.01406654,0.02397288,0.05200943
6856,2023-01-20 10:50:10.640060,130668122,0.01052244,0.02505811,0.01336041,0.02693098,0.04965645
6886,2023-01-20 10:50:10.740006,130768086,0.01106854,0.02690697,0.01554776,0.02666466,0.04617993
6920,2023-01-20 10:50:10.840081,130868208,0.01139953,0.02962358,0.02175176,0.023859,0.04186616
6950,2023-01-20 10:50:10.939891,130968106,0.01048999,0.0273414,0.01977921,0.02029074,0.03750915
6983,2023-01-20 10:50:11.039891,131068125,0.009627311,0.02486064,0.01906038,0.01817019,0.03276575
7015,2023-01-20 10:50:11.140060,131168207,0.01087428,0.02883587,0.02243945,0.01726274,0.02735876
7049,2023-01-20 10:50:11.239994,131268092,0.01314843,0.02711445,0.02133761,0.01674817,0.02241854
7079,2023-01-20 10:50:11.340000,131368105,0.01324283,0.02815229,0.02132437,0.02037163,0.01904609
7112,2023-01-20 10:50:11.439981,131468087,0.01515774,0.02964967,0.01924163,0.02080282,0.01830991
7143,2023-01-20 10:50:11.539994,131568095,0.01457983,0.028302,0.01755353,0.02047089,0.02022796
7179,2023-01-20 10:50:11.640019,131668116,0.01359986,0.02844305,0.01749167,0.02147219,0.0232775
7209,2023-01-20 10:50:11.739992,131768090,0.01631741,0.02443844,0.02022329,0.02398736,0.02453069
7243,2023-01-20 10:50:11.840022,131868150,0.01553984,0.0235171,0.01994236,0.02313306,0.02332544
7273,2023-01-20 10:50:11.939887,131968090,0.01508996,0.02328069,0.01791743,0.02354052,0.02023815
7306,2023-01-20 10:50:12.039908,132068124,0.01499663,0.02421911,0.01622945,0.02548045,0.01682591
7338,2023-01-20 10:50:12.140090,132168224,0.01369689,0.02428815,0.01549765,0.0266175,0.0186948
7371,2023-01-20 10:50:12.240012,132268099,0.0117736,0.02083795,0.01569498,0.02604348,0.02721113
7401,2023-01-20 10:50:12.340023,132368114,0.01372655,0.01827294,0.02016581,0.02485745,0.03339693
7434,2023-01-20 10:50:12.439983,132468079,0.01419797,0.01878722,0.01982203,0.0215064,0.03436692
7466,2023-01-20 10:50:12.539989,132568092,0.01285731,0.02105029,0.01748399,0.01863749,0.03307418
7502,2023-01-20 10:50:12.640018,132668122,0.01300819,0.01970428,0.01611586,0.01779021,0.03173914
7532,2023-01-20 10:50:12.739989,132768082,0.01353145,0.0217176,0.02187322,0.01950063,0.03162442
7566,2023-01-20 10:50:12.839988,132868104,0.01458177,0.02332881,0.02491205,0.02146805,0.03036265
7597,2023-01-20 10:50:12.939919,132968109,0.01358188,0.02526391,0.02329861,0.02354841,0.02573856
7630,2023-01-20 10:50:13.039896,133068100,0.01349475,0.02962564,0.02099436,0.02380987,0.02129252
7662,2023-01-20 10:50:13.140104,133168234,0.01205057,0.02774426,0.02182601,0.026057,0.01803556
7695,2023-01-20 10:50:13.239999,133268086,0.01351797,0.02821095,0.02199704,0.0229989,0.01518057
7725,2023-01-20 10:50:13.340011,133368101,0.0142983,0.02708455,0.02234196,0.02235569,0.01395046
7758,2023-01-20 10:50:13.439992,133468084,0.01522943,0.02664043,0.02018264,0.01949773,0.0294688
7790,2023-01-20 10:50:13.540008,133568099,0.01442432,0.02492444,0.01799967,0.018173,0.04935535
7826,2023-01-20 10:50:13.640022,133668114,0.0160317,0.0233476,0.01824501,0.01861286,0.06449387
7856,2023-01-20 10:50:13.739994,133768087,0.01739928,0.02637137,0.01842298,0.02011605,0.07344712
7890,2023-01-20 10:50:13.840001,133868128,0.01654515,0.02630397,0.02170888,0.0300016,0.07428654
7922,2023-01-20 10:50:13.939888,133968098,0.01629154,0.03114876,0.02766036,0.03052578,0.07002599
7955,2023-01-20 10:50:14.039890,134068121,0.01832887,0.03272743,0.03086161,0.02761281,0.06478471
7987,2023-01-20 10:50:14.140063,134168220,0.01689502,0.03326577,0.02654086,0.02724888,0.05794474
8020,2023-01-20 10:50:14.239969,134268079,0.01661815,0.03140911,0.02449395,0.0287528,0.05040065
8050,2023-01-20 10:50:14.340012,134368114,0.01425956,0.02709791,0.02375289,0.02952536,0.04295916
8083,2023-01-20 10:50:14.439998,134468096,0.01261572,0.02514125,0.02076328,0.02573276,0.03676851
8116,2023-01-20 10:50:14.539993,134568091,0.0121442,0.027525,0.0198511,0.02415456,0.03151693
8152,2023-01-20 10:50:14.640012,134668110,0.01111384,0.02654128,0.01946021,0.02721496,0.02653006
8182,2023-01-20 10:50:14.740024,134768122,0.01114555,0.02815565,0.02200642,0.03041239,0.02176715
8216,2023-01-20 10:50:14.839988,134868120,0.01079662,0.02549984,0.02019801,0.02987982,0.01809181
8246,2023-01-20 10:50:14.939884,134968100,0.01127071,0.02385856,0.01741489,0.02694138,0.01495071
8279,2023-01-20 10:50:15.039872,135068112,0.01033672,0.02327755,0.01759834,0.02485493,0.0126218
8311,2023-01-20 10:50:15.140036,135168211,0.01137622,0.02453321,0.01867476,0.02438533,0.01380541
8344,2023-01-20 10:50:15.239960,135268088,0.01082574,0.02303256,0.01648664,0.02606592,0.016913
8374,2023-01-20 10:50:15.340012,135368120,0.01031318,0.02398975,0.01504389,0.02257465,0.0183213
8407,2023-01-20 10:50:15.440030,135468127,0.009510376,0.02271766,0.01472769,0.02259093,0.01857598
8439,2023-01-20 10:50:15.539989,135568089,0.009924513,0.02552887,0.01609087,0.02189122,0.01756343
8475,2023-01-20 10:50:15.640016,135668117,0.01002223,0.02319205,0.01660254,0.02376138,0.01486147
8505,2023-01-20 10:50:15.739998,135768097,0.01145618,0.02301103,0.01671717,0.02366315,0.01662673
8539,2023-01-20 10:50:15.840009,135868119,0.010662,0.02390161,0.01527281,0.02227691,0.02673482
8569,2023-01-20 10:50:15.939979,135968119,0.009493582,0.02187981,0.01624558,0.01979738,0.04177728
8602,2023-01-20 10:50:16.039975,136068122,0.008301578,0.01962867,0.01594413,0.01865772,0.05265895
8634,2023-01-20 10:50:16.140018,136168133,0.008344721,0.01762952,0.01432237,0.01861287,0.05711383
8667,2023-01-20 10:50:16.239970,136268089,0.0120737,0.01640065,0.01327387,0.01838917,0.05524211
8697,2023-01-20 10:50:16.339920,136368093,0.01639168,0.01529164,0.01407804,0.01700578,0.04949462
8730,2023-01-20 10:50:16.439903,136468086,0.01969377,0.01410956,0.01360549,0.01741435,0.04224361
8762,2023-01-20 10:50:16.540010,136568135,0.0198371,0.01293008,0.01222418,0.01897828,0.03571435
8798,2023-01-20 10:50:16.640015,136668106,0.0225921,0.01552617,0.01095448,0.01890161,0.03069084
8828,2023-01-20 10:50:16.739996,136768090,0.02269794,0.01418828,0.01073572,0.01939077,0.02778115
8862,2023-01-20 10:50:16.840008,136868113,0.02615314,0.01460103,0.009305251,0.01659083,0.02832788
8892,2023-01-20 10:50:16.939959,136968087,0.02627278,0.0143098,0.00828092,0.01632734,0.0327288
8925,2023-01-20 10:50:17.039964,137068095,0.03037169,0.01378602,0.009513156,0.01965393,0.03823748
8957,2023-01-20 10:50:17.140040,137168142,0.03325843,0.01409027,0.009099899,0.01900392,0.04317678
8990,2023-01-20 10:50:17.240047,137268135,0.03145112,0.01303711,0.009893017,0.02001708,0.05254993
9020,2023-01-20 10:50:17.340038,137368135,0.02945319,0.01385648,0.01041195,0.0209311,0.0637976
9053,2023-01-20 10:50:17.439993,137468091,0.02794356,0.01372493,0.009855569,0.02181244,0.07117364
9085,2023-01-20 10:50:17.539997,137568084,0.03012879,0.01327811,0.01100528,0.02098865,0.07380706
9121,2023-01-20 10:50:17.640126,137668206,0.03035583,0.01297087,0.01316795,0.02635404,0.0731248
9151,2023-01-20 10:50:17.740016,137768097,0.03103319,0.01347658,0.01349989,0.02693773,0.06925074
9185,2023-01-20 10:50:17.836464,137868112,0.03467886,0.01471334,0.01561806,0.03192826,0.06399339
9215,2023-01-20 10:50:17.927537,137968090,0.03521127,0.0127166,0.01441677,0.02960639,0.05826511
9249,2023-01-20 10:50:18.022718,138068143,0.03922312,0.01215292,0.01564374,0.02528898,0.05291886
9281,2023-01-20 10:50:18.133478,138168108,0.0373059,0.01397657,0.01915477,0.02337527,0.04820564
9314,2023-01-20 10:50:18.239959,138268089,0.03519375,0.016893,0.01866745,0.02125435,0.04327703
9344,2023-01-20 10:50:18.340119,138368208,0.03283541,0.01843506,0.02077062,0.02115401,0.03763838
9377,2023-01-20 10:50:18.436456,138468081,0.03293804,0.01664392,0.02807433,0.02296408,0.03294926
9409,2023-01-20 10:50:18.527560,138568083,0.03175044,0.02505508,0.03446266,0.023277,0.04752663
9445,2023-01-20 10:50:18.620507,138668111,0.03139798,0.0255907,0.04118584,0.0259513,0.06268103
9475,2023-01-20 10:50:18.720465,138768103,0.02785396,0.02609984,0.04272847,0.0324938,0.06963361
9509,2023-01-20 10:50:18.820422,138868094,0.02479928,0.0244575,0.04137917,0.02919039,0.06882941
9541,2023-01-20 10:50:18.920384,138968092,0.02196777,0.02852265,0.03921936,0.02984605,0.05817195
9574,2023-01-20 10:50:19.020413,139068143,0.02061692,0.02998455,0.03421427,0.03041426,0.0602923
9606,2023-01-20 10:50:19.120474,139168168,0.01904292,0.02560146,0.02866719,0.02790872,0.06001519
9639,2023-01-20 10:50:19.220411,139268082,0.01658316,0.02521611,0.02636711,0.02625512,0.04967535
9669,2023-01-20 10:50:19.320413,139368110,0.01456766,0.0229797,0.02396782,0.02621131,0.04149026
9702,2023-01-20 10:50:19.420384,139468112,0.0151498,0.02399709,0.02354841,0.0276756,0.03541453
9734,2023-01-20 10:50:19.520321,139568102,0.01546208,0.02447258,0.02171094,0.02856908,0.03042912
9770,2023-01-20 10:50:19.620291,139668115,0.01423406,0.02424117,0.02047961,0.02760201,0.02597993
9800,2023-01-20 10:50:19.720256,139768082,0.01495875,0.02865244,0.01913824,0.03089699,0.02165396
9834,2023-01-20 10:50:19.820261,139868092,0.01598961,0.03288419,0.02051059,0.0280958,0.01782054
9864,2023-01-20 10:50:19.920249,139968097,0.01529199,0.03377166,0.01784116,0.02690144,0.01505904
9897,2023-01-20 10:50:20.020345,140068205,0.01401854,0.03023268,0.01794702,0.03059859,0.01284696
9929,2023-01-20 10:50:20.120274,140168124,0.01415733,0.02826691,0.01645801,0.02736409,0.0119677
9962,2023-01-20 10:50:20.220256,140268085,0.01816716,0.03239547,0.01864928,0.02876857,0.01322006
9995,2023-01-20 10:50:20.320333,140368098,0.01704201,0.02798488,0.01996293,0.03261231,0.01297875
10028,2023-01-20 10:50:20.420350,140468065,0.01668495,0.02833048,0.02375048,0.02989545,0.0115876
10060,2023-01-20 10:50:20.520353,140568072,0.01722722,0.0345103,0.02476129,0.02796195,0.009875897
10096,2023-01-20 10:50:20.620422,140668137,0.01684886,0.03615675,0.02222351,0.02891297,0.008112696
10126,2023-01-20 10:50:20.720392,140768069,0.01615341,0.03679971,0.01924059,0.02927818,0.006657782
10160,2023-01-20 10:50:20.820422,140868093,0.01542887,0.0377395,0.01659481,0.02653085,0.007261654
10190,2023-01-20 10:50:20.920279,140968069,0.01387425,0.03425355,0.01643942,0.03409604,0.01194643
10223,2023-01-20 10:50:21.020217,141068091,0.01243575,0.03101825,0.01467094,0.03194701,0.01750108
10255,2023-01-20 10:50:21.120266,141168084,0.011878,0.03016355,0.01398162,0.03274126,0.02152012
10288,2023-01-20 10:50:21.220336,141268115,0.01296197,0.03007663,0.01283544,0.03001944,0.02363223
10318,2023-01-20 10:50:21.320342,141368145,0.01170847,0.02695509,0.01320517,0.03176631,0.02601705
10351,2023-01-20 10:50:21.420246,141468062,0.0111824,0.02725656,0.01572057,0.03063967,0.03028331
10383,2023-01-20 10:50:21.520295,141568075,0.009963386,0.02437623,0.01626754,0.03316559,0.04735819
10419,2023-01-20 10:50:21.620322,141668085,0.009728582,0.02448853,0.01560126,0.0345046,0.08953594
10449,2023-01-20 10:50:21.720251,141768076,0.009547483,0.02429007,0.01467512,0.03441197,0.1331487
10483,2023-01-20 10:50:21.820218,141868095,0.008617965,0.02195175,0.01795692,0.03281331,0.1532498
10513,2023-01-20 10:50:21.920228,141968118,0.009877657,0.02147136,0.0229536,0.03121989,0.1562937
10546,2023-01-20 10:50:22.020201,142068092,0.009023976,0.02093759,0.02733898,0.03066391,0.1500765
10578,2023-01-20 10:50:22.120261,142168101,0.01056352,0.02187063,0.03024442,0.03052054,0.1342037
10611,2023-01-20 10:50:22.220267,142268074,0.01023311,0.0230758,0.03646046,0.03337246,0.1109741
10641,2023-01-20 10:50:22.320272,142368114,0.01104349,0.02466391,0.04368328,0.03060851,0.1047757
10674,2023-01-20 10:50:22.420203,142468064,0.01307012,0.02500036,0.05160114,0.02838779,0.120987
10706,2023-01-20 10:50:22.520253,142568067,0.01415719,0.02150684,0.05371404,0.02710784,0.1401323
10742,2023-01-20 10:50:22.620358,142668138,0.01615111,0.02015383,0.05217045,0.02626925,0.1492943
10772,2023-01-20 10:50:22.720273,142768070,0.01958715,0.01925721,0.04830885,0.02792672,0.1488463
10806,2023-01-20 10:50:22.820264,142868081,0.02178372,0.01870136,0.04641521,0.02480239,0.1407275
10836,2023-01-20 10:50:22.920239,142968088,0.02317248,0.01760077,0.04539529,0.02600359,0.1281644
10869,2023-01-20 10:50:23.020243,143068107,0.02042113,0.01742917,0.04498208,0.03109094,0.1128299
10902,2023-01-20 10:50:23.120326,143168139,0.01967254,0.02065861,0.05212617,0.03039568,0.09733811
10935,2023-01-20 10:50:23.220335,143268113,0.02242389,0.02411039,0.05533437,0.03192464,0.083689
10965,2023-01-20 10:50:23.320294,143368101,0.02301696,0.02536524,0.05521702,0.03432709,0.07204694
10998,2023-01-20 10:50:23.420235,143468062,0.02294825,0.02316993,0.05593367,0.0361257,0.06184014
11030,2023-01-20 10:50:23.520258,143568071,0.02260895,0.02230351,0.05334717,0.04042973,0.05252791
11066,2023-01-20 10:50:23.620309,143668113,0.01921976,0.02317906,0.0509879,0.04113495,0.04440166
11096,2023-01-20 10:50:23.720248,143768066,0.01717776,0.02415811,0.04528231,0.03700251,0.03741837
11130,2023-01-20 10:50:23.820274,143868106,0.01984345,0.02396921,0.04102457,0.03673223,0.03131647
11163,2023-01-20 10:50:23.920279,143968128,0.02018101,0.025397,0.04082865,0.03500648,0.02661363
11196,2023-01-20 10:50:24.020242,144068092,0.01765785,0.02462374,0.04229158,0.03557529,0.02348143
11228,2023-01-20 10:50:24.120304,144168092,0.01686921,0.02771151,0.04021895,0.03537776,0.02134593
11261,2023-01-20 10:50:24.220309,144268061,0.01486906,0.0261782,0.03640005,0.03189555,0.01968902
11291,2023-01-20 10:50:24.320269,144368083,0.01385303,0.02393954,0.03514856,0.03807655,0.01852598
11324,2023-01-20 10:50:24.420209,144468060,0.01500196,0.0268383,0.03384926,0.03484601,0.01756906
11357,2023-01-20 10:50:24.520331,144568116,0.01727455,0.02661639,0.03502666,0.03414903,0.01892437
11394,2023-01-20 10:50:24.620335,144668084,0.01747384,0.02610289,0.03966425,0.04047814,0.02654187
11424,2023-01-20 10:50:24.720236,144768066,0.02165627,0.02843299,0.04240735,0.04048295,0.03275668
11458,2023-01-20 10:50:24.820235,144868130,0.02519422,0.02709178,0.03995512,0.04060773,0.04189276
11489,2023-01-20 10:50:24.920196,144968090,0.02444973,0.02429793,0.03475878,0.04171934,0.0561951
11522,2023-01-20 10:50:25.020211,145068099,0.02063779,0.02381462,0.03001317,0.03642502,0.06477755
11554,2023-01-20 10:50:25.120266,145168125,0.01961451,0.02233698,0.02716371,0.03289882,0.0654144
11588,2023-01-20 10:50:25.220261,145268098,0.01689588,0.02202221,0.02315993,0.02937024,0.06192667
11618,2023-01-20 10:50:25.320259,145368102,0.01824248,0.02355158,0.03466997,0.03120003,0.05559893
11651,2023-01-20 10:50:25.420250,145468095,0.01771601,0.02340962,0.05197619,0.02989412,0.04989652
11683,2023-01-20 10:50:25.520322,145568154,0.02952871,0.02354386,0.05053994,0.03486967,0.04367167
11719,2023-01-20 10:50:25.620296,145668120,0.02690669,0.02578965,0.0464159,0.03294486,0.03590271
11749,2023-01-20 10:50:25.720253,145768089,0.0302272,0.02458474,0.04168275,0.02904363,0.02965593
11782,2023-01-20 10:50:25.820295,145868146,0.02852505,0.02685954,0.03512838,0.02548322,0.02438952
11814,2023-01-20 10:50:25.920214,145968089,0.0260003,0.02505166,0.03463274,0.02797477,0.02019919
11847,2023-01-20 10:50:26.020214,146068100,0.04102828,0.02447897,0.03328747,0.03466812,0.01890527
11879,2023-01-20 10:50:26.120265,146168114,0.04458625,0.02592635,0.03228441,0.03386595,0.02438452
11912,2023-01-20 10:50:26.220255,146268081,0.03791675,0.02647078,0.03378952,0.03708961,0.02768851
11942,2023-01-20 10:50:26.320228,146368090,0.03324164,0.02618221,0.02976698,0.03969099,0.02705735
11975,2023-01-20 10:50:26.420218,146468103,0.02789463,0.02592998,0.02664846,0.03863294,0.02289194
12007,2023-01-20 10:50:26.520253,146568108,0.02479728,0.02606909,0.0268981,0.03781553,0.02174086
12043,2023-01-20 10:50:26.620288,146668120,0.02575155,0.02512954,0.0274071,0.03693465,0.02377176
12073,2023-01-20 10:50:26.720263,146768100,0.0264635,0.02470596,0.02636237,0.03581806,0.02543195
12106,2023-01-20 10:50:26.820378,146868224,0.02524399,0.02393038,0.02997603,0.03281439,0.02996593
12137,2023-01-20 10:50:26.920221,146968091,0.02158451,0.02342626,0.03881394,0.04142546,0.03871692
12170,2023-01-20 10:50:27.020360,147068248,0.02016977,0.02501251,0.04555192,0.03767262,0.04817294
12202,2023-01-20 10:50:27.120246,147168125,0.01968211,0.02537037,0.05004404,0.03253015,0.05621729
12235,2023-01-20 10:50:27.220219,147268087,0.01771897,0.02682802,0.04614167,0.0301591,0.05982633
12265,2023-01-20 10:50:27.320286,147368139,0.01745118,0.02696797,0.0430511,0.03504977,0.05957994
12298,2023-01-20 10:50:27.418454,147468115,0.01523091,0.02560887,0.03999316,0.03957653,0.05646466
12330,2023-01-20 10:50:27.509497,147568129,0.01419139,0.02301046,0.03772051,0.03655518,0.0513599
12366,2023-01-20 10:50:27.600719,147668270,0.01598889,0.02353177,0.04022526,0.03423375,0.0442191
12396,2023-01-20 10:50:27.700536,147768095,0.01561825,0.02441995,0.04288983,0.03686841,0.03676015
12429,2023-01-20 10:50:27.800694,147868261,0.01332376,0.02145592,0.04380707,0.0352385,0.0305196
12461,2023-01-20 10:50:27.900456,147968086,0.01654101,0.02376737,0.04220056,0.03855722,0.02663354
12494,2023-01-20 10:50:28.000689,148068383,0.01704569,0.02500652,0.03729647,0.03668207,0.02573527
12526,2023-01-20 10:50:28.100455,148168124,0.01609742,0.02891082,0.0327774,0.03644964,0.0257959
12560,2023-01-20 10:50:28.200696,148268340,0.01755456,0.02605912,0.03046299,0.04039578,0.02580485
12590,2023-01-20 10:50:28.300509,148368128,0.0160019,0.02731699,0.02739593,0.03639439,0.02513501
12623,2023-01-20 10:50:28.400772,148468290,0.01484256,0.02761205,0.02498261,0.03617903,0.02248394
12655,2023-01-20 10:50:28.511513,148568089,0.01448008,0.02446018,0.0245469,0.04035341,0.01905448
12691,2023-01-20 10:50:28.618458,148668118,0.01313417,0.02367094,0.02415323,0.04344484,0.01595
12721,2023-01-20 10:50:28.709461,148768121,0.01321303,0.02740293,0.02426489,0.0424789,0.01428368
12754,2023-01-20 10:50:28.800680,148868295,0.01256726,0.02554193,0.0238891,0.04501261,0.01594689
12787,2023-01-20 10:50:28.900372,148968100,0.01465815,0.02799665,0.0217285,0.04015027,0.02105927
12820,2023-01-20 10:50:29.000622,149068464,0.01454018,0.02709428,0.02029136,0.04003361,0.02747686
12852,2023-01-20 10:50:29.100349,149168137,0.01260023,0.02487211,0.02178293,0.04067039,0.03357332
12886,2023-01-20 10:50:29.200675,149268409,0.01473373,0.02556033,0.02484079,0.04153693,0.0381229
12916,2023-01-20 10:50:29.300315,149368114,0.01426232,0.02559047,0.02406647,0.04275179,0.04002894
12949,2023-01-20 10:50:29.400614,149468478,0.01403456,0.02611721,0.02644585,0.04766751,0.03817119
12981,2023-01-20 10:50:29.500235,149568079,0.01833087,0.02761961,0.02999278,0.05131879,0.03333555
13017,2023-01-20 10:50:29.600634,149668459,0.01803987,0.02492454,0.03114031,0.05245347,0.0282452
13047,2023-01-20 10:50:29.700259,149768093,0.02933577,0.02839705,0.02901963,0.04715329,0.02554865
13080,2023-01-20 10:50:29.800619,149868462,0.03781886,0.02578731,0.02466187,0.04084272,0.02808843
13111,2023-01-20 10:50:29.900261,149968127,0.04116946,0.02445574,0.02168204,0.03513814,0.03365365
13144,2023-01-20 10:50:30.000631,150068519,0.04241158,0.02224298,0.01846194,0.03179695,0.03883665
13176,2023-01-20 10:50:30.100270,150168124,0.03782988,0.02041215,0.01661981,0.0285566,0.03972587
13209,2023-01-20 10:50:30.200614,150268434,0.0316573,0.02097891,0.01673516,0.02991213,0.03509892
13239,2023-01-20 10:50:30.300306,150368125,0.02722507,0.0202149,0.01572406,0.02962146,0.02888644
13272,2023-01-20 10:50:30.400624,150468442,0.02541028,0.01797159,0.01466275,0.03049051,0.02424414
13304,2023-01-20 10:50:30.500269,150568093,0.02718609,0.01684215,0.01409489,0.03271234,0.02141313
13340,2023-01-20 10:50:30.600635,150668464,0.02650909,0.01754947,0.01319024,0.03034163,0.0201773
13371,2023-01-20 10:50:30.700254,150768085,0.02598855,0.01549925,0.01460121,0.03240873,0.02134023
13404,2023-01-20 10:50:30.800606,150868439,0.02287774,0.01593576,0.01436902,0.03352329,0.0236762
13435,2023-01-20 10:50:30.900227,150968094,0.02079787,0.02283501,0.01344018,0.03161859,0.02429627
13468,2023-01-20 10:50:31.000626,151068525,0.0184537,0.02114907,0.01304712,0.03117592,0.02202254
13500,2023-01-20 10:50:31.100413,151168225,0.01765015,0.02271663,0.01114215,0.02624719,0.01821272
13533,2023-01-20 10:50:31.200670,151268394,0.01550021,0.02409994,0.01020887,0.02508114,0.0159006
13563,2023-01-20 10:50:31.300360,151368134,0.0147559,0.02495247,0.009612123,0.0246601,0.01617271
13596,2023-01-20 10:50:31.400612,151468436,0.01462308,0.02412456,0.01014849,0.02657841,0.01770279
13628,2023-01-20 10:50:31.500265,151568109,0.01877013,0.02453243,0.01080255,0.02907319,0.01832039
13663,2023-01-20 10:50:31.600632,151668495,0.01764786,0.02542682,0.01045179,0.02859099,0.0162781
13694,2023-01-20 10:50:31.700227,151768077,0.01551927,0.02522534,0.01087956,0.02735873,0.01427226
13727,2023-01-20 10:50:31.800608,151868445,0.01730498,0.02948262,0.01226939,0.02412036,0.01923781
13759,2023-01-20 10:50:31.900273,151968133,0.01631985,0.03296134,0.0116145,0.02144994,0.02619698
13792,2023-01-20 10:50:32.000621,152068504,0.01385779,0.02889095,0.01017671,0.01816625,0.03062302
13824,2023-01-20 10:50:32.100253,152168109,0.01168645,0.02481225,0.008785618,0.01588028,0.03388551
13857,2023-01-20 10:50:32.200615,152268444,0.01047602,0.02134256,0.008316408,0.01367346,0.03430776
13887,2023-01-20 10:50:32.300302,152368124,0.009303506,0.01919834,0.007508758,0.01194578,0.03209217
13920,2023-01-20 10:50:32.400614,152468430,0.008093423,0.01696816,0.008125084,0.01173518,0.02832006
13952,2023-01-20 10:50:32.500249,152568090,0.01396134,0.01493128,0.007553807,0.01062129,0.02408633
13987,2023-01-20 10:50:32.600627,152668493,0.01510763,0.01346483,0.007417919,0.01034206,0.01991479
14018,2023-01-20 10:50:32.700225,152768078,0.01419868,0.01628434,0.006582852,0.009800849,0.01631663
14051,2023-01-20 10:50:32.800611,152868450,0.01251964,0.01567297,0.005905663,0.008945514,0.01346465
14082,2023-01-20 10:50:32.900267,152968127,0.01144095,0.01843096,0.006629277,0.01489005,0.01122765
14115,2023-01-20 10:50:33.000621,153068502,0.01139412,0.0176402,0.008159738,0.02111948,0.00948416
14147,2023-01-20 10:50:33.100272,153168125,0.01218137,0.02117595,0.009147647,0.02286873,0.007824978
14180,2023-01-20 10:50:33.200608,153268433,0.01386387,0.01804798,0.01084052,0.02849863,0.006479174
14211,2023-01-20 10:50:33.300313,153368134,0.01479416,0.01762646,0.01051227,0.02799059,0.006766495
14244,2023-01-20 10:50:33.400615,153468432,0.01573351,0.02493429,0.01262659,0.02855068,0.0118787
14277,2023-01-20 10:50:33.500278,153568100,0.01609607,0.03087815,0.01355716,0.02515499,0.01992541
14313,2023-01-20 10:50:33.600628,153668454,0.01472476,0.03046199,0.01632404,0.02416985,0.0278562
14344,2023-01-20 10:50:33.700249,153768082,0.0150241,0.02609815,0.01605513,0.02413712,0.0343518
14377,2023-01-20 10:50:33.800600,153868439,0.01645528,0.02625292,0.01657131,0.02615395,0.03986889
14410,2023-01-20 10:50:33.900258,153968124,0.01932507,0.02390612,0.01477277,0.02378209,0.0438958
14443,2023-01-20 10:50:34.000600,154068492,0.01823348,0.0218978,0.01373023,0.023961,0.04661688
14475,2023-01-20 10:50:34.100232,154168110,0.01990109,0.02068106,0.01210251,0.0210476,0.04792841
14508,2023-01-20 10:50:34.200627,154268491,0.01705774,0.01842557,0.01126556,0.02098067,0.04614743
14538,2023-01-20 10:50:34.300271,154368111,0.01776415,0.02379956,0.01053489,0.01888154,0.04196235
14571,2023-01-20 10:50:34.400607,154468423,0.01555984,0.02505563,0.009903896,0.01985891,0.03679562
14604,2023-01-20 10:50:34.500293,154568073,0.0148084,0.02613277,0.015636,0.02298378,0.03104149
14638,2023-01-20 10:50:34.600703,154668446,0.0134612,0.02541131,0.02124961,0.02730333,0.0255664
14670,2023-01-20 10:50:34.700294,154768086,0.01499096,0.02773725,0.02214965,0.02509436,0.02093637
14703,2023-01-20 10:50:34.800607,154868448,0.01367955,0.02715556,0.02166813,0.0321098,0.01722016
14736,2023-01-20 10:50:34.900234,154968108,0.01373343,0.03047194,0.01869615,0.02684341,0.01438454
14769,2023-01-20 10:50:35.000629,155068536,0.01271773,0.0270857,0.01631421,0.02727434,0.01254529
14801,2023-01-20 10:50:35.100387,155168208,0.01124936,0.02429372,0.01552033,0.03075645,0.01212874
14834,2023-01-20 10:50:35.200679,155268415,0.01086394,0.0251682,0.01427317,0.03112981,0.01242964
14864,2023-01-20 10:50:35.300353,155368091,0.009632634,0.02273137,0.01342653,0.03021972,0.01368221
14897,2023-01-20 10:50:35.400670,155468411,0.009529965,0.02370638,0.0135552,0.03051088,0.01533996
14929,2023-01-20 10:50:35.500347,155568087,0.01115777,0.02755042,0.02174508,0.02665421,0.0187913
14964,2023-01-20 10:50:35.600702,155668441,0.01275504,0.02773038,0.02898213,0.02254672,0.02576924
14995,2023-01-20 10:50:35.700349,155768109,0.01337736,0.02797436,0.02865125,0.02626036,0.03234493
15028,2023-01-20 10:50:35.800642,155868422,0.01205785,0.02420874,0.02713284,0.02615682,0.03598199
15059,2023-01-20 10:50:35.900243,155968064,0.01203637,0.0251056,0.02565609,0.02331513,0.03527851
15092,2023-01-20 10:50:36.000611,156068473,0.01175128,0.02675638,0.02427127,0.01959604,0.03171618
15124,2023-01-20 10:50:36.100289,156168093,0.01474507,0.02554468,0.02571891,0.01794696,0.02742721
15157,2023-01-20 10:50:36.200679,156268425,0.01394038,0.02509421,0.02570135,0.02550639,0.02270071
15187,2023-01-20 10:50:36.300325,156368120,0.01278881,0.0228314,0.02490535,0.02952104,0.01858956
15220,2023-01-20 10:50:36.400612,156468455,0.01182247,0.0242659,0.02509285,0.0256731,0.015248
15252,2023-01-20 10:50:36.500294,156568080,0.0119829,0.02469945,0.02541853,0.02781472,0.01263056
15287,2023-01-20 10:50:36.600698,156668428,0.01065281,0.02288262,0.02871128,0.03550262,0.01280159
15318,2023-01-20 10:50:36.700332,156768058,0.01039892,0.02235734,0.03117969,0.03805781,0.01654568
15351,2023-01-20 10:50:36.800710,156868433,0.01019599,0.02118814,0.0285122,0.03894157,0.01907795
15382,2023-01-20 10:50:36.900258,156968073,0.009161309,0.02000258,0.02782337,0.0414084,0.01924983
15415,2023-01-20 10:50:37.000616,157068523,0.008425742,0.01873277,0.02635992,0.04533064,0.01869588
15447,2023-01-20 10:50:37.100269,157168097,0.009037175,0.01927385,0.02721297,0.04648929,0.01848946
15480,2023-01-20 10:50:37.200672,157268420,0.009703186,0.0224598,0.0258655,0.04671651,0.01823976
15510,2023-01-20 10:50:37.300357,157368102,0.01110008,0.02344804,0.02781379,0.04199667,0.01805612
15543,2023-01-20 10:50:37.400668,157468411,0.01112344,0.02589956,0.02571792,0.03677396,0.01862476
15575,2023-01-20 10:50:37.500350,157568078,0.01124,0.02717687,0.03070881,0.03271611,0.02098798
15610,2023-01-20 10:50:37.601110,157668822,0.01213776,0.02823975,0.02902953,0.02863226,0.02315708
15641,2023-01-20 10:50:37.700379,157768106,0.01354701,0.02835682,0.0317501,0.02759343,0.02248622
15674,2023-01-20 10:50:37.800689,157868431,0.02803439,0.02622756,0.03009458,0.0336626,0.01923614
15706,2023-01-20 10:50:37.900279,157968064,0.03239913,0.02785885,0.02982387,0.03418024,0.01584252
15739,2023-01-20 10:50:38.000603,158068491,0.03206832,0.02614452,0.02911173,0.03737651,0.01312333
15771,2023-01-20 10:50:38.091248,158168092,0.02885522,0.0256863,0.02700191,0.03503067,0.01129613
15802,2023-01-20 10:50:38.182534,158268397,0.02448685,0.02624287,0.03054213,0.03772347,0.01153168
15834,2023-01-20 10:50:38.280532,158368119,0.02454948,0.02597974,0.03731513,0.03353584,0.01109473
15866,2023-01-20 10:50:38.380880,158468465,0.02357883,0.02487447,0.03905948,0.03471484,0.01018152
15900,2023-01-20 10:50:38.480469,158568079,0.0202734,0.0261642,0.03737086,0.03275473,0.01046717
15934,2023-01-20 10:50:38.580932,158668574,0.01806547,0.02425486,0.04557096,0.03359992,0.0111047
15967,2023-01-20 10:50:38.680405,158768057,0.01802317,0.02357409,0.04141356,0.03422751,0.01178252
15998,2023-01-20 10:50:38.780683,158868340,0.01998262,0.02495712,0.0371977,0.03357497,0.01184792
16033,2023-01-20 10:50:38.889249,158968075,0.01910979,0.02657856,0.03179732,0.03051492,0.01029464
16066,2023-01-20 10:50:39.000542,159068463,0.01783209,0.02571841,0.02743156,0.030847,0.008799202
16098,2023-01-20 10:50:39.091209,159168095,0.01965822,0.0257278,0.02634347,0.02986582,0.00959236
16130,2023-01-20 10:50:39.182437,159268343,0.01699052,0.0250369,0.02495039,0.03213148,0.009804917
16162,2023-01-20 10:50:39.280405,159368076,0.01625279,0.02652312,0.02702979,0.02917837,0.009171814
16193,2023-01-20 10:50:39.380577,159468284,0.01680171,0.02665169,0.02427889,0.03102529,0.00958613
16227,2023-01-20 10:50:39.480341,159568068,0.01475102,0.02512256,0.02588158,0.03037373,0.00975186
16260,2023-01-20 10:50:39.580728,159668471,0.0139023,0.0261752,0.02958443,0.03019035,0.008723535
16293,2023-01-20 10:50:39.680331,159768124,0.01391865,0.02509316,0.028003,0.02990683,0.007226646
16324,2023-01-20 10:50:39.780384,159868235,0.01447662,0.02282077,0.02594436,0.03409429,0.006192638
16358,2023-01-20 10:50:39.880202,159968060,0.01749614,0.02485863,0.02201091,0.03107212,0.005673748
16389,2023-01-20 10:50:39.980251,160068104,0.01698163,0.02482453,0.01869264,0.02799294,0.005612163
16423,2023-01-20 10:50:40.080300,160168108,0.01476313,0.02315343,0.01943125,0.0326893,0.005424183
16455,2023-01-20 10:50:40.180327,160268080,0.01357485,0.02366873,0.0196196,0.03270032,0.005080424
16487,2023-01-20 10:50:40.280342,160368125,0.01351212,0.02504056,0.02288672,0.02969308,0.005850099
16518,2023-01-20 10:50:40.380230,160468065,0.01784491,0.0245857,0.02316092,0.02969443,0.0073196
16552,2023-01-20 10:50:40.480232,160568067,0.0161998,0.02373391,0.02038501,0.03223798,0.009206188
16586,2023-01-20 10:50:40.580546,160668368,0.01414949,0.02160605,0.01904634,0.03602216,0.01110254
16619,2023-01-20 10:50:40.680270,160768075,0.0124927,0.02171609,0.01903424,0.03696408,0.01143432
16650,2023-01-20 10:50:40.780309,160868096,0.01264443,0.02196184,0.01771747,0.03330618,0.01136751
16684,2023-01-20 10:50:40.880250,160968067,0.01262103,0.02464798,0.0154129,0.03013104,0.01232809
16715,2023-01-20 10:50:40.980289,161068150,0.01267835,0.02347195,0.01487482,0.03107278,0.01375332
16749,2023-01-20 10:50:41.080280,161168102,0.01125619,0.02265541,0.015181,0.03576775,0.01359799
16781,2023-01-20 10:50:41.180310,161268074,0.01122336,0.02010977,0.01643849,0.04191277,0.0121436
16813,2023-01-20 10:50:41.280359,161368106,0.01193867,0.02092739,0.01699519,0.04360563,0.01028568
16844,2023-01-20 10:50:41.380342,161468082,0.01148829,0.02291663,0.01597839,0.04019864,0.008456003
16878,2023-01-20 10:50:41.480289,161568062,0.01109319,0.02393045,0.01450857,0.03694988,0.007017503
16912,2023-01-20 10:50:41.580690,161668505,0.01367676,0.02257476,0.01514951,0.03995792,0.005808549
16945,2023-01-20 10:50:41.680288,161768079,0.01844732,0.02352787,0.01539247,0.03765981,0.005037215
16976,2023-01-20 10:50:41.780323,161868075,0.01656487,0.02386705,0.01530513,0.03597362,0.004525665
17010,2023-01-20 10:50:41.880275,161968061,0.01469884,0.0222706,0.01517124,0.03799913,0.004327025
17041,2023-01-20 10:50:41.980225,162068063,0.01280183,0.02157648,0.01597,0.04169756,0.009027854
17075,2023-01-20 10:50:42.080306,162168115,0.01274909,0.02433098,0.01451388,0.037954,0.01599103
17107,2023-01-20 10:50:42.180316,162268076,0.01635749,0.02595378,0.01546432,0.03528121,0.02311266
17139,2023-01-20 10:50:42.280349,162368138,0.01813684,0.0245388,0.01573443,0.03735674,0.02760686
17170,2023-01-20 10:50:42.380223,162468060,0.01610387,0.0212988,0.01631632,0.04187553,0.02980345
17204,2023-01-20 10:50:42.480232,162568067,0.01419833,0.02228638,0.01660533,0.04393709,0.03089075
17238,2023-01-20 10:50:42.580516,162668337,0.01403967,0.02472802,0.01606409,0.04301076,0.03071317
17271,2023-01-20 10:50:42.680239,162768059,0.01457967,0.02480251,0.01488901,0.03985016,0.02806851
17302,2023-01-20 10:50:42.780252,162868075,0.01445396,0.02570874,0.0156051,0.03563982,0.02405715
17336,2023-01-20 10:50:42.880259,162968112,0.01251267,0.0233729,0.01770938,0.03789265,0.02083223
17367,2023-01-20 10:50:42.980177,163068068,0.01298061,0.02164064,0.01782809,0.04229755,0.01779136
17401,2023-01-20 10:50:43.080256,163168091,0.0137987,0.02283191,0.01657635,0.04042026,0.0152608
17433,2023-01-20 10:50:43.180306,163268063,0.01381147,0.02353062,0.0150935,0.03503602,0.01298687
17465,2023-01-20 10:50:43.280359,163368100,0.01429932,0.0221942,0.01501756,0.03508421,0.01127085
17496,2023-01-20 10:50:43.380332,163468073,0.01890216,0.01996869,0.01613556,0.03846854,0.01024088
17531,2023-01-20 10:50:43.480314,163568090,0.01723134,0.02019319,0.01621088,0.04029577,0.009684321
17565,2023-01-20 10:50:43.580518,163668338,0.01556324,0.02410996,0.01494088,0.03810494,0.008618021
17598,2023-01-20 10:50:43.680234,163768060,0.01549738,0.02487165,0.01656527,0.03315182,0.007210841
17629,2023-01-20 10:50:43.780254,163868077,0.01669976,0.02477507,0.02061981,0.03370085,0.005906201
17665,2023-01-20 10:50:43.880223,163968059,0.017027,0.02538782,0.01965688,0.03095679,0.005257726
17696,2023-01-20 10:50:43.980202,164068056,0.01991624,0.02650446,0.02161873,0.02878081,0.005717963
17730,2023-01-20 10:50:44.080275,164168088,0.01939359,0.02642373,0.02446191,0.02663627,0.006874174
17762,2023-01-20 10:50:44.180352,164268110,0.01643603,0.02452979,0.02321708,0.02738977,0.007009006
17794,2023-01-20 10:50:44.280354,164368101,0.01467058,0.02178689,0.02190903,0.03301831,0.006995738
17825,2023-01-20 10:50:44.380323,164468071,0.01497465,0.02266107,0.02426869,0.0388566,0.009111471
17860,2023-01-20 10:50:44.480331,164568079,0.0186247,0.0243025,0.02632152,0.03897713,0.01181414
17894,2023-01-20 10:50:44.580376,164668125,0.01680464,0.02611728,0.0236469,0.03830749,0.01239672
17927,2023-01-20 10:50:44.680307,164768069,0.016291,0.02603744,0.02006157,0.03432333,0.01180796
17958,2023-01-20 10:50:44.780306,164868085,0.02427466,0.02599578,0.02012117,0.03463438,0.0100829
17992,2023-01-20 10:50:44.880280,164968108,0.02594402,0.02602994,0.02243386,0.03460032,0.008364143
18023,2023-01-20 10:50:44.980176,165068061,0.02183345,0.02405359,0.02111552,0.03897257,0.007188557
18057,2023-01-20 10:50:45.080268,165168093,0.02096388,0.02502843,0.02030204,0.03747889,0.01229886
18089,2023-01-20 10:50:45.180331,165268068,0.01859478,0.02451073,0.01785299,0.03445805,0.02045144
18121,2023-01-20 10:50:45.280353,165368085,0.01826687,0.02453198,0.01574987,0.03271572,0.02808748
18152,2023-01-20 10:50:45.380322,165468069,0.0227194,0.02410679,0.02357544,0.03623471,0.03461846
18186,2023-01-20 10:50:45.480335,165568122,0.01993389,0.02361751,0.02322535,0.03862704,0.03665337
18220,2023-01-20 10:50:45.580296,165668128,0.01730902,0.02344842,0.02002615,0.03533639,0.03442349
18253,2023-01-20 10:50:45.680261,165768064,0.01503529,0.02233994,0.01809052,0.031753,0.03097303
18284,2023-01-20 10:50:45.780338,165868094,0.01315644,0.02157542,0.01702629,0.03105342,0.02660455
18318,2023-01-20 10:50:45.880279,165968063,0.01124127,0.01957875,0.01684201,0.03319063,0.02224505
18349,2023-01-20 10:50:45.980240,166068071,0.01055615,0.01884202,0.01807878,0.0370636,0.01839946
18383,2023-01-20 10:50:46.080281,166168111,0.01115065,0.02145267,0.01694934,0.03650719,0.01511088
18415,2023-01-20 10:50:46.180284,166268102,0.01093678,0.02222705,0.01445349,0.03191907,0.01240524
18447,2023-01-20 10:50:46.280310,166368085,0.0128785,0.02217061,0.01803336,0.03676204,0.01020528
18478,2023-01-20 10:50:46.380332,166468056,0.01526281,0.02218035,0.02103619,0.04426683,0.008430974
18512,2023-01-20 10:50:46.480332,166568059,0.01584069,0.02405532,0.01836964,0.04020977,0.006997851
18546,2023-01-20 10:50:46.580368,166668112,0.01710876,0.02418072,0.01741317,0.03731237,0.006042816
18579,2023-01-20 10:50:46.680283,166768060,0.01579596,0.02384028,0.01838582,0.03844636,0.00503331
18610,2023-01-20 10:50:46.780336,166868150,0.01663918,0.0251906,0.01605228,0.0342355,0.004351294
18644,2023-01-20 10:50:46.873014,166968084,0.01430702,0.02298623,0.01687041,0.03942885,0.00492109
18675,2023-01-20 10:50:46.963966,167068066,0.01358251,0.02438204,0.01499556,0.03605872,0.004974367
18709,2023-01-20 10:50:47.060434,167168090,0.01273043,0.02218582,0.01595336,0.03826748,0.004772961
18741,2023-01-20 10:50:47.160444,167268063,0.01219425,0.0198871,0.01834503,0.04327645,0.008298772
18773,2023-01-20 10:50:47.260486,167368088,0.01225598,0.02125754,0.01993269,0.04402628,0.01144665
18804,2023-01-20 10:50:47.360467,167468066,0.0164479,0.02280786,0.01879894,0.04041617,0.01239102
18837,2023-01-20 10:50:47.460515,167568114,0.01828071,0.02395446,0.0240069,0.04049667,0.01424378
18871,2023-01-20 10:50:47.560499,167668101,0.01927926,0.02448042,0.02455216,0.03920073,0.01718055
18904,2023-01-20 10:50:47.660482,167768072,0.02072193,0.02276001,0.02251694,0.03634358,0.0183986
18935,2023-01-20 10:50:47.760534,167868102,0.02117079,0.02333474,0.02032764,0.03483156,0.01586585
18969,2023-01-20 10:50:47.860490,167968074,0.0213334,0.02260446,0.02376897,0.04009352,0.01335599
19000,2023-01-20 10:50:47.960433,168068057,0.02381879,0.02426049,0.02158152,0.0383713,0.0112392
19034,2023-01-20 10:50:48.060501,168168141,0.02029874,0.02413057,0.02001912,0.03927547,0.009388496
19066,2023-01-20 10:50:48.160419,168268059,0.01851948,0.02500928,0.01914057,0.03638462,0.009813852
19098,2023-01-20 10:50:48.260506,168368166,0.01661892,0.02249539,0.01874,0.04121947,0.01197214
19129,2023-01-20 10:50:48.360366,168468059,0.01506492,0.02288367,0.01759613,0.03826948,0.01500523
19163,2023-01-20 10:50:48.460348,168568062,0.01486807,0.02226856,0.01595704,0.03395676,0.01806888
19198,2023-01-20 10:50:48.560406,168668133,0.01350902,0.02154949,0.01631649,0.03686531,0.0205546
19231,2023-01-20 10:50:48.660324,168768077,0.01181956,0.01909579,0.01717997,0.04154881,0.02159143
19262,2023-01-20 10:50:48.760357,168868144,0.01096575,0.02042957,0.01657189,0.04157764,0.02055995
19298,2023-01-20 10:50:48.860543,168968372,0.01062362,0.02320893,0.01492495,0.03783867,0.0178739
19329,2023-01-20 10:50:48.960178,169068055,0.01144179,0.02503702,0.01524026,0.03288382,0.01482125
19363,2023-01-20 10:50:49.060243,169168110,0.01096059,0.0250787,0.01445276,0.031122,0.01219105
19395,2023-01-20 10:50:49.160256,169268074,0.01166075,0.02403943,0.01665848,0.03367839,0.01097513
19427,2023-01-20 10:50:49.260318,169368081,0.01282084,0.02539917,0.01766538,0.03013292,0.01171984
19458,2023-01-20 10:50:49.360412,169468115,0.01294765,0.02493152,0.01730468,0.03062814,0.01312622
19492,2023-01-20 10:50:49.460335,169568064,0.01169622,0.02409219,0.0154943,0.029578,0.01590838
19526,2023-01-20 10:50:49.560294,169668105,0.01235984,0.02563313,0.02038893,0.03054992,0.01807263
19559,2023-01-20 10:50:49.660247,169768060,0.01197651,0.02528539,0.01848821,0.03031178,0.0172185
19590,2023-01-20 10:50:49.760321,169868083,0.01197675,0.02498063,0.01900749,0.03257927,0.01475706
19624,2023-01-20 10:50:49.860294,169968067,0.01221119,0.02569319,0.01689553,0.03069945,0.01210711
19655,2023-01-20 10:50:49.960255,170068080,0.0111725,0.02389343,0.01820931,0.03541854,0.009982461
19689,2023-01-20 10:50:50.060286,170168136,0.01125281,0.0260485,0.01756413,0.03197793,0.008378234
19763,2023-01-20 10:50:50.160198,170268057,0.01052883,0.02320776,0.01950938,0.03473528,0.008787743
19795,2023-01-20 10:50:50.260251,170368087,0.009754471,0.02285683,0.02039249,0.03702101,0.009919478
19826,2023-01-20 10:50:50.360274,170468067,0.009045026,0.02215674,0.01913667,0.03719808,0.01076635
19860,2023-01-20 10:50:50.460294,170568059,0.0129995,0.02353379,0.02212767,0.03863081,0.01159289
19894,2023-01-20 10:50:50.560351,170668099,0.01616822,0.02226876,0.02259682,0.03884942,0.01242625
19927,2023-01-20 10:50:50.660372,170768114,0.01976971,0.02306076,0.02336972,0.03769894,0.01287236
19958,2023-01-20 10:50:50.760378,170868122,0.02064053,0.02322578,0.02138164,0.03595133,0.01252724
19992,2023-01-20 10:50:50.860267,170968056,0.01900368,0.02344666,0.02098352,0.03843408,0.01054601
20023,2023-01-20 10:50:50.960207,171068068,0.0163109,0.02303538,0.02161752,0.03940688,0.009315946
20057,2023-01-20 10:50:51.060260,171168106,0.01515238,0.02338264,0.02053944,0.04039795,0.01040972
20089,2023-01-20 10:50:51.160294,171268067,0.01636401,0.02299767,0.01771783,0.03632357,0.01333945
20121,2023-01-20 10:50:51.260371,171368117,0.01623032,0.02230005,0.01687427,0.03841264,0.01638155
20152,2023-01-20 10:50:51.360350,171468100,0.01553925,0.01993434,0.01725417,0.04244894,0.01767255
20186,2023-01-20 10:50:51.460289,171568068,0.01430913,0.01858709,0.01794936,0.04390683,0.01679286
20220,2023-01-20 10:50:51.560285,171668111,0.01315003,0.02226641,0.01747194,0.04125324,0.01501224
20253,2023-01-20 10:50:51.660251,171768061,0.0125235,0.02345586,0.01593717,0.03665073,0.01292737
20284,2023-01-20 10:50:51.760344,171868095,0.01107377,0.02221157,0.01576337,0.03889758,0.01065316
20318,2023-01-20 10:50:51.860312,171968079,0.01145624,0.02502763,0.01423255,0.03437943,0.008720433
20349,2023-01-20 10:50:51.960268,172068101,0.01086368,0.02301051,0.01465062,0.03712295,0.007468229
20383,2023-01-20 10:50:52.060354,172168214,0.01052811,0.0242576,0.01424293,0.03532076,0.007401711
20415,2023-01-20 10:50:52.160210,172268073,0.01103474,0.02386,0.01325905,0.03381266,0.008249088
20447,2023-01-20 10:50:52.260244,172368082,0.01129042,0.02360351,0.01319507,0.03441161,0.008525372
20478,2023-01-20 10:50:52.360260,172468054,0.01001823,0.02222404,0.01362008,0.03509749,0.008034888
20512,2023-01-20 10:50:52.460306,172568073,0.01024052,0.02463152,0.01408257,0.03602695,0.007758786
20546,2023-01-20 10:50:52.560393,172668143,0.00922604,0.02256983,0.01421741,0.03636213,0.009485844
20579,2023-01-20 10:50:52.660343,172768119,0.00904095,0.02312649,0.01378694,0.03481379,0.01165274
20610,2023-01-20 10:50:52.760279,172868109,0.009639646,0.02106511,0.01513399,0.03860533,0.01162899
20644,2023-01-20 10:50:52.860209,172968062,0.01077674,0.02367955,0.01412821,0.03501716,0.009896482
20675,2023-01-20 10:50:52.960200,173068055,0.01375458,0.02144687,0.01523367,0.03898564,0.008309547
20709,2023-01-20 10:50:53.060273,173168105,0.01243544,0.02129757,0.01585437,0.04210379,0.008244676
20741,2023-01-20 10:50:53.160266,173268059,0.01187343,0.0234532,0.01441301,0.03713479,0.009185623
20773,2023-01-20 10:50:53.260314,173368083,0.01165195,0.0228068,0.01648188,0.0391174,0.01010775
20804,2023-01-20 10:50:53.360357,173468112,0.01016443,0.02105244,0.01945649,0.04265838,0.01063712
20838,2023-01-20 10:50:53.460279,173568058,0.01523834,0.02421907,0.01801378,0.03838699,0.0120042
20872,2023-01-20 10:50:53.560291,173668119,0.01508749,0.02392097,0.01576297,0.03441206,0.01430077
20906,2023-01-20 10:50:53.660280,173768089,0.01457112,0.02495839,0.01429235,0.03046491,0.01548259
20937,2023-01-20 10:50:53.760356,173868101,0.0129379,0.02286804,0.0137813,0.03219159,0.01546574
20973,2023-01-20 10:50:53.860630,173968391,0.01244019,0.0211468,0.01521405,0.03761158,0.01465258
21004,2023-01-20 10:50:53.960273,174068101,0.01205179,0.02100843,0.01596702,0.04057116,0.01366567
21038,2023-01-20 10:50:54.054769,174168112,0.01290517,0.02256448,0.01740635,0.03644389,0.01308274
21070,2023-01-20 10:50:54.145616,174268061,0.01259034,0.02335522,0.01807801,0.03151467,0.0127972
21102,2023-01-20 10:50:54.244691,174368082,0.01136401,0.02204162,0.01812411,0.03321256,0.01267753
21133,2023-01-20 10:50:54.355875,174468064,0.009944619,0.01940065,0.01801578,0.03975623,0.01245385
21168,2023-01-20 10:50:54.460317,174568072,0.00982588,0.02145011,0.01736863,0.04016061,0.01175855
21202,2023-01-20 10:50:54.560347,174668119,0.009689534,0.02218854,0.01535271,0.03595055,0.01126298
21235,2023-01-20 10:50:54.660327,174768127,0.009304676,0.02222764,0.01571747,0.03761128,0.01158521
21266,2023-01-20 10:50:54.760268,174868102,0.0117922,0.02072678,0.01758605,0.04333477,0.01310579
21300,2023-01-20 10:50:54.860205,174968058,0.01087018,0.02043948,0.01857174,0.04609357,0.01558083
21331,2023-01-20 10:50:54.960194,175068056,0.01060184,0.02257428,0.01693692,0.04235664,0.01886188
21365,2023-01-20 10:50:55.060258,175168096,0.01000397,0.02315878,0.01531919,0.03784662,0.02255135
21397,2023-01-20 10:50:55.160282,175268076,0.01017712,0.0241066,0.01323243,0.03291373,0.02466909
21429,2023-01-20 10:50:55.260324,175368130,0.01371827,0.02459706,0.01265351,0.02891373,0.02482117
21460,2023-01-20 10:50:55.360216,175468072,0.0135692,0.02506263,0.01149506,0.02689984,0.02257096
21494,2023-01-20 10:50:55.460228,175568066,0.01406561,0.02448611,0.01118891,0.02687281,0.01917764
21528,2023-01-20 10:50:55.560333,175668109,0.01533489,0.02242868,0.01328435,0.03215715,0.01578403
21561,2023-01-20 10:50:55.660347,175768095,0.01428811,0.02555453,0.01400037,0.03008606,0.01351464
21592,2023-01-20 10:50:55.760351,175868094,0.01460149,0.02476143,0.01931272,0.03364725,0.01150768
21626,2023-01-20 10:50:55.860310,175968084,0.0142098,0.02308144,0.01839975,0.03642629,0.009609536
21657,2023-01-20 10:50:55.960279,176068109,0.01522473,0.02377077,0.01785313,0.03366136,0.009169859
21691,2023-01-20 10:50:56.060235,176168094,0.01329823,0.02280149,0.02163856,0.03720593,0.009200902
21723,2023-01-20 10:50:56.160197,176268068,0.01444713,0.02183472,0.02144314,0.04049445,0.009766845
21755,2023-01-20 10:50:56.254738,176368089,0.01930734,0.02203078,0.02040553,0.04362466,0.01058437
21786,2023-01-20 10:50:56.345620,176468063,0.01710264,0.02082638,0.01899277,0.04389912,0.01027961
21820,2023-01-20 10:50:56.440176,176568067,0.01499352,0.02285468,0.01845422,0.04266361,0.009166094
21854,2023-01-20 10:50:56.540299,176668209,0.0153581,0.02424843,0.01838705,0.03765823,0.008630983
21887,2023-01-20 10:50:56.640144,176768065,0.0179908,0.02399367,0.01728351,0.03563751,0.007769585
21918,2023-01-20 10:50:56.740184,176868104,0.0230709,0.02358879,0.0168714,0.03657836,0.00686343
21952,2023-01-20 10:50:56.840117,176968055,0.02024872,0.02440604,0.01913623,0.03701947,0.007150203
21983,2023-01-20 10:50:56.940080,177068064,0.01770484,0.02380901,0.0190975,0.04151686,0.007489141
22017,2023-01-20 10:50:57.044587,177168088,0.01590168,0.02436126,0.01926815,0.03786459,0.008299563
22049,2023-01-20 10:50:57.155815,177268063,0.0150788,0.02473982,0.02168427,0.0335789,0.008723069
22081,2023-01-20 10:50:57.254832,177368133,0.01391685,0.02257083,0.02044493,0.03653063,0.007761291
22111,2023-01-20 10:50:57.345618,177468065,0.01268681,0.02222854,0.01902608,0.03840603,0.006586221
22145,2023-01-20 10:50:57.440124,177568061,0.01170768,0.02262685,0.0164659,0.03487049,0.005410886
