LineNo,UTC_Approx,TimeUS,ThI,ABst,ThO,ThH,DAlt,Alt,BAlt,DSAlt,SAlt,TAlt,DCRt,CRt
339,2023-01-20 10:49:56.256672,116245429,0,0,0,0.2924092,0.6490136,0.6490136,0.66,NaN,0,0.008586347,2,2
945,2023-01-20 10:49:56.347642,116345445,0,0,0,0.2924092,0.6536537,0.6536537,0.68,NaN,0,0.01273823,2,2
1107,2023-01-20 10:49:56.449107,116451677,0,0,0,0.2924092,0.6598852,0.6598852,0.68,NaN,0,0.01848149,2,2
1322,2023-01-20 10:49:56.562052,116563611,0,0,0,0.2924092,0.6663998,0.6663998,0.69,NaN,0,0.0245688,2,2
1532,2023-01-20 10:49:56.662906,116664362,0,0,0,0.2924092,0.6746222,0.6746222,0.64,NaN,0,0.03230286,3,3
1867,2023-01-20 10:49:56.762599,116764429,0,0,0,0.2924092,0.6828099,0.6828099,0.66,NaN,0,0.04018551,3,3
1913,2023-01-20 10:49:56.862403,116864374,0,0,0,0.2924092,0.6920131,0.6920131,0.68,NaN,0,0.04890031,3,3
1960,2023-01-20 10:49:56.962388,116964360,0,0,0,0.2924092,0.7004534,0.7004534,0.63,NaN,0,0.05691338,3,3
2008,2023-01-20 10:49:57.062454,117064413,0,0,0,0.2924092,0.7105504,0.7105504,0.68,NaN,0,0.06652206,3,3
2054,2023-01-20 10:49:57.162408,117164347,0,0,0,0.2924092,0.7201301,0.7201301,0.66,NaN,0,0.07543045,4,4
2107,2023-01-20 10:49:57.269298,117264348,0,0,0,0.2924092,0.7291277,0.7291277,0.65,NaN,0,0.08393973,4,4
2165,2023-01-20 10:49:57.380359,117364380,0,0,0,0.2924092,0.7368051,0.7368051,0.67,NaN,0,0.09149504,4,4
2222,2023-01-20 10:49:57.474837,117464387,0,0,0,0.2924092,0.7473138,0.7473138,0.7,NaN,0,0.1016986,4,4
2280,2023-01-20 10:49:57.565746,117564383,0,0,0,0.2924092,0.7558153,0.7558153,0.68,NaN,0,0.1095898,4,4
2335,2023-01-20 10:49:57.662320,117664394,0,0,0,0.2924092,0.7658761,0.7658761,0.68,NaN,0,0.1196505,5,5
2390,2023-01-20 10:49:57.762288,117764384,0,0,0,0.2924092,0.7752693,0.7752693,0.69,NaN,0,0.1286775,5,5
2438,2023-01-20 10:49:57.862256,117864379,0,0,0,0.2924092,0.7860947,0.7860947,0.69,NaN,0,0.1391977,5,5
2480,2023-01-20 10:49:57.962240,117964393,0,0,0,0.2924092,0.7959962,0.7959962,0.68,NaN,0,0.148611,5,5
2522,2023-01-20 10:49:58.062343,118064456,0,0,0,0.2924092,0.8050171,0.8050171,0.68,NaN,0,0.1576318,5,5
2561,2023-01-20 10:49:58.162363,118164393,0,0,0,0.2924092,0.8124271,0.8124271,0.68,NaN,0,0.1642485,5,5
2604,2023-01-20 10:49:58.262374,118264392,0,0,0,0.2924092,0.8220556,0.8220556,0.68,NaN,0,0.1733887,6,6
2643,2023-01-20 10:49:58.362337,118364385,0,0,0,0.2924092,0.8312989,0.8312989,0.69,NaN,0,0.1824489,6,6
2683,2023-01-20 10:49:58.462314,118464375,0,0,0,0.2924092,0.8414274,0.8414274,0.67,NaN,0,0.1922111,6,6
2723,2023-01-20 10:49:58.562332,118564395,0,0,0,0.2924092,0.8503708,0.8503708,0.65,NaN,0,0.2004221,6,6
2764,2023-01-20 10:49:58.662309,118664390,0,0,0,0.2924092,0.8595593,0.8595593,0.7,NaN,0,0.2090613,6,6
2804,2023-01-20 10:49:58.762287,118764394,0,0,0,0.2924092,0.8675911,0.8675911,0.7,NaN,0,0.216971,6,6
2848,2023-01-20 10:49:58.862284,118864400,0,0,0,0.2924092,0.8748894,0.8748894,0.69,NaN,0,0.2242693,6,6
2886,2023-01-20 10:49:58.962276,118964391,0,0,0,0.2924092,0.8807951,0.8807951,0.69,NaN,0,0.2298698,6,6
2927,2023-01-20 10:49:59.062381,119064478,0,0,0,0.2924092,0.8887762,0.8887762,0.67,NaN,0,0.2380341,6,6
2965,2023-01-20 10:49:59.162309,119164380,0,0,0,0.2924092,0.8961814,0.8961814,0.67,NaN,0,0.2454392,6,6
3007,2023-01-20 10:49:59.262303,119264365,0,0,0,0.2924092,0.9039668,0.9039668,0.62,NaN,0,0.2526143,7,7
3045,2023-01-20 10:49:59.362313,119364376,0,0,0,0.2924092,0.910385,0.910385,0.62,NaN,0,0.2585441,7,7
3085,2023-01-20 10:49:59.462315,119464381,0,0,0,0.2924092,0.9170378,0.9170378,0.58,NaN,0,0.2644035,7,7
3125,2023-01-20 10:49:59.562314,119564384,0,0,0,0.2924092,0.9222446,0.9222446,0.52,NaN,0,0.2696103,7,7
3164,2023-01-20 10:49:59.662303,119664387,0,0,0,0.2924092,0.9285625,0.9285625,0.51,NaN,0,0.275318,7,7
3205,2023-01-20 10:49:59.762306,119764408,0,0,0,0.2924092,0.9338225,0.9338225,0.48,NaN,0,0.2804559,7,7
3246,2023-01-20 10:49:59.862285,119864397,0,0,0,0.2924092,0.9367694,0.9367694,0.58,NaN,0,0.2834027,7,7
3284,2023-01-20 10:49:59.962272,119964389,0,0,0,0.2924092,0.937907,0.937907,0.58,NaN,0,0.2850897,7,7
3324,2023-01-20 10:50:00.062351,120064453,0,0,0,0.2924092,0.9373479,0.9373479,0.62,NaN,0,0.2842864,7,7
3362,2023-01-20 10:50:00.162308,120164383,0,0,0,0.2924092,0.9354739,0.9354739,0.6,NaN,0,0.2824124,6,6
3405,2023-01-20 10:50:00.262319,120264389,0,0,0,0.2924092,0.9334226,0.9334226,0.67,NaN,0,0.2806663,7,7
3442,2023-01-20 10:50:00.362366,120364444,0,0,0,0.2924092,0.9311355,0.9311355,0.65,NaN,0,0.2788064,6,6
3484,2023-01-20 10:50:00.462351,120464428,0,0,0,0.2924092,0.9295204,0.9295204,0.65,NaN,0,0.2776796,6,6
3523,2023-01-20 10:50:00.562308,120564378,0,0,0,0.2924092,0.9278754,0.9278754,0.71,NaN,0,0.2764619,7,7
3565,2023-01-20 10:50:00.662303,120664378,0,0,0,0.2924092,0.9277226,0.9277226,0.68,NaN,0,0.2763091,6,6
3605,2023-01-20 10:50:00.762290,120764377,0,0,0,0.2924092,0.9275584,0.9275584,0.62,NaN,0,0.2761448,6,6
3647,2023-01-20 10:50:00.862304,120864407,0,0,0,0.2924092,0.9262863,0.9262863,0.65,NaN,0,0.2756662,6,6
3683,2023-01-20 10:50:00.962321,120964442,0,0,0,0.2924092,0.9240707,0.9240707,0.65,NaN,0,0.2738169,6,6
3716,2023-01-20 10:50:01.062276,121064400,0,0,0,0.2924092,0.9234792,0.9234792,0.55,NaN,0,0.2738357,6,6
3746,2023-01-20 10:50:01.162326,121164443,0.03124952,2.420694E-05,0.009156894,0.2924092,0.9226285,0.9226285,0.56,NaN,0,0.2729849,6,6
3781,2023-01-20 10:50:01.262304,121264453,0.08124886,6.356835E-05,0.04574153,0.2924092,0.9221285,0.9221285,0.58,NaN,0,0.272485,6,6
3811,2023-01-20 10:50:01.362254,121364457,0.1312484,0.0001019388,0.09187626,0.2924092,0.9209543,0.9209543,0.58,NaN,0,0.271799,6,6
3844,2023-01-20 10:50:01.462259,121464450,0.1812481,0.0001381934,0.1407811,0.2924092,0.9216653,0.9216653,0.52,NaN,0,0.27251,5,5
3876,2023-01-20 10:50:01.562310,121564450,0.2312481,0.0001713037,0.1904898,0.2924092,0.922168,0.922168,0.1,NaN,0,0.2731348,4,4
3910,2023-01-20 10:50:01.662329,121664448,0.281248,0.0002042353,0.2404266,0.2924092,0.9262649,0.9262649,0.29,NaN,0,0.2772318,5,5
3942,2023-01-20 10:50:01.762340,121764457,0.331248,0.0002334118,0.2904306,0.2924092,0.9304829,0.9304829,-0.7,NaN,0,0.2814497,5,5
3976,2023-01-20 10:50:01.862302,121864465,0.3812479,0.0002478659,0.3404585,0.2924092,0.9351445,0.9351445,-0.46,NaN,0,0.2861114,10,10
4007,2023-01-20 10:50:01.962224,121964463,0.4119067,0.0001090467,0.3888803,0.2924092,0.9440839,0.9436575,-1.32,NaN,0,0.2951736,17,17
4040,2023-01-20 10:50:02.062236,122064462,0.3127031,4.49419E-05,0.3642189,0.2924092,0.966525,0.9646008,-0.93,NaN,0,0.3165442,26,38
4070,2023-01-20 10:50:02.162301,122164461,0.2981971,3.257394E-05,0.3174429,0.2924092,0.9957858,1.002795,-0.22,NaN,0,0.3552876,30,55
4105,2023-01-20 10:50:02.262317,122264453,0.3117432,2.95043E-06,0.3096819,0.2924092,1.026866,1.046901,0.85,NaN,0,0.4002481,28,52
4135,2023-01-20 10:50:02.362318,122364456,0.2940469,1.475215E-05,0.3017328,0.2924092,1.054899,1.087806,1.04,NaN,0,0.4424349,22,47
4168,2023-01-20 10:50:02.462057,122464444,0.2887374,3.662705E-05,0.2929359,0.2924092,1.07794,1.129072,1.04,NaN,0,0.4841284,15,42
4201,2023-01-20 10:50:02.562039,122564825,0.2911269,2.968311E-05,0.2905205,0.2924092,1.096851,1.165275,1.19,NaN,0,0.5213683,10,37
4235,2023-01-20 10:50:02.661812,122664726,0.3031548,4.860759E-05,0.2955498,0.2924092,1.112497,1.20023,1.14,NaN,0,0.5563234,5,28
4267,2023-01-20 10:50:02.761973,122764850,0.3070276,1.570582E-05,0.301955,0.2924092,1.126173,1.228915,1.24,NaN,0,0.5850085,2,20
4301,2023-01-20 10:50:02.861899,122864778,0.3200844,9.23872E-07,0.3115529,0.2924092,1.139453,1.269554,1.22,NaN,0,0.6256475,0,17
4332,2023-01-20 10:50:02.961828,122964732,0.3275253,9.328127E-06,0.318671,0.2924092,1.153971,1.307828,1.32,NaN,0,0.6644715,0,13
4365,2023-01-20 10:50:03.061862,123064776,0.3243316,3.129244E-05,0.3236311,0.2924092,1.171252,1.356324,1.38,NaN,0,0.7141272,0,10
4395,2023-01-20 10:50:03.161822,123164738,0.3250945,5.757809E-05,0.3241163,0.2924092,1.192375,1.403012,1.4,NaN,0,0.7624012,2,11
4430,2023-01-20 10:50:03.261817,123264731,0.3386857,0.0001240671,0.3314794,0.2924092,1.217843,1.465503,1.3,NaN,0,0.82709,2,13
4460,2023-01-20 10:50:03.361844,123364752,0.3330501,0.000210315,0.3356481,0.2924092,1.247947,1.51634,1.39,NaN,0,0.8795754,5,15
4493,2023-01-20 10:50:03.461842,123464740,0.3381305,0.000300616,0.3325053,0.2924092,1.282915,1.556099,1.31,NaN,0,0.9212868,10,16
4525,2023-01-20 10:50:03.561938,123564822,0.3528715,0.000388056,0.3462598,0.2924092,1.323279,1.58243,1.46,NaN,0,0.9492046,17,12
4559,2023-01-20 10:50:03.661960,123664841,0.3734039,0.0003374517,0.3619868,0.2924092,1.370315,1.603315,1.47,NaN,0,0.9710059,27,16
4591,2023-01-20 10:50:03.761858,123764743,0.3786276,0.0002621412,0.3753707,0.2924092,1.426094,1.624121,1.53,NaN,0,0.9915066,40,25
4625,2023-01-20 10:50:03.862085,123864778,0.3763675,0.000164032,0.375923,0.2924092,1.491046,1.656356,1.62,NaN,0,1.022947,52,39
4657,2023-01-20 10:50:03.962046,123964429,0.3707899,7.659197E-05,0.3743035,0.2924092,1.563427,1.697386,1.71,NaN,0,1.063062,61,50
4690,2023-01-20 10:50:04.062198,124064421,0.347554,1.847744E-05,0.3626034,0.2924092,1.640228,1.752558,1.71,NaN,0,1.116342,66,58
4720,2023-01-20 10:50:04.162261,124164416,0.3329656,0.0001882613,0.3457927,0.2924092,1.717372,1.814359,1.85,NaN,0,1.176556,66,58
4755,2023-01-20 10:50:04.262289,124264422,0.3160445,0.0006540716,0.3318705,0.2924092,1.791658,1.878815,1.83,NaN,0,1.238937,63,65
4785,2023-01-20 10:50:04.362301,124364438,0.3073789,0.001062155,0.3144203,0.2924092,1.86016,1.942369,1.91,NaN,0,1.301209,56,62
4818,2023-01-20 10:50:04.462263,124464427,0.3359056,0.001516074,0.3223829,0.2924092,1.923119,2.001191,1.98,NaN,0,1.359299,53,60
4851,2023-01-20 10:50:04.562276,124564480,0.3404792,0.001122296,0.3346279,0.2924092,1.984152,2.054407,2.08,NaN,0,1.412088,53,57
4885,2023-01-20 10:50:04.662274,124664467,0.3486014,0.0005164146,0.342574,0.2924092,2.045093,2.108345,2.25,NaN,0,1.464988,54,55
4917,2023-01-20 10:50:04.762287,124764437,0.3471715,0.0002133548,0.3463241,0.2924092,2.106347,2.162937,2.29,NaN,0,1.518909,55,52
4951,2023-01-20 10:50:04.862294,124864458,0.3365634,9.903312E-05,0.342377,0.2924092,2.168596,2.224689,2.42,NaN,0,1.58066,57,56
4981,2023-01-20 10:50:04.962239,124964450,0.3377727,0.0001617372,0.3403973,0.2924092,2.232281,2.291509,2.38,NaN,0,1.647053,58,60
5014,2023-01-20 10:50:05.062275,125064474,0.3356613,0.0003111959,0.3350849,0.2924092,2.297848,2.360441,2.46,NaN,0,1.715558,60,60
5044,2023-01-20 10:50:05.162300,125164450,0.3476865,0.0004159808,0.3410095,0.2924092,2.364961,2.428236,2.6,NaN,0,1.783902,61,65
5079,2023-01-20 10:50:05.262319,125264454,0.340139,0.0003837049,0.3433245,0.2924092,2.433091,2.497402,2.73,NaN,0,1.853496,61,62
5109,2023-01-20 10:50:05.362348,125364488,0.3321114,0.0002690852,0.3368253,0.2924092,2.501463,2.568422,2.78,NaN,0,1.925309,61,65
5142,2023-01-20 10:50:05.462299,125464432,0.3216757,0.0001349151,0.3286192,0.2924092,2.568961,2.64384,2.82,NaN,0,2.001948,59,62
5174,2023-01-20 10:50:05.562317,125564436,0.3217809,9.268522E-05,0.3243555,0.2924092,2.634413,2.717155,2.89,NaN,0,2.076301,55,59
5209,2023-01-20 10:50:05.662384,125664496,0.3263882,4.446507E-05,0.3243885,0.2924092,2.696886,2.788691,2.97,NaN,0,2.14924,51,57
5241,2023-01-20 10:50:05.762346,125764456,0.3151673,8.124113E-05,0.3205378,0.2924092,2.756531,2.855786,3.14,NaN,0,2.217251,48,53
5275,2023-01-20 10:50:05.856696,125864464,0.3015795,0.0001981854,0.3095127,0.2924092,2.813179,2.918265,3.29,NaN,0,2.281377,44,49
5305,2023-01-20 10:50:05.947647,125964492,0.3072439,0.0002005994,0.3093844,0.2924092,2.86606,2.977226,3.4,NaN,0,2.34162,40,47
5338,2023-01-20 10:50:06.042406,126064461,0.3182037,0.0001781583,0.3114177,0.2924092,2.915798,3.035779,3.5,NaN,0,2.401455,36,46
5368,2023-01-20 10:50:06.142715,126164733,0.304903,0.0001907945,0.3081466,0.2924092,2.963586,3.096208,3.58,NaN,0,2.461823,32,40
5403,2023-01-20 10:50:06.242305,126264832,0.3055302,0.0002127886,0.3092931,0.2924092,3.008129,3.152341,3.76,NaN,0,2.518445,28,35
5435,2023-01-20 10:50:06.340963,126364724,0.3023897,0.0002585053,0.3050156,0.2924092,3.050213,3.207438,3.86,NaN,0,2.573175,25,33
5468,2023-01-20 10:50:06.440238,126464742,0.3013436,0.0003162026,0.3010692,0.2924092,3.08983,3.260615,4.09,NaN,0,2.625681,21,29
5500,2023-01-20 10:50:06.540228,126564744,0.3229873,0.0007333159,0.3137155,0.2924092,3.126987,3.311794,4.24,NaN,0,2.676799,17,20
5534,2023-01-20 10:50:06.640293,126664842,0.2942175,0.000982374,0.3094175,0.2924092,3.161172,3.361496,4.21,NaN,0,2.726196,12,19
5566,2023-01-20 10:50:06.740139,126764752,0.2834228,0.0009460449,0.2932442,0.2924092,3.191581,3.410634,4.24,NaN,0,2.775639,6,16
5600,2023-01-20 10:50:06.839823,126864511,0.291683,0.0007125735,0.2900423,0.2924092,3.217583,3.456561,4.32,NaN,0,2.822604,0,13
5630,2023-01-20 10:50:06.939764,126964541,0.3070016,0.0004493892,0.2959341,0.2924092,3.239732,3.497422,4.39,NaN,0,2.863892,-5,3
5663,2023-01-20 10:50:07.039670,127064508,0.3023356,0.0005469024,0.3038764,0.2924092,3.258929,3.531953,4.45,NaN,0,2.898606,-9,0
5693,2023-01-20 10:50:07.139645,127164501,0.3056909,0.0005716383,0.3012575,0.2924092,3.274968,3.562934,4.57,NaN,0,2.929038,-14,-3
5728,2023-01-20 10:50:07.239657,127264499,0.317549,0.0006310344,0.309746,0.2924092,3.288092,3.591345,4.69,NaN,0,2.956838,-18,-12
5758,2023-01-20 10:50:07.339773,127364552,0.3155285,0.00059852,0.3171227,0.2924092,3.298833,3.619351,4.61,NaN,0,2.983562,-22,-16
5791,2023-01-20 10:50:07.439712,127464487,0.3087142,0.0004474819,0.3108908,0.2924092,3.307622,3.643073,4.58,NaN,0,3.006492,-25,-20
5823,2023-01-20 10:50:07.539584,127564446,0.3159867,0.0002959371,0.3111602,0.2924092,3.314814,3.663421,4.52,NaN,0,3.025923,-28,-25
5857,2023-01-20 10:50:07.644018,127664473,0.3231755,0.0002413094,0.3208803,0.2924092,3.320703,3.677894,4.56,NaN,0,3.039114,-30,-30
5889,2023-01-20 10:50:07.755376,127764549,0.3209689,0.0002941489,0.3211308,0.2924092,3.32562,3.689852,4.62,NaN,0,3.050585,-31,-32
5923,2023-01-20 10:50:07.854376,127864546,0.3385853,0.0004904568,0.3292158,0.2924092,3.330547,3.69888,4.75,NaN,0,3.059124,-30,-29
5954,2023-01-20 10:50:07.945119,127964498,0.3348544,0.0008305013,0.3329133,0.2924092,3.337794,3.708062,4.8,NaN,0,3.067268,-28,-30
5988,2023-01-20 10:50:08.039607,128064562,0.3231426,0.0009638965,0.3304898,0.2924092,3.346997,3.719634,4.76,NaN,0,3.07817,-27,-25
6018,2023-01-20 10:50:08.139526,128164500,0.3316918,0.0008099377,0.3281451,0.2924092,3.357591,3.734357,4.73,NaN,0,3.091427,-26,-25
6053,2023-01-20 10:50:08.239527,128264495,0.3496779,0.0005443692,0.342126,0.2924092,3.370579,3.749176,4.8,NaN,0,3.105025,-23,-26
6083,2023-01-20 10:50:08.339567,128364493,0.3367532,0.0002059937,0.3400572,0.2924092,3.386326,3.767319,4.74,NaN,0,3.121459,-21,-26
6116,2023-01-20 10:50:08.439616,128464520,0.3417507,0.000140518,0.3391555,0.2924092,3.404672,3.78615,4.68,NaN,0,3.138215,-18,-21
6148,2023-01-20 10:50:08.539543,128564453,0.3434803,0.0001385212,0.344237,0.2924092,3.425427,3.805227,4.76,NaN,0,3.154607,-16,-19
6182,2023-01-20 10:50:08.639565,128664483,0.3411236,0.0001980066,0.341009,0.2924092,3.446761,3.825428,4.82,NaN,0,3.172549,-16,-15
6214,2023-01-20 10:50:08.739573,128764499,0.3429355,0.000264734,0.3409118,0.2924092,3.467965,3.848281,4.88,NaN,0,3.192472,-16,-14
6248,2023-01-20 10:50:08.839615,128864507,0.3389402,0.0003607273,0.3441685,0.2924092,3.489366,3.87224,4.93,NaN,0,3.212525,-16,-17
6281,2023-01-20 10:50:08.939701,128964495,0.3257314,0.0003258884,0.3342402,0.2924092,3.510855,3.900461,4.98,NaN,0,3.236841,-17,-17
6314,2023-01-20 10:50:09.039788,129064508,0.330277,0.000336051,0.3287361,0.2924092,3.53329,3.929667,5.03,NaN,0,3.262019,-16,-13
6344,2023-01-20 10:50:09.139858,129164539,0.3338365,0.000308156,0.3318818,0.2924092,3.557081,3.962663,5.08,NaN,0,3.290376,-16,-11
6379,2023-01-20 10:50:09.239746,129264475,0.3201529,0.0001634955,0.3310731,0.2924092,3.58127,3.993751,5.21,NaN,0,3.317618,-17,-10
6409,2023-01-20 10:50:09.339583,129364492,0.3048518,9.337068E-05,0.3168575,0.2924092,3.604841,4.02575,5.2,NaN,0,3.345406,-19,-9
6442,2023-01-20 10:50:09.439372,129464876,0.308414,0.0001520514,0.3093089,0.2924092,3.626137,4.057746,5.38,NaN,0,3.373618,-23,-13
6474,2023-01-20 10:50:09.538016,129564737,0.3150462,0.0004634559,0.3119251,0.2924092,3.643768,4.088022,5.46,NaN,0,3.400048,-28,-19
6508,2023-01-20 10:50:09.637260,129664747,0.3084038,0.0006275475,0.3130081,0.2924092,3.658195,4.115745,5.49,NaN,0,3.425025,-32,-25
6540,2023-01-20 10:50:09.737241,129764729,0.3020386,0.0005724132,0.3057728,0.2924092,3.670001,4.142907,5.58,NaN,0,3.449624,-36,-26
6574,2023-01-20 10:50:09.837252,129864749,0.3088906,0.0004693866,0.3060957,0.2924092,3.679662,4.16703,5.6,NaN,0,3.470572,-40,-31
6605,2023-01-20 10:50:09.937205,129964724,0.3113126,0.0003760457,0.3093478,0.2924092,3.687566,4.18859,5.65,NaN,0,3.48902,-42,-35
6638,2023-01-20 10:50:10.037199,130064723,0.3105595,0.000376761,0.3125543,0.2924092,3.694035,4.206223,5.79,NaN,0,3.503662,-45,-41
6668,2023-01-20 10:50:10.137220,130164719,0.3079088,0.0002472997,0.3101152,0.2924092,3.69933,4.223646,5.84,NaN,0,3.518339,-47,-42
6703,2023-01-20 10:50:10.237150,130264729,0.3054368,0.0001098514,0.3072247,0.2924092,3.703662,4.24066,5.85,NaN,0,3.532545,-49,-42
6733,2023-01-20 10:50:10.336889,130364726,0.3080412,6.455183E-05,0.3089448,0.2924092,3.707208,4.256905,5.86,NaN,0,3.545494,-51,-45
6766,2023-01-20 10:50:10.437432,130465443,0.3097762,7.474422E-05,0.307891,0.2924092,3.710109,4.280044,5.89,NaN,0,3.565948,-54,-44
6798,2023-01-20 10:50:10.537348,130565386,0.3186734,0.0002229512,0.3133427,0.2924092,3.712485,4.297885,5.8,NaN,0,3.58086,-56,-47
6832,2023-01-20 10:50:10.637324,130665386,0.3161022,0.001114368,0.3161098,0.2924092,3.714427,4.3114,5.9,NaN,0,3.591689,-57,-51
6864,2023-01-20 10:50:10.737302,130765382,0.3232906,0.003453165,0.3200348,0.2924092,3.716017,4.323621,5.91,NaN,0,3.600735,-59,-54
6898,2023-01-20 10:50:10.837274,130865398,0.3281424,0.005965203,0.3322764,0.2924092,3.717317,4.331879,5.87,NaN,0,3.606491,-60,-58
6928,2023-01-20 10:50:10.937165,130965377,0.3131289,0.005829602,0.3289574,0.2924092,3.718382,4.338176,5.85,NaN,0,3.60992,-61,-59
6961,2023-01-20 10:50:11.037168,131065404,0.3088958,0.004117161,0.3191846,0.2924092,3.719254,4.343413,5.92,NaN,0,3.612593,-61,-58
6990,2023-01-20 10:50:11.137233,131165382,0.310223,0.002840877,0.317346,0.2924092,3.719966,4.349279,6.04,NaN,0,3.616567,-62,-57
7026,2023-01-20 10:50:11.237274,131265372,0.3097954,0.002358228,0.3139293,0.2924092,3.72055,4.356816,6.32,NaN,0,3.621296,-63,-59
7056,2023-01-20 10:50:11.337306,131365411,0.3172626,0.002077371,0.3156126,0.2924092,3.721027,4.368256,6.24,NaN,0,3.630661,-64,-55
7089,2023-01-20 10:50:11.437316,131465423,0.310178,0.00191018,0.3178616,0.2924092,3.721418,4.379845,6.15,NaN,0,3.640174,-65,-57
7121,2023-01-20 10:50:11.537279,131565380,0.3046735,0.001732528,0.3123184,0.2924092,3.721738,4.39318,6.21,NaN,0,3.65174,-66,-58
7155,2023-01-20 10:50:11.637289,131665386,0.3012337,0.00148502,0.3035061,0.2924092,3.721999,4.406783,6.26,NaN,0,3.663695,-68,-54
7187,2023-01-20 10:50:11.737324,131765422,0.2965449,0.001208305,0.299996,0.2924092,3.722213,4.423098,6.07,NaN,0,3.678606,-69,-60
7221,2023-01-20 10:50:11.837274,131865400,0.2840072,0.001145303,0.2927894,0.2924092,3.722389,4.439027,6.13,NaN,0,3.692887,-71,-59
7251,2023-01-20 10:50:11.937193,131965394,0.286392,0.001255989,0.2868274,0.2924092,3.722532,4.455629,6.13,NaN,0,3.70839,-73,-59
7284,2023-01-20 10:50:12.037188,132065406,0.2983247,0.001448423,0.2932797,0.2924092,3.722649,4.467664,6.23,NaN,0,3.71896,-74,-63
7314,2023-01-20 10:50:12.137242,132165379,0.2925318,0.001435012,0.2949892,0.2924092,3.722745,4.47864,6.25,NaN,0,3.728106,-75,-65
7349,2023-01-20 10:50:12.237281,132265368,0.2999025,0.001465559,0.296671,0.2924092,3.722824,4.486315,6.38,NaN,0,3.734499,-76,-66
7379,2023-01-20 10:50:12.337309,132365400,0.3096484,0.001374096,0.3042068,0.2924092,3.722888,4.493701,6.28,NaN,0,3.740786,-77,-71
7412,2023-01-20 10:50:12.437339,132465435,0.3074951,0.001358032,0.3088937,0.2924092,3.72294,4.498314,6.16,NaN,0,3.744545,-77,-69
7444,2023-01-20 10:50:12.537280,132565383,0.3070471,0.001321077,0.3069682,0.2924092,3.722983,4.50098,6.09,NaN,0,3.746295,-77,-72
7478,2023-01-20 10:50:12.637287,132665391,0.3160074,0.001238257,0.3108844,0.2924092,3.72302,4.498612,6.05,NaN,0,3.7435,-77,-77
7510,2023-01-20 10:50:12.737328,132765422,0.3229779,0.0008497238,0.3192165,0.2924092,3.723047,4.493422,6.04,NaN,0,3.738492,-77,-78
7544,2023-01-20 10:50:12.837276,132865390,0.3199703,0.0005729496,0.3218968,0.2924092,3.723071,4.48339,6.29,NaN,0,3.728705,-76,-75
7574,2023-01-20 10:50:12.937190,132965378,0.3156048,0.000513643,0.3193497,0.2924092,3.723093,4.476121,6.23,NaN,0,3.721559,-75,-78
7608,2023-01-20 10:50:13.037184,133065391,0.3199261,0.0005413294,0.3179647,0.2924092,3.723105,4.47072,6.21,NaN,0,3.716707,-74,-77
7638,2023-01-20 10:50:13.137244,133165376,0.3116348,0.0004093647,0.3164026,0.2924092,3.723117,4.466806,6.27,NaN,0,3.713342,-74,-72
7673,2023-01-20 10:50:13.237292,133265379,0.3197987,0.0003651381,0.315385,0.2924092,3.723129,4.464834,6.18,NaN,0,3.711797,-74,-70
7703,2023-01-20 10:50:13.337311,133365401,0.310782,0.0003263056,0.3162052,0.2924092,3.723141,4.465332,6.14,NaN,0,3.712295,-74,-76
7736,2023-01-20 10:50:13.437333,133465425,0.3073457,0.0003744066,0.3107008,0.2924092,3.723154,4.467007,6.21,NaN,0,3.71397,-74,-71
7768,2023-01-20 10:50:13.537297,133565388,0.3163171,0.0004630387,0.3135112,0.2924092,3.723156,4.470651,5.72,NaN,0,3.718041,-74,-71
7802,2023-01-20 10:50:13.637289,133665381,0.3106273,0.000495851,0.3168197,0.2924092,3.723156,4.46914,5.43,NaN,0,3.717262,-74,-73
7834,2023-01-20 10:50:13.737330,133765423,0.3002262,0.0004512966,0.3068817,0.2924092,3.723156,4.464472,5.39,NaN,0,3.712778,-74,-72
7868,2023-01-20 10:50:13.837284,133865409,0.314685,0.0003558397,0.3101504,0.2924092,3.723156,4.452202,5.49,NaN,0,3.70185,-72,-70
7900,2023-01-20 10:50:13.937173,133965381,0.31196,0.0002069175,0.3127675,0.2924092,3.723156,4.437841,5.48,NaN,0,3.688954,-71,-70
7933,2023-01-20 10:50:14.037183,134065416,0.2919157,0.0002124012,0.3007568,0.2924092,3.723156,4.423534,5.2,NaN,0,3.676295,-70,-66
7963,2023-01-20 10:50:14.137222,134165381,0.325274,0.0004504621,0.3076436,0.2924092,3.723156,4.407894,5.39,NaN,0,3.661326,-68,-65
7998,2023-01-20 10:50:14.237277,134265387,0.3458862,0.0006903708,0.3328465,0.2924092,3.723156,4.381649,5.66,NaN,0,3.636364,-65,-70
8028,2023-01-20 10:50:14.337307,134365410,0.3464828,0.0007143021,0.3439187,0.2924092,3.723156,4.352804,5.7,NaN,0,3.607518,-62,-72
8061,2023-01-20 10:50:14.437319,134465417,0.3549339,0.0008311272,0.3510127,0.2924092,3.723156,4.324946,5.71,NaN,0,3.579844,-60,-72
8094,2023-01-20 10:50:14.537285,134565383,0.347196,0.0008731484,0.3489178,0.2924092,3.723156,4.302962,5.82,NaN,0,3.55786,-57,-69
8128,2023-01-20 10:50:14.637290,134665388,0.3560615,0.0009488761,0.3505643,0.2924092,3.723156,4.286378,5.78,NaN,0,3.541398,-56,-68
8160,2023-01-20 10:50:14.737329,134765427,0.3534676,0.0009742081,0.3556637,0.2924092,3.723156,4.273835,6,NaN,0,3.529526,-55,-64
8194,2023-01-20 10:50:14.837261,134865390,0.343231,0.001119643,0.3502463,0.2924092,3.723156,4.266974,5.78,NaN,0,3.52352,-54,-58
8224,2023-01-20 10:50:14.937182,134965395,0.3377204,0.001226425,0.3423122,0.2924092,3.723156,4.266839,5.64,NaN,0,3.522835,-54,-58
8257,2023-01-20 10:50:15.037164,135065406,0.3394717,0.001218528,0.3446385,0.2924092,3.723156,4.267591,5.91,NaN,0,3.523587,-54,-53
8287,2023-01-20 10:50:15.137203,135165380,0.3260354,0.001120329,0.3340442,0.2924092,3.723156,4.274153,5.76,NaN,0,3.53076,-55,-52
8322,2023-01-20 10:50:15.237252,135265381,0.3421009,0.001442045,0.3335603,0.2924092,3.723156,4.282662,5.85,NaN,0,3.539268,-55,-48
8352,2023-01-20 10:50:15.337300,135365408,0.3383039,0.001388639,0.3403614,0.2924092,3.723156,4.290813,5.95,NaN,0,3.547969,-56,-52
8385,2023-01-20 10:50:15.437282,135465379,0.324616,0.001236767,0.3319473,0.2924092,3.723156,4.298521,6,NaN,0,3.555676,-57,-51
8417,2023-01-20 10:50:15.537268,135565368,0.3338537,0.001136363,0.3314107,0.2924092,3.723156,4.307697,6.02,NaN,0,3.564792,-58,-48
8451,2023-01-20 10:50:15.637296,135665397,0.3123195,0.001067936,0.3250524,0.2924092,3.723156,4.317337,5.92,NaN,0,3.574737,-59,-50
8483,2023-01-20 10:50:15.737322,135765421,0.3122576,0.001064897,0.3150704,0.2924092,3.723156,4.327963,5.86,NaN,0,3.585058,-60,-48
8517,2023-01-20 10:50:15.837292,135865401,0.3277791,0.001245171,0.320194,0.2924092,3.723156,4.335829,5.95,NaN,0,3.592924,-61,-53
8547,2023-01-20 10:50:15.937243,135965382,0.3174168,0.001156628,0.3226572,0.2924092,3.723156,4.342454,5.99,NaN,0,3.599549,-61,-55
8580,2023-01-20 10:50:16.037244,136065391,0.3201081,0.001213819,0.3206549,0.2924092,3.723156,4.34593,5.9,NaN,0,3.604246,-62,-52
8610,2023-01-20 10:50:16.137313,136165429,0.3204318,0.001444817,0.3211491,0.2924092,3.723156,4.347441,5.8,NaN,0,3.606367,-62,-59
8645,2023-01-20 10:50:16.237258,136265375,0.3245962,0.001646191,0.3242688,0.2924092,3.723156,4.343626,5.81,NaN,0,3.603773,-62,-58
8675,2023-01-20 10:50:16.337223,136365395,0.3316757,0.00188759,0.3274985,0.2924092,3.723156,4.334325,5.72,NaN,0,3.595936,-61,-57
8708,2023-01-20 10:50:16.437201,136465385,0.3364339,0.00209561,0.3341982,0.2924092,3.723156,4.320184,5.87,NaN,0,3.582528,-59,-59
8740,2023-01-20 10:50:16.537256,136565383,0.3354335,0.002232611,0.3359569,0.2924092,3.723156,4.304769,5.82,NaN,0,3.567845,-58,-58
8774,2023-01-20 10:50:16.637286,136665377,0.3336979,0.002129763,0.3366768,0.2924092,3.723156,4.289214,5.97,NaN,0,3.552962,-56,-60
8806,2023-01-20 10:50:16.737274,136765368,0.3361079,0.002108574,0.3387574,0.2924092,3.723156,4.275659,5.96,NaN,0,3.539407,-55,-56
8840,2023-01-20 10:50:16.837339,136865443,0.3295514,0.00202325,0.3361708,0.2924092,3.723156,4.265559,6.05,NaN,0,3.528818,-54,-58
8870,2023-01-20 10:50:16.937230,136965357,0.3361655,0.002123922,0.3357991,0.2924092,3.723156,4.258079,5.97,NaN,0,3.521155,-53,-54
8903,2023-01-20 10:50:17.037254,137065385,0.3314794,0.001838177,0.336573,0.2924092,3.723156,4.253102,6.09,NaN,0,3.515751,-52,-55
8933,2023-01-20 10:50:17.137281,137165384,0.316194,0.001782089,0.3251045,0.2924092,3.723156,4.253068,6.19,NaN,0,3.514863,-52,-47
8968,2023-01-20 10:50:17.237281,137265369,0.3408989,0.002207994,0.3310436,0.2924092,3.723156,4.256131,6.03,NaN,0,3.517193,-53,-49
8998,2023-01-20 10:50:17.337286,137365382,0.341206,0.002442777,0.3413559,0.2924092,3.723156,4.258746,5.98,NaN,0,3.51932,-53,-49
9031,2023-01-20 10:50:17.437284,137465382,0.3269262,0.002221763,0.3345093,0.2924092,3.723156,4.263119,6.17,NaN,0,3.522594,-53,-52
9063,2023-01-20 10:50:17.537295,137565382,0.325954,0.002110958,0.329802,0.2924092,3.723156,4.270641,5.92,NaN,0,3.529628,-54,-51
9097,2023-01-20 10:50:17.637288,137665368,0.3305475,0.002129912,0.3307874,0.2924092,3.723156,4.277489,5.93,NaN,0,3.535926,-55,-50
9129,2023-01-20 10:50:17.737308,137765389,0.3193482,0.001824558,0.3277186,0.2924092,3.723156,4.283862,5.69,NaN,0,3.541628,-56,-53
9163,2023-01-20 10:50:17.833993,137865399,0.3189798,0.00167039,0.3248992,0.2924092,3.723156,4.288198,5.69,NaN,0,3.54572,-56,-50
9193,2023-01-20 10:50:17.925102,137965417,0.3181421,0.001595378,0.3210114,0.2924092,3.723156,4.291497,5.77,NaN,0,3.548836,-56,-50
9226,2023-01-20 10:50:18.019672,138065394,0.3276177,0.00157702,0.3233904,0.2924092,3.723156,4.292331,5.55,NaN,0,3.549487,-56,-53
9257,2023-01-20 10:50:18.130446,138165371,0.3167248,0.001691729,0.3235209,0.2924092,3.723156,4.29246,5.99,NaN,0,3.549433,-56,-50
9292,2023-01-20 10:50:18.237245,138265376,0.3088734,0.00153029,0.3171852,0.2924092,3.723156,4.293918,6.09,NaN,0,3.551318,-57,-52
9322,2023-01-20 10:50:18.337303,138365393,0.3332348,0.001566857,0.323952,0.2924092,3.723156,4.299334,6.14,NaN,0,3.557222,-57,-55
9355,2023-01-20 10:50:18.433981,138465365,0.3364087,0.00166142,0.3342585,0.2924092,3.723156,4.305452,5.96,NaN,0,3.563768,-58,-54
9387,2023-01-20 10:50:18.525091,138565372,0.3327314,0.001804382,0.335917,0.2924092,3.723156,4.311734,6.02,NaN,0,3.570294,-58,-55
9421,2023-01-20 10:50:18.617808,138665411,0.3242572,0.00179249,0.3321708,0.2924092,3.723156,4.31745,5.98,NaN,0,3.576803,-59,-56
9453,2023-01-20 10:50:18.717738,138765375,0.3255954,0.001841992,0.3262016,0.2924092,3.723156,4.328273,5.85,NaN,0,3.588236,-60,-54
9487,2023-01-20 10:50:18.817724,138865395,0.3253145,0.001739383,0.3276814,0.2924092,3.723156,4.334723,5.78,NaN,0,3.594992,-61,-56
9519,2023-01-20 10:50:18.917669,138965376,0.32382,0.001597881,0.3269521,0.2924438,3.723156,4.340908,5.77,NaN,0,3.601298,-61,-56
9552,2023-01-20 10:50:19.017663,139065394,0.3190426,0.001257032,0.3228744,0.2927665,3.723156,4.342868,5.82,NaN,0,3.603503,-61,-56
9582,2023-01-20 10:50:19.117674,139165369,0.3200793,0.001015961,0.3192983,0.2930465,3.723156,4.344102,5.8,NaN,0,3.605409,-62,-54
9617,2023-01-20 10:50:19.217694,139265364,0.3301218,0.001100868,0.325078,0.2933311,3.723156,4.341627,5.92,NaN,0,3.603055,-61,-57
9647,2023-01-20 10:50:19.317750,139365446,0.3324766,0.001043141,0.3323137,0.2935515,3.723156,4.339564,5.85,NaN,0,3.601176,-61,-59
9680,2023-01-20 10:50:19.417643,139465369,0.3277406,0.0008822083,0.3305563,0.2938544,3.723156,4.334255,5.93,NaN,0,3.595988,-61,-61
9712,2023-01-20 10:50:19.517598,139565377,0.327309,0.0008344054,0.3289233,0.2938895,3.723156,4.330015,5.76,NaN,0,3.592603,-60,-56
9746,2023-01-20 10:50:19.617605,139665429,0.3298863,0.0008845031,0.3291359,0.2942351,3.723156,4.323591,5.75,NaN,0,3.586423,-60,-59
9778,2023-01-20 10:50:19.717547,139765373,0.3393278,0.001153827,0.3345398,0.2943408,3.723156,4.314064,5.72,NaN,0,3.577994,-59,-59
9812,2023-01-20 10:50:19.817571,139865402,0.3433885,0.001059026,0.3438747,0.2945364,3.723156,4.301574,5.6,NaN,0,3.566237,-57,-60
9842,2023-01-20 10:50:19.917528,139965376,0.3442534,0.0009869337,0.3444246,0.2949287,3.723156,4.290165,5.68,NaN,0,3.556049,-56,-57
9875,2023-01-20 10:50:20.017532,140065392,0.3298331,0.000949353,0.3385306,0.2954021,3.723156,4.27679,5.5,NaN,0,3.543406,-55,-60
9905,2023-01-20 10:50:20.117527,140165377,0.3342037,0.001127154,0.3354803,0.2958091,3.723156,4.26293,5.47,NaN,0,3.530462,-53,-52
9940,2023-01-20 10:50:20.217522,140265353,0.3354653,0.001386285,0.3371552,0.2962131,3.723156,4.248223,5.28,NaN,0,3.516304,-52,-54
9973,2023-01-20 10:50:20.317607,140365374,0.3418132,0.001193434,0.3388184,0.2964995,3.729019,4.233197,5.2,NaN,0,3.502255,-50,-50
10006,2023-01-20 10:50:20.417667,140465382,0.3400796,0.001077056,0.3410754,0.2964995,3.729022,4.215557,5.34,NaN,0,3.485164,-48,-51
10038,2023-01-20 10:50:20.517687,140565406,0.341238,0.001032561,0.3420268,0.2964995,3.729058,4.19912,5.46,NaN,0,3.46952,-46,-49
10072,2023-01-20 10:50:20.617645,140665361,0.3424522,0.0008777082,0.3426555,0.2964995,3.729199,4.186115,5.39,NaN,0,3.457065,-45,-46
10104,2023-01-20 10:50:20.717676,140765354,0.3418034,0.0008024275,0.341191,0.2964995,3.72953,4.178114,5.38,NaN,0,3.449064,-44,-43
10138,2023-01-20 10:50:20.817701,140865369,0.3396672,0.001089007,0.3424582,0.2964995,3.730122,4.171978,5.43,NaN,0,3.442928,-43,-46
10168,2023-01-20 10:50:20.917568,140965355,0.3334935,0.001440555,0.3401224,0.2964995,3.731028,4.170833,5.42,NaN,0,3.441783,-42,-42
10201,2023-01-20 10:50:21.017493,141065368,0.3289762,0.001873344,0.3355529,0.2964995,3.732294,4.171362,5.22,NaN,0,3.442739,-42,-40
10231,2023-01-20 10:50:21.117572,141165392,0.3311377,0.002064556,0.3340123,0.2964995,3.733971,4.174125,5.21,NaN,0,3.44593,-41,-37
10266,2023-01-20 10:50:21.217568,141265346,0.3346779,0.002453446,0.3339748,0.2964995,3.736122,4.175776,5.21,NaN,0,3.448495,-40,-34
10296,2023-01-20 10:50:21.317570,141365373,0.3331921,0.002534837,0.3357185,0.2964995,3.738819,4.178444,5.2,NaN,0,3.452629,-40,-35
10329,2023-01-20 10:50:21.417522,141465339,0.3241469,0.002338678,0.3323292,0.2964995,3.742144,4.180848,5.21,NaN,0,3.456497,-39,-35
10361,2023-01-20 10:50:21.517568,141565349,0.3235477,0.002270341,0.3273107,0.2964995,3.746186,4.187782,5.19,NaN,0,3.465507,-38,-31
10395,2023-01-20 10:50:21.617602,141665364,0.3298694,0.002284974,0.3289347,0.2964995,3.751033,4.193083,5.19,NaN,0,3.473249,-37,-33
10427,2023-01-20 10:50:21.717539,141765362,0.3349665,0.002292454,0.3331356,0.2964995,3.756771,4.199872,5.29,NaN,0,3.483457,-36,-32
10461,2023-01-20 10:50:21.817526,141865402,0.3398392,0.002298981,0.3364789,0.2964995,3.763491,4.205235,5.22,NaN,0,3.492177,-35,-30
10491,2023-01-20 10:50:21.917477,141965367,0.3350483,0.002131164,0.3397376,0.2964995,3.771283,4.211528,5.43,NaN,0,3.50207,-34,-33
10524,2023-01-20 10:50:22.017474,142065366,0.3368384,0.002300471,0.3397088,0.2964995,3.780243,4.218163,5.36,NaN,0,3.512184,-32,-32
10554,2023-01-20 10:50:22.117502,142165344,0.3412555,0.002492279,0.3420218,0.2964995,3.790466,4.227303,5.28,NaN,0,3.525474,-30,-31
10589,2023-01-20 10:50:22.217543,142265349,0.3478754,0.002413809,0.3456441,0.2964995,3.80205,4.236791,5.26,NaN,0,3.539418,-29,-32
10619,2023-01-20 10:50:22.317527,142365368,0.3518476,0.002703309,0.356641,0.2964995,3.815094,4.250548,5.29,NaN,0,3.557936,-27,-28
10652,2023-01-20 10:50:22.417495,142465357,0.3377838,0.002974451,0.3468703,0.2964995,3.829679,4.264487,5.34,NaN,0,3.576513,-25,-28
10684,2023-01-20 10:50:22.517581,142565396,0.3394248,0.003906429,0.34367,0.2964995,3.845874,4.282819,5.44,NaN,0,3.599362,-24,-23
10717,2023-01-20 10:50:22.617555,142665335,0.3473594,0.005650312,0.3479421,0.2964995,3.863744,4.303112,5.48,NaN,0,3.625576,-22,-19
10749,2023-01-20 10:50:22.717543,142765340,0.3528384,0.007714897,0.3538712,0.2964995,3.883358,4.330631,5.35,NaN,0,3.660052,-21,-16
10783,2023-01-20 10:50:22.817547,142865364,0.3598188,0.009650052,0.3611759,0.2964995,3.904789,4.354733,5.27,NaN,0,3.691844,-19,-17
10813,2023-01-20 10:50:22.917504,142965352,0.3673903,0.01120558,0.3717807,0.2964995,3.92812,4.377956,5.21,NaN,0,3.724041,-17,-19
10846,2023-01-20 10:50:23.017499,143065364,0.3710576,0.01236284,0.3785336,0.2964995,3.953439,4.395578,5.36,NaN,0,3.751184,-14,-16
10876,2023-01-20 10:50:23.117576,143165390,0.3621668,0.01194933,0.3787026,0.2964995,3.98084,4.412781,5.45,NaN,0,3.778945,-10,-16
10913,2023-01-20 10:50:23.217577,143265354,0.365105,0.01283541,0.3779761,0.2964995,4.010418,4.431099,5.68,NaN,0,3.808677,-6,-12
10943,2023-01-20 10:50:23.317566,143365372,0.3722777,0.01461327,0.3830996,0.2964995,4.042269,4.452814,5.57,NaN,0,3.842721,-3,-12
10976,2023-01-20 10:50:23.417529,143465356,0.3740153,0.01610503,0.3881901,0.2964995,4.076468,4.477466,5.79,NaN,0,3.88013,0,-7
11008,2023-01-20 10:50:23.517535,143565348,0.3688263,0.0169445,0.3895754,0.2964995,4.113063,4.506259,5.67,NaN,0,3.922473,3,-1
11042,2023-01-20 10:50:23.617544,143665348,0.3673057,0.01733422,0.3850886,0.2964995,4.152092,4.541576,5.8,NaN,0,3.972682,6,8
11074,2023-01-20 10:50:23.717536,143765354,0.3688554,0.01863495,0.3845252,0.2964995,4.193582,4.584255,6.02,NaN,0,4.03184,9,10
11107,2023-01-20 10:50:23.817585,143865417,0.3651266,0.01882794,0.388125,0.2964995,4.237533,4.633466,6.14,NaN,0,4.098324,11,9
11141,2023-01-20 10:50:23.917508,143965356,0.356164,0.01787126,0.3800083,0.2964995,4.283915,4.693622,6.22,NaN,0,4.177341,12,17
11174,2023-01-20 10:50:24.017529,144065380,0.3481431,0.01713642,0.3730814,0.2964995,4.332678,4.757688,6.26,NaN,0,4.260876,13,19
11204,2023-01-20 10:50:24.117550,144165340,0.3496983,0.01693034,0.3690823,0.2964995,4.38377,4.825697,6.32,NaN,0,4.350065,14,20
11239,2023-01-20 10:50:24.217606,144265356,0.3463028,0.01652259,0.3659627,0.2964995,4.437138,4.89705,6.35,NaN,0,4.443024,14,24
11269,2023-01-20 10:50:24.317562,144365374,0.3551724,0.01745853,0.3645092,0.2964995,4.492722,4.975199,6.47,NaN,0,4.542413,14,25
11302,2023-01-20 10:50:24.417540,144465392,0.3457861,0.01739976,0.3741527,0.2964995,4.550442,5.049668,6.58,NaN,0,4.639832,14,25
11335,2023-01-20 10:50:24.517573,144565359,0.3150337,0.01513931,0.3457907,0.2964995,4.610226,5.128295,6.87,NaN,0,4.742202,14,25
11370,2023-01-20 10:50:24.617613,144665359,0.3281483,0.01463389,0.3440985,0.2964995,4.672002,5.208755,7.23,NaN,0,4.84671,15,26
11402,2023-01-20 10:50:24.717517,144765345,0.3260597,0.01407182,0.3409999,0.2964995,4.735681,5.293881,7.25,NaN,0,4.955334,14,26
11436,2023-01-20 10:50:24.817544,144865439,0.2876513,0.01266572,0.3269266,0.2964995,4.805522,5.381734,7.12,NaN,0,5.067846,13,26
11467,2023-01-20 10:50:24.917478,144965372,0.2799946,0.01164594,0.3017917,0.2964995,4.87449,5.471747,7.03,NaN,0,5.182272,6,26
11500,2023-01-20 10:50:25.017507,145065396,0.2444312,0.006300941,0.2797298,0.2964995,4.936415,5.552286,7.08,NaN,0,5.288202,-4,23
11530,2023-01-20 10:50:25.117554,145165414,0.2361709,0.002188921,0.2501894,0.2964995,4.987852,5.624433,6.97,NaN,0,5.385373,-17,9
11566,2023-01-20 10:50:25.217532,145265369,0.2469559,0.001034379,0.2482352,0.2964995,5.029943,5.6815,6.89,NaN,0,5.466977,-27,1
11596,2023-01-20 10:50:25.317546,145365389,0.2305233,0.003947765,0.244643,0.2964995,5.064388,5.724507,6.94,NaN,0,5.534276,-34,-5
11629,2023-01-20 10:50:25.417526,145465372,0.2170323,0.008602962,0.2296218,0.2964995,5.092576,5.759271,5.66,NaN,0,5.591805,-41,-13
11661,2023-01-20 10:50:25.517551,145565383,0.2017934,0.009451345,0.2241956,0.2964995,5.115642,5.782362,5.35,NaN,0,5.636807,-45,-19
11695,2023-01-20 10:50:25.617557,145665380,0.223013,0.009360582,0.2185937,0.2964995,5.134515,5.780597,5.52,NaN,0,5.654757,-47,-24
11727,2023-01-20 10:50:25.717526,145765362,0.2791967,0.01284292,0.2516685,0.2964995,5.14996,5.75475,6.08,NaN,0,5.647831,-46,-42
11760,2023-01-20 10:50:25.817541,145865391,0.3105866,0.01681733,0.3008627,0.2964995,5.1626,5.710513,6.17,NaN,0,5.620562,-43,-52
11792,2023-01-20 10:50:25.917491,145965365,0.311253,0.01985025,0.3272742,0.2964995,5.172941,5.656871,6.27,NaN,0,5.58224,-39,-57
11825,2023-01-20 10:50:26.017495,146065382,0.2897567,0.01732355,0.314608,0.2964995,5.181404,5.606387,6.15,NaN,0,5.545916,-34,-54
11855,2023-01-20 10:50:26.117568,146165418,0.2996348,0.01543358,0.3101746,0.2964995,5.188332,5.562579,6.2,NaN,0,5.513888,-31,-47
11890,2023-01-20 10:50:26.217534,146265359,0.3831671,0.01388392,0.3506157,0.2964995,5.193999,5.519035,6.67,NaN,0,5.480964,-27,-54
11920,2023-01-20 10:50:26.317527,146365388,0.3720843,0.01126927,0.3811905,0.2964995,5.198637,5.474662,6.84,NaN,0,5.445258,-23,-54
11953,2023-01-20 10:50:26.417540,146465426,0.3786323,0.009177238,0.3811081,0.2964995,5.202463,5.44055,6.51,NaN,0,5.418531,-20,-49
11985,2023-01-20 10:50:26.517518,146565374,0.4064198,0.00736329,0.3958637,0.2964995,5.206798,5.415293,6.37,NaN,0,5.39956,-15,-47
12019,2023-01-20 10:50:26.617543,146665375,0.4388299,0.005738646,0.4203696,0.2964995,5.214629,5.394613,5.97,NaN,0,5.383458,-6,-41
12051,2023-01-20 10:50:26.717589,146765426,0.4514765,0.004302233,0.4457588,0.2964995,5.230522,5.379229,5.86,NaN,0,5.372103,6,-27
12084,2023-01-20 10:50:26.817543,146865388,0.4354201,0.003121853,0.4465988,0.2964995,5.258846,5.37618,5.68,NaN,0,5.372166,23,-11
12115,2023-01-20 10:50:26.917510,146965380,0.4392223,0.002899557,0.4408689,0.2964995,5.301071,5.389237,5.66,NaN,0,5.38797,40,13
12148,2023-01-20 10:50:27.017503,147065391,0.434543,0.002499282,0.4408371,0.2964995,5.356544,5.418061,5.55,NaN,0,5.418625,55,31
12178,2023-01-20 10:50:27.117507,147165386,0.4180898,0.001882315,0.4304543,0.2964995,5.424474,5.462096,5.75,NaN,0,5.463576,69,47
12213,2023-01-20 10:50:27.217565,147265433,0.4218338,0.002069294,0.4233572,0.2964995,5.503217,5.523139,5.76,NaN,0,5.525595,81,62
12243,2023-01-20 10:50:27.317559,147365413,0.4362492,0.002268881,0.4306465,0.2964995,5.592575,5.598224,5.67,NaN,0,5.601229,94,82
12276,2023-01-20 10:50:27.415965,147465380,0.4301497,0.001864165,0.4356313,0.2964995,5.693368,5.685186,5.75,NaN,0,5.688436,107,95
12308,2023-01-20 10:50:27.506993,147565379,0.4186161,0.001244724,0.4276233,0.2964995,5.804688,5.786999,5.83,NaN,0,5.789822,118,110
12340,2023-01-20 10:50:27.598028,147665385,0.4101267,0.0007664561,0.4170451,0.2964995,5.926154,5.902513,5.99,NaN,0,5.904786,128,126
12374,2023-01-20 10:50:27.697873,147765431,0.414529,0.0006742179,0.4115894,0.2964995,6.056797,6.029765,6.17,NaN,0,6.031916,137,135
12405,2023-01-20 10:50:27.797816,147865382,0.4089107,0.0008214712,0.4139776,0.2964995,6.196383,6.168831,6.28,NaN,0,6.170616,146,146
12439,2023-01-20 10:50:27.897754,147965383,0.4093298,0.001163781,0.4097175,0.2964995,6.343327,6.316289,6.27,NaN,0,6.317953,152,154
12470,2023-01-20 10:50:27.997693,148065385,0.4044203,0.001261085,0.4087352,0.2964995,6.496035,6.468061,6.44,NaN,0,6.469663,157,161
12502,2023-01-20 10:50:28.097708,148165377,0.3902879,0.001000315,0.3998444,0.2964995,6.653299,6.624779,6.68,NaN,0,6.624489,161,165
12535,2023-01-20 10:50:28.197774,148265419,0.3829897,0.0005397797,0.3889416,0.2964995,6.814167,6.78837,6.85,NaN,0,6.786798,165,169
12568,2023-01-20 10:50:28.297769,148365388,0.3921476,0.0004247129,0.389553,0.2964995,6.978742,6.957846,7.23,NaN,0,6.954016,168,176
12599,2023-01-20 10:50:28.397776,148465370,0.3966253,0.0003578365,0.39277,0.2964995,7.147149,7.130081,7.33,NaN,0,7.124237,171,178
12633,2023-01-20 10:50:28.508520,148565392,0.3853344,0.0003435016,0.3917226,0.2964995,7.318907,7.311807,7.41,NaN,0,7.304497,174,179
12666,2023-01-20 10:50:28.615954,148665366,0.3791043,0.0002768934,0.3855083,0.2964995,7.493668,7.496302,7.49,NaN,0,7.486856,175,180
12699,2023-01-20 10:50:28.706961,148765374,0.3762124,0.0002122521,0.3789881,0.2964995,7.670957,7.68131,7.79,NaN,0,7.669972,177,185
12730,2023-01-20 10:50:28.797999,148865415,0.4013804,0.0002038479,0.3851237,0.2964995,7.850595,7.867627,7.97,NaN,0,7.854946,179,181
12765,2023-01-20 10:50:28.897688,148965413,0.3855208,0.0002119243,0.393462,0.2964995,8.032415,8.052955,8.15,NaN,0,8.03887,180,184
12796,2023-01-20 10:50:28.997557,149065396,0.3815802,0.0002167523,0.3876599,0.2964995,8.216111,8.237342,8.38,NaN,0,8.221489,182,184
12828,2023-01-20 10:50:29.097587,149165376,0.3793079,0.0001594722,0.382671,0.2964995,8.401062,8.425577,8.61,NaN,0,8.407953,182,185
12862,2023-01-20 10:50:29.197670,149265405,0.3827924,0.0001728237,0.3807676,0.2964995,8.586639,8.614713,8.69,NaN,0,8.595379,183,187
12894,2023-01-20 10:50:29.297595,149365392,0.3933146,0.0001454949,0.3909042,0.2964995,8.773281,8.802879,8.81,NaN,0,8.782447,184,186
12925,2023-01-20 10:50:29.397517,149465379,0.3899026,0.0001221001,0.3933312,0.2964995,8.961472,8.990631,9.08,NaN,0,8.968978,185,188
12959,2023-01-20 10:50:29.497525,149565370,0.3770209,0.0003091395,0.3849863,0.2964995,9.150923,9.181462,9.28,NaN,0,9.158344,186,185
12990,2023-01-20 10:50:29.597596,149665422,0.3742095,0.0004678071,0.3763338,0.2964995,9.340753,9.371428,9.5,NaN,0,9.347455,186,190
13025,2023-01-20 10:50:29.697549,149765383,0.3790725,0.0007211566,0.3726451,0.2964995,9.530313,9.564954,9.71,NaN,0,9.539577,185,189
13056,2023-01-20 10:50:29.797556,149865399,0.3847723,0.0008364618,0.3834681,0.2964995,9.719329,9.755774,9.9,NaN,0,9.7293,185,185
13089,2023-01-20 10:50:29.897502,149965367,0.3823538,0.0006886721,0.3839992,0.2964995,9.907775,9.947347,10.06,NaN,0,9.919224,184,184
13120,2023-01-20 10:50:29.997513,150065400,0.3635362,0.0004241765,0.3752052,0.2964995,10.09551,10.13871,10.31,NaN,0,10.10919,182,185
13152,2023-01-20 10:50:30.097560,150165415,0.3666398,0.0001595318,0.3674118,0.2964995,10.28126,10.33402,10.54,NaN,0,10.30297,179,186
13185,2023-01-20 10:50:30.197543,150265364,0.3651244,2.041459E-05,0.3662851,0.2964995,10.46512,10.52396,10.77,NaN,0,10.4923,176,186
13217,2023-01-20 10:50:30.297571,150365390,0.3539732,1.117587E-05,0.3597589,0.2964995,10.64673,10.71875,10.98,NaN,0,10.68642,173,180
13248,2023-01-20 10:50:30.397552,150465370,0.3665673,6.082654E-05,0.3614748,0.2964995,10.82642,10.90901,11.18,NaN,0,10.87625,170,176
13282,2023-01-20 10:50:30.497547,150565370,0.3555924,0.0001356006,0.36173,0.2964995,11.00514,11.0987,11.37,NaN,0,11.06466,168,176
13314,2023-01-20 10:50:30.597592,150665421,0.3458159,0.0001194179,0.3539873,0.2964995,11.18254,11.28612,11.54,NaN,0,11.25159,166,173
13349,2023-01-20 10:50:30.697534,150765365,0.3540855,6.744266E-05,0.3504249,0.2964995,11.35834,11.47412,11.79,NaN,0,11.43782,163,170
13380,2023-01-20 10:50:30.797557,150865390,0.3582867,4.351139E-06,0.3537759,0.2964995,11.53279,11.65511,12.05,NaN,0,11.61734,161,170
13413,2023-01-20 10:50:30.897516,150965382,0.3538792,9.924173E-06,0.3547616,0.2964995,11.70621,11.84098,12.29,NaN,0,11.80194,159,168
13444,2023-01-20 10:50:30.997502,151065401,0.3501681,3.486872E-05,0.3522288,0.2964995,11.87862,12.02276,12.46,NaN,0,11.98274,157,162
13476,2023-01-20 10:50:31.097563,151165377,0.3512381,7.57575E-05,0.3514011,0.2964995,12.05036,12.20613,12.62,NaN,0,12.16495,155,160
13509,2023-01-20 10:50:31.197643,151265369,0.3632838,0.0001339018,0.3543134,0.2964995,12.22165,12.38594,12.79,NaN,0,12.3436,154,159
13541,2023-01-20 10:50:31.297630,151365403,0.3682706,0.0001572967,0.3627513,0.2964995,12.39252,12.56537,12.98,NaN,0,12.52242,153,155
13572,2023-01-20 10:50:31.397555,151465378,0.3579945,0.00021258,0.3609877,0.2964995,12.56308,12.73934,13.16,NaN,0,12.69602,152,152
13606,2023-01-20 10:50:31.497533,151565376,0.3629318,0.0002520084,0.3608779,0.2964995,12.73372,12.91561,13.34,NaN,0,12.87241,152,153
13637,2023-01-20 10:50:31.597515,151665378,0.3368134,0.0002757907,0.351627,0.2964995,12.90432,13.08984,13.58,NaN,0,13.04652,150,156
13672,2023-01-20 10:50:31.697515,151765366,0.3027146,0.0003987253,0.3289337,0.2964995,13.07089,13.26615,13.81,NaN,0,13.22368,143,149
13703,2023-01-20 10:50:31.797557,151865394,0.2684387,0.0004115105,0.2963758,0.2964995,13.22845,13.43546,13.91,NaN,0,13.39361,130,148
13737,2023-01-20 10:50:31.897503,151965362,0.245006,0.0003856421,0.2654174,0.2964995,13.37199,13.60189,14.17,NaN,0,13.5604,111,137
13768,2023-01-20 10:50:31.997513,152065395,0.2229746,0.000355199,0.2416665,0.2964995,13.49652,13.75066,14.33,NaN,0,13.71015,88,117
13800,2023-01-20 10:50:32.097524,152165381,0.2458394,0.0004471838,0.2377642,0.2964995,13.5993,13.88189,14.46,NaN,0,13.84235,64,93
13833,2023-01-20 10:50:32.197581,152265411,0.256641,0.0005396307,0.2493284,0.2964995,13.68341,13.98745,14.6,NaN,0,13.94859,45,68
13865,2023-01-20 10:50:32.297570,152365393,0.2629501,0.0005296767,0.2581086,0.2964995,13.75224,14.0761,14.82,NaN,0,14.03809,29,55
13896,2023-01-20 10:50:32.397563,152465379,0.2661588,0.0004477799,0.2615895,0.2964995,13.80857,14.14362,14.88,NaN,0,14.10573,17,34
13930,2023-01-20 10:50:32.497530,152565370,0.2792617,0.000287503,0.2715709,0.2964995,13.85466,14.20014,14.93,NaN,0,14.16304,7,18
13961,2023-01-20 10:50:32.597508,152665374,0.2887092,0.0002916753,0.2798975,0.2964995,13.89238,14.23954,15.13,NaN,0,14.20281,0,10
13996,2023-01-20 10:50:32.697523,152765376,0.3006592,0.00038293,0.2903292,0.2964995,13.92324,14.27141,15.17,NaN,0,14.23541,-6,-3
14027,2023-01-20 10:50:32.797545,152865384,0.3130755,0.0004962981,0.3030992,0.2964995,13.9485,14.2915,15.22,NaN,0,14.25679,-11,-14
14060,2023-01-20 10:50:32.897508,152965368,0.3250823,0.0006037056,0.3159087,0.2964995,13.96917,14.30782,15.31,NaN,0,14.27359,-15,-21
14091,2023-01-20 10:50:32.997525,153065406,0.3456249,0.0008759797,0.330519,0.2964995,13.98608,14.31544,15.33,NaN,0,14.28139,-17,-27
14123,2023-01-20 10:50:33.097516,153165370,0.3542395,0.001118004,0.3448665,0.2964995,13.99992,14.32409,15.32,NaN,0,14.29158,-19,-30
14156,2023-01-20 10:50:33.197591,153265417,0.3415861,0.00140965,0.344958,0.2964995,14.01124,14.32692,15.34,NaN,0,14.29495,-21,-32
14188,2023-01-20 10:50:33.297573,153365394,0.341738,0.001563132,0.3474856,0.2964995,14.02052,14.33212,15.29,NaN,0,14.30131,-22,-34
14220,2023-01-20 10:50:33.397560,153465377,0.3350624,0.001460314,0.3424706,0.2964995,14.0281,14.33475,15.23,NaN,0,14.30492,-23,-36
14254,2023-01-20 10:50:33.497589,153565410,0.327918,0.00109598,0.3369332,0.2964995,14.03431,14.341,15.18,NaN,0,14.31196,-25,-32
14287,2023-01-20 10:50:33.597543,153665369,0.3252086,0.001021892,0.3295721,0.2964995,14.03939,14.34525,15.21,NaN,0,14.31725,-25,-26
14322,2023-01-20 10:50:33.697546,153765379,0.3226647,0.0009046197,0.3277948,0.2964995,14.04354,14.35468,15.21,NaN,0,14.32802,-27,-28
14353,2023-01-20 10:50:33.797551,153865390,0.3237481,0.0009370148,0.3257042,0.2964995,14.04694,14.36051,15.26,NaN,0,14.33434,-28,-27
14388,2023-01-20 10:50:33.897504,153965369,0.3208572,0.000931114,0.3234121,0.2964995,14.04973,14.37023,15.27,NaN,0,14.3451,-29,-24
14419,2023-01-20 10:50:33.997499,154065390,0.3218249,0.001188993,0.322307,0.2964995,14.05201,14.37612,15.28,NaN,0,14.35184,-30,-28
14451,2023-01-20 10:50:34.097494,154165372,0.3200915,0.001345783,0.322151,0.2964995,14.05387,14.3828,15.29,NaN,0,14.35993,-31,-28
14484,2023-01-20 10:50:34.197517,154265381,0.322712,0.001819581,0.3216814,0.2964995,14.0554,14.38658,15.31,NaN,0,14.36487,-31,-26
14516,2023-01-20 10:50:34.297548,154365388,0.3249809,0.002006143,0.3246614,0.2964995,14.05664,14.39201,15.26,NaN,0,14.37109,-32,-29
14547,2023-01-20 10:50:34.397548,154465365,0.3333057,0.002460033,0.3310611,0.2964995,14.05766,14.39272,15.32,NaN,0,14.37235,-32,-32
14582,2023-01-20 10:50:34.497696,154565476,0.3379291,0.002524376,0.3366601,0.2964995,14.0585,14.39503,15.37,NaN,0,14.37576,-32,-32
14612,2023-01-20 10:50:34.597624,154665368,0.3480607,0.00263989,0.3438779,0.2964995,14.05918,14.393,15.42,NaN,0,14.37397,-32,-32
14647,2023-01-20 10:50:34.697581,154765372,0.3347767,0.002107382,0.341406,0.2964995,14.05974,14.39401,15.34,NaN,0,14.37492,-32,-34
14678,2023-01-20 10:50:34.797550,154865390,0.3451809,0.002006978,0.3398778,0.2964995,14.0602,14.39319,15.28,NaN,0,14.37367,-32,-32
14714,2023-01-20 10:50:34.897501,154965374,0.3448306,0.001775116,0.3446813,0.2964995,14.05063,14.39294,15.27,NaN,0,14.37269,-34,-33
14745,2023-01-20 10:50:34.997494,155065400,0.3424963,0.001734436,0.3453734,0.2964995,14.05063,14.38953,15.3,NaN,0,14.36843,-33,-33
14777,2023-01-20 10:50:35.097531,155165355,0.3406824,0.001404345,0.3441122,0.2964995,14.05065,14.38864,15.35,NaN,0,14.36675,-33,-35
14810,2023-01-20 10:50:35.197612,155265350,0.3403991,0.001166791,0.345283,0.2964995,14.05072,14.3863,15.31,NaN,0,14.36348,-33,-36
14842,2023-01-20 10:50:35.297623,155365361,0.3517482,0.001055807,0.3468265,0.2964995,14.05093,14.38628,15.41,NaN,0,14.362,-33,-32
14873,2023-01-20 10:50:35.397605,155465346,0.3507998,0.00112614,0.3497295,0.2964995,14.05136,14.38449,15.44,NaN,0,14.35899,-32,-30
14907,2023-01-20 10:50:35.497618,155565358,0.3376108,0.0009645522,0.3433427,0.2964995,14.05208,14.38817,15.46,NaN,0,14.36164,-32,-30
14938,2023-01-20 10:50:35.597669,155665408,0.332894,0.001096547,0.3372465,0.2964995,14.05315,14.39189,15.46,NaN,0,14.3645,-32,-31
14973,2023-01-20 10:50:35.697594,155765353,0.3318729,0.001455933,0.3343812,0.2964995,14.05463,14.4018,15.45,NaN,0,14.37392,-32,-24
15004,2023-01-20 10:50:35.797590,155865369,0.3295299,0.001884013,0.3324943,0.2964995,14.05657,14.41028,15.46,NaN,0,14.38198,-32,-26
15037,2023-01-20 10:50:35.897530,155965350,0.3363123,0.002177298,0.3355116,0.2964995,14.05901,14.42152,15.61,NaN,0,14.39346,-33,-27
15068,2023-01-20 10:50:35.997528,156065389,0.3366336,0.002490222,0.3363896,0.2964995,14.06201,14.43075,15.62,NaN,0,14.40348,-33,-28
15100,2023-01-20 10:50:36.097551,156165356,0.3338073,0.002640665,0.3394495,0.2964995,14.06564,14.44388,15.54,NaN,0,14.41801,-33,-28
15133,2023-01-20 10:50:36.197618,156265365,0.3261819,0.003072768,0.3340164,0.2964995,14.06995,14.45465,15.72,NaN,0,14.43104,-32,-28
15165,2023-01-20 10:50:36.297624,156365417,0.3483552,0.004053056,0.3381341,0.2964995,14.07501,14.46813,15.75,NaN,0,14.44691,-32,-26
15196,2023-01-20 10:50:36.397505,156465347,0.3431691,0.004928231,0.3501845,0.2964995,14.08089,14.47911,15.68,NaN,0,14.46088,-32,-29
15230,2023-01-20 10:50:36.497559,156565347,0.3400946,0.005731165,0.3446781,0.2964995,14.08764,14.49235,15.71,NaN,0,14.47699,-31,-26
15261,2023-01-20 10:50:36.597640,156665371,0.3525456,0.006592989,0.3507145,0.2964995,14.09533,14.5034,15.9,NaN,0,14.49188,-31,-32
15296,2023-01-20 10:50:36.697616,156765342,0.3562303,0.007662565,0.358283,0.2964995,14.10402,14.51687,15.93,NaN,0,14.50925,-30,-27
15327,2023-01-20 10:50:36.797724,156865446,0.3759628,0.009405196,0.3711489,0.2964995,14.11377,14.52849,15.93,NaN,0,14.52515,-29,-30
15360,2023-01-20 10:50:36.897575,156965388,0.3752474,0.009957165,0.3803447,0.2964995,14.12467,14.5402,15.79,NaN,0,14.54132,-28,-35
15391,2023-01-20 10:50:36.997530,157065436,0.3665043,0.01051569,0.3827525,0.2964995,14.13678,14.55095,15.67,NaN,0,14.55787,-26,-32
15423,2023-01-20 10:50:37.097526,157165356,0.3556847,0.01029101,0.3759928,0.2964995,14.15019,14.5637,15.85,NaN,0,14.57684,-24,-25
15456,2023-01-20 10:50:37.197674,157265424,0.3523281,0.0105871,0.3667979,0.2964995,14.16501,14.57877,16.04,NaN,0,14.59838,-23,-19
15488,2023-01-20 10:50:37.297621,157365367,0.3401398,0.01016465,0.3595736,0.2964995,14.18132,14.60261,15.96,NaN,0,14.63003,-22,-18
15519,2023-01-20 10:50:37.397686,157465429,0.338618,0.01111582,0.3507554,0.2964995,14.19923,14.62981,16.19,NaN,0,14.66645,-21,-15
15553,2023-01-20 10:50:37.497641,157565369,0.3345057,0.01122519,0.3494808,0.2964995,14.21883,14.66153,16.25,NaN,0,14.7078,-20,-14
15584,2023-01-20 10:50:37.597763,157665475,0.3397774,0.01274085,0.3493694,0.2964995,14.2402,14.69582,16.32,NaN,0,14.75278,-20,-11
15619,2023-01-20 10:50:37.697639,157765366,0.3598849,0.01465738,0.3608135,0.2964995,14.26345,14.7322,16.33,NaN,0,14.79947,-19,-11
15650,2023-01-20 10:50:37.797755,157865497,0.3548034,0.01627105,0.3698747,0.2964995,14.28866,14.76708,16.45,NaN,0,14.84638,-18,-11
15684,2023-01-20 10:50:37.897568,157965352,0.3603436,0.01822603,0.3719966,0.2964995,14.31591,14.80684,16.49,NaN,0,14.89872,-17,-14
15715,2023-01-20 10:50:37.997621,158065448,0.3716005,0.0215067,0.3825924,0.2964995,14.34527,14.84538,16.58,NaN,0,14.95154,-16,-15
15747,2023-01-20 10:50:38.088753,158165350,0.3857363,0.02493361,0.3947499,0.2964995,14.37677,14.88642,16.65,NaN,0,15.00765,-14,-16
15780,2023-01-20 10:50:38.179879,158265480,0.4103649,0.02925384,0.4228037,0.2964995,14.41042,14.92395,16.62,NaN,0,15.06142,-12,-15
15812,2023-01-20 10:50:38.277779,158365366,0.3778467,0.02645954,0.4209554,0.2964995,14.44622,14.96399,16.7,NaN,0,15.11812,-11,-16
15843,2023-01-20 10:50:38.377860,158465445,0.3826592,0.02767614,0.4095765,0.2964995,14.48412,15.0076,16.73,NaN,0,15.17974,-9,-14
15878,2023-01-20 10:50:38.477750,158565359,0.393323,0.03026915,0.4193924,0.2964995,14.52408,15.05277,16.84,NaN,0,15.24389,-7,-8
15910,2023-01-20 10:50:38.577775,158665416,0.3742247,0.02767345,0.4147469,0.2964995,14.56602,15.09979,16.98,NaN,0,15.31001,-6,-5
15945,2023-01-20 10:50:38.677702,158765354,0.3700818,0.02821752,0.4014164,0.2964995,14.60987,15.15286,16.96,NaN,0,15.3831,-5,-5
15976,2023-01-20 10:50:38.777797,158865454,0.3916542,0.03043753,0.4074584,0.2964995,14.65558,15.20811,16.95,NaN,0,15.45862,-4,0
16011,2023-01-20 10:50:38.886262,158965384,0.4000353,0.03072122,0.4238636,0.2964995,14.70308,15.26197,16.96,NaN,0,15.53353,-3,-2
16042,2023-01-20 10:50:38.997310,159065443,0.4035917,0.02998015,0.4293489,0.2964995,14.7523,15.31362,17.07,NaN,0,15.59226,-1,-1
16074,2023-01-20 10:50:39.088692,159165329,0.3692881,0.0240303,0.4144916,0.2964995,14.8032,15.36606,17.03,NaN,0,15.64623,0,2
16108,2023-01-20 10:50:39.179774,159265417,0.3868334,0.02333227,0.4040622,0.2964995,14.85571,15.42157,17.17,NaN,0,15.7032,1,1
16140,2023-01-20 10:50:39.277715,159365386,0.3858741,0.02107871,0.4120864,0.2964995,14.90979,15.47581,17.34,NaN,0,15.75909,2,1
16171,2023-01-20 10:50:39.377642,159465348,0.3951389,0.02111909,0.4136581,0.2964995,14.96536,15.53205,17.46,NaN,0,15.81728,3,4
16205,2023-01-20 10:50:39.477628,159565354,0.3757506,0.01865542,0.4077909,0.2964995,15.02237,15.59105,17.62,NaN,0,15.87787,5,9
16236,2023-01-20 10:50:39.577656,159665398,0.3516219,0.01568028,0.3913056,0.2964995,15.08072,15.65628,17.69,NaN,0,15.94493,5,11
16271,2023-01-20 10:50:39.677569,159765360,0.3523099,0.01512367,0.371644,0.2964995,15.14035,15.73083,17.75,NaN,0,16.02118,5,16
16302,2023-01-20 10:50:39.777496,159865345,0.3638935,0.01575157,0.3759744,0.2964995,15.20117,15.80702,17.92,NaN,0,16.09945,4,12
16336,2023-01-20 10:50:39.877499,159965357,0.3648952,0.01610938,0.3786878,0.2964995,15.2631,15.87755,17.69,NaN,0,16.17188,4,12
16367,2023-01-20 10:50:39.977526,160065379,0.398925,0.01702562,0.3970605,0.2964995,15.32606,15.94442,17.91,NaN,0,16.24057,5,9
16399,2023-01-20 10:50:40.077554,160165363,0.3900067,0.01497257,0.4076592,0.2964995,15.38995,16.00543,18,NaN,0,16.30348,6,5
16433,2023-01-20 10:50:40.177651,160265405,0.3761441,0.01292053,0.3993101,0.2964995,15.45471,16.06825,18.12,NaN,0,16.36849,7,8
16465,2023-01-20 10:50:40.277580,160365362,0.3663784,0.01050276,0.3872685,0.2964995,15.52023,16.13378,18.17,NaN,0,16.43573,7,13
16496,2023-01-20 10:50:40.377515,160465348,0.3528044,0.009368271,0.3714607,0.2964995,15.58644,16.20409,18.15,NaN,0,16.50806,8,11
16530,2023-01-20 10:50:40.477527,160565362,0.3641812,0.009613454,0.3708239,0.2964995,15.65323,16.27649,18.02,NaN,0,16.58284,7,14
16562,2023-01-20 10:50:40.577526,160665348,0.3584484,0.008887887,0.3712896,0.2964995,15.72052,16.3475,18.16,NaN,0,16.65659,7,17
16597,2023-01-20 10:50:40.677542,160765347,0.3342275,0.007502317,0.3554286,0.2964995,15.78823,16.42016,18.19,NaN,0,16.732,7,21
16628,2023-01-20 10:50:40.777589,160865376,0.338234,0.007413685,0.3452217,0.2964995,15.85625,16.49423,18.26,NaN,0,16.80913,7,21
16662,2023-01-20 10:50:40.877585,160965401,0.3443037,0.007857203,0.3484471,0.2964995,15.92449,16.57111,18.31,NaN,0,16.88979,6,17
16693,2023-01-20 10:50:40.977502,161065361,0.334671,0.007956684,0.3471392,0.2964995,15.99289,16.64469,18.52,NaN,0,16.96661,5,14
16725,2023-01-20 10:50:41.077531,161165355,0.3361258,0.008815527,0.3446972,0.2964995,16.0614,16.7232,18.36,NaN,0,17.04908,4,12
16759,2023-01-20 10:50:41.177583,161265348,0.3361815,0.009735018,0.345823,0.2964995,16.13,16.79757,18.44,NaN,0,17.12717,4,11
16791,2023-01-20 10:50:41.277627,161365374,0.3611003,0.01138783,0.358378,0.2964995,16.19871,16.86378,18.33,NaN,0,17.19656,4,8
16822,2023-01-20 10:50:41.377627,161465367,0.3474726,0.01072362,0.363196,0.2964995,16.26752,16.92312,18.52,NaN,0,17.25937,5,6
16856,2023-01-20 10:50:41.477625,161565397,0.3265557,0.009521008,0.3482716,0.2964995,16.33641,16.98239,18.6,NaN,0,17.32152,6,13
16888,2023-01-20 10:50:41.577540,161665354,0.3247117,0.009350121,0.3368106,0.2964995,16.40538,17.04345,18.78,NaN,0,17.38575,7,15
16923,2023-01-20 10:50:41.677562,161765354,0.3351797,0.01033324,0.3396139,0.2964995,16.47445,17.10296,18.62,NaN,0,17.44843,8,13
16954,2023-01-20 10:50:41.777601,161865354,0.3298713,0.0102213,0.344137,0.2964995,16.54359,17.16105,18.57,NaN,0,17.50982,9,12
16988,2023-01-20 10:50:41.877560,161965344,0.3237015,0.009631187,0.3403713,0.2964995,16.6128,17.21565,18.57,NaN,0,17.56802,10,9
17019,2023-01-20 10:50:41.977528,162065364,0.3156383,0.009384453,0.3329969,0.2964995,16.6821,17.27097,18.7,NaN,0,17.6267,12,12
17051,2023-01-20 10:50:42.077551,162165361,0.30549,0.008761674,0.3218557,0.2964995,16.75146,17.32701,18.65,NaN,0,17.68591,13,17
17085,2023-01-20 10:50:42.177623,162265384,0.3520515,0.01043627,0.345017,0.2964995,16.82089,17.38129,18.99,NaN,0,17.74373,15,14
17117,2023-01-20 10:50:42.277589,162365377,0.3232794,0.009586036,0.3431868,0.2964995,16.89039,17.42884,18.88,NaN,0,17.7944,17,16
17148,2023-01-20 10:50:42.377506,162465342,0.3259929,0.009850889,0.3363051,0.2964995,16.95995,17.48087,18.95,NaN,0,17.85009,19,18
17182,2023-01-20 10:50:42.477506,162565342,0.3468699,0.01057178,0.3428785,0.2964995,17.02957,17.53104,18.89,NaN,0,17.903,20,17
17214,2023-01-20 10:50:42.577552,162665373,0.3611837,0.0107533,0.3611928,0.2964995,17.09925,17.58103,19.01,NaN,0,17.95623,22,18
17249,2023-01-20 10:50:42.677539,162765359,0.3699657,0.01017112,0.3744191,0.2964995,17.16898,17.6255,19.19,NaN,0,18.00381,25,18
17280,2023-01-20 10:50:42.777586,162865408,0.3325198,0.008406311,0.3625305,0.2964995,17.23877,17.67563,19.32,NaN,0,18.0576,27,17
17314,2023-01-20 10:50:42.877507,162965359,0.3349574,0.008031368,0.3465801,0.2964995,17.30861,17.72524,19.16,NaN,0,18.1099,29,27
17345,2023-01-20 10:50:42.977461,163065351,0.3625868,0.008914083,0.3561315,0.2964995,17.3785,17.78097,19.12,NaN,0,18.16886,30,29
17377,2023-01-20 10:50:43.077507,163165344,0.3676026,0.008898109,0.3692505,0.2964995,17.44844,17.82557,19.11,NaN,0,18.21651,33,27
17411,2023-01-20 10:50:43.177605,163265364,0.3484099,0.007944643,0.3651178,0.2964995,17.51842,17.8749,19.11,NaN,0,18.26872,35,28
17443,2023-01-20 10:50:43.277637,163365379,0.3606877,0.008336663,0.3627144,0.2964995,17.58844,17.92443,19.14,NaN,0,18.32135,37,31
