LineNo,UTC_Approx,TimeUS,Dp,Blk,Bytes,FMn,FMx,FAv
1899,2023-01-20 10:49:56.800166,116802137,32,1891,79724,982,16294,7868
2426,2023-01-20 10:49:57.802366,117804471,32,395,19477,11094,15746,13278
2835,2023-01-20 10:49:58.807241,118809358,32,400,19839,11942,16295,13962
3236,2023-01-20 10:49:59.809752,119811861,32,400,19853,12114,16248,14188
3637,2023-01-20 10:50:00.812596,120814689,32,400,19991,11264,16216,13441
3970,2023-01-20 10:50:01.815434,121817562,32,332,14007,11127,15569,13192
4295,2023-01-20 10:50:02.816814,122819681,32,324,13174,11628,15840,13797
4619,2023-01-20 10:50:03.819416,123822242,32,323,13175,11970,16148,14037
4945,2023-01-20 10:50:04.822381,124824526,32,325,13218,11339,16334,13887
5269,2023-01-20 10:50:05.822971,125827373,32,323,13156,11400,15874,13532
5593,2023-01-20 10:50:06.803485,126828140,32,323,13181,12033,16177,14159
5916,2023-01-20 10:50:07.822502,127829438,32,322,13127,11223,16294,13624
6241,2023-01-20 10:50:08.807483,128832407,32,324,13204,11422,15796,13554
6567,2023-01-20 10:50:09.807250,129834741,32,325,13194,11815,16248,13897
6891,2023-01-20 10:50:10.806999,130835096,32,323,13156,11233,16336,13741
7215,2023-01-20 10:50:11.809471,131837576,32,323,13156,11509,15765,13683
7538,2023-01-20 10:50:12.813239,132841336,32,322,13127,11938,16333,14067
7862,2023-01-20 10:50:13.814505,133842611,32,323,13175,11350,16301,13884
8188,2023-01-20 10:50:14.817007,134845119,32,325,13218,11411,15841,13514
8511,2023-01-20 10:50:15.819562,135847665,32,322,13127,11982,16213,14161
8835,2023-01-20 10:50:16.822018,136850118,32,323,13181,11259,16276,13646
9158,2023-01-20 10:50:17.822597,137852889,32,322,13127,11535,15909,13661
9482,2023-01-20 10:50:18.806111,138853778,32,323,13175,11928,16347,14024
9807,2023-01-20 10:50:19.807275,139855104,32,324,13165,11119,16134,13472
10133,2023-01-20 10:50:20.809892,140857551,32,325,13262,11632,15728,13731
10456,2023-01-20 10:50:21.812180,141860056,32,322,13127,11922,16296,14047
10781,2023-01-20 10:50:22.814841,142862657,32,324,13208,11382,16333,13903
11108,2023-01-20 10:50:23.817725,143865557,32,326,13298,11443,15920,13592
11459,2023-01-20 10:50:24.820320,144868215,32,350,14152,11994,16206,14134
11783,2023-01-20 10:50:25.822229,145870080,32,323,13156,11186,16326,13849
12107,2023-01-20 10:50:26.824769,146872616,32,323,13156,11393,15767,13446
12430,2023-01-20 10:50:27.807531,147875102,32,322,13127,11935,16286,14204
12755,2023-01-20 10:50:28.811202,148878829,32,324,13204,11223,16334,13660
13081,2023-01-20 10:50:29.812244,149880090,32,325,13194,11461,15663,13550
13405,2023-01-20 10:50:30.814726,150882564,32,323,13156,11857,16202,13896
13728,2023-01-20 10:50:31.817244,151885085,32,322,13127,11288,16285,13772
14052,2023-01-20 10:50:32.819786,152887629,32,323,13156,11469,15820,13741
14379,2023-01-20 10:50:33.822552,153890397,32,326,13299,11982,16125,14029
14705,2023-01-20 10:50:34.824729,154892578,32,325,13218,11146,16316,13831
15031,2023-01-20 10:50:35.827253,155895044,32,325,13262,11224,15713,13290
15354,2023-01-20 10:50:36.829808,156897558,32,322,13127,11766,16138,14029
15677,2023-01-20 10:50:37.832278,157900034,32,322,13127,11203,16343,13945
16002,2023-01-20 10:50:38.819399,158905137,32,324,13200,11378,15644,13491
16329,2023-01-20 10:50:39.819814,159907675,32,326,13223,11688,16216,13783
16655,2023-01-20 10:50:40.822259,160910052,32,325,13214,12172,16338,14344
16981,2023-01-20 10:50:41.824803,161912560,32,325,13214,11213,15552,13486
17307,2023-01-20 10:50:42.827710,162915543,32,325,13214,11725,15924,13775
17634,2023-01-20 10:50:43.829697,163917524,32,326,13262,11977,16310,14005
17963,2023-01-20 10:50:44.832505,164920305,32,328,13305,11153,16326,13752
18289,2023-01-20 10:50:45.834809,165922572,32,325,13214,11334,15673,13607
18615,2023-01-20 10:50:46.833878,166925063,32,325,13214,11846,16045,13895
18941,2023-01-20 10:50:47.820412,167927980,32,325,13214,12098,16320,14105
19269,2023-01-20 10:50:48.822253,168930064,32,327,13316,11172,15620,13268
19597,2023-01-20 10:50:49.825230,169932985,32,327,13252,11541,15877,13817
19965,2023-01-20 10:50:50.827313,170935078,32,367,14432,12053,16329,14033
20291,2023-01-20 10:50:51.829818,171937566,32,325,13214,11261,16267,13546
20617,2023-01-20 10:50:52.832543,172940396,32,325,13214,11542,15878,13809
20943,2023-01-20 10:50:53.834841,173942585,32,325,13229,12054,16250,14097
21272,2023-01-20 10:50:54.837222,174945073,32,328,13305,11110,16263,13774
21598,2023-01-20 10:50:55.839865,175947628,32,325,13214,11208,15704,13303
21924,2023-01-20 10:50:56.822134,176950063,32,325,13214,11663,15999,13932
22250,2023-01-20 10:50:57.824898,177952866,32,325,13214,12175,16320,14205
22577,2023-01-20 10:50:58.827006,178955053,32,326,13262,11249,15466,13291
22905,2023-01-20 10:50:59.829530,179957553,32,327,13252,11453,15911,13537
23231,2023-01-20 10:51:00.831998,180960089,32,325,13214,11870,16206,14138
23560,2023-01-20 10:51:01.834524,181962610,32,328,13328,12155,16342,14245
23888,2023-01-20 10:51:02.837379,182965498,32,327,13308,11423,15619,13454
24237,2023-01-20 10:51:03.840038,183968114,32,348,14124,11675,16171,13924
24569,2023-01-20 10:51:04.841951,184970059,32,331,13429,12044,16329,14181
24895,2023-01-20 10:51:05.844853,185972926,32,325,13214,11213,16302,13540
25270,2023-01-20 10:51:06.827509,186975324,32,374,14635,11474,15677,13521
25596,2023-01-20 10:51:07.830243,187977880,32,325,13214,11719,16055,13905
25922,2023-01-20 10:51:08.832224,188980070,32,325,13214,12231,16322,14168
26251,2023-01-20 10:51:09.834797,189982555,32,328,13300,11219,15567,13187
26576,2023-01-20 10:51:10.837212,190985082,32,324,13181,11645,15988,13844
26902,2023-01-20 10:51:11.839853,191987621,32,325,13214,11926,16262,14112
27228,2023-01-20 10:51:12.842619,192990375,32,325,13214,11241,16267,13544
27554,2023-01-20 10:51:13.844818,193992619,32,325,13214,11479,15675,13442
27884,2023-01-20 10:51:14.847311,194995065,32,329,13353,11819,16088,14011
28210,2023-01-20 10:51:15.849756,195997558,32,325,13214,12047,16350,14208
28536,2023-01-20 10:51:16.832393,197000082,32,325,13214,11088,15435,13286
28862,2023-01-20 10:51:17.837351,198005110,32,325,13214,11600,15796,13563
29188,2023-01-20 10:51:18.839839,199007670,32,325,13214,12026,16319,14217
29518,2023-01-20 10:51:19.842297,200010075,32,329,13354,11081,16263,13589
29844,2023-01-20 10:51:20.844743,201012534,32,325,13214,11262,15609,13457
30165,2023-01-20 10:51:21.847733,202015425,32,320,12970,11774,16024,13775
30460,2023-01-20 10:51:22.849768,203017438,32,294,11895,11642,16258,14056
30755,2023-01-20 10:51:23.852304,204019969,32,294,11895,11316,16065,13659
31125,2023-01-20 10:51:24.852528,205020302,32,369,14435,11903,16269,14021
31449,2023-01-20 10:51:25.849943,206022742,32,323,13156,11146,16320,13623
31773,2023-01-20 10:51:26.837328,207025061,32,323,13156,11442,15790,13621
32096,2023-01-20 10:51:27.840222,208027951,32,322,13123,11926,16311,13956
32421,2023-01-20 10:51:28.842288,209030113,32,324,13185,11208,16325,13784
32750,2023-01-20 10:51:29.845133,210032999,32,328,13300,11442,15741,13653
33076,2023-01-20 10:51:30.847273,211035072,32,325,13214,11761,16080,13924
33382,2023-01-20 10:51:31.849824,212037496,32,305,12325,11707,16324,14056
33676,2023-01-20 10:51:32.852621,213040282,32,293,11866,11614,16288,13986
33977,2023-01-20 10:51:33.854810,214042611,32,300,12159,11379,16295,13886
34305,2023-01-20 10:51:34.857250,215045101,32,327,13295,11212,15477,13342
34631,2023-01-20 10:51:35.840083,216047672,32,325,13226,11595,16017,13635
34956,2023-01-20 10:51:36.842270,217050083,32,324,13210,12038,16327,14257
35263,2023-01-20 10:51:37.844986,218052834,32,306,12402,11381,16213,13829
35570,2023-01-20 10:51:38.847309,219054937,32,306,12396,11420,16354,13866
35882,2023-01-20 10:51:39.847229,220055072,32,311,12603,11682,16260,13875
36206,2023-01-20 10:51:40.849758,221057562,32,323,13156,11798,16175,13982
36529,2023-01-20 10:51:41.852260,222060086,32,322,13127,11229,16324,13857
36856,2023-01-20 10:51:42.854807,223062635,32,326,13270,11410,15884,13501
37182,2023-01-20 10:51:43.857723,224065500,32,325,13250,11923,16245,14135
37525,2023-01-20 10:51:44.860254,225067938,32,342,13813,11069,16348,13860
37848,2023-01-20 10:51:45.840224,226068136,32,322,13129,11752,15962,13762
38172,2023-01-20 10:51:46.841996,227070018,32,323,13156,11266,16326,14049
38496,2023-01-20 10:51:47.844461,228072531,32,323,13156,11353,15725,13566
38820,2023-01-20 10:51:48.846943,229075054,32,323,13156,11717,16014,13870
39148,2023-01-20 10:51:49.849788,230077878,32,327,13271,12104,16300,14120
39472,2023-01-20 10:51:50.851996,231080121,32,323,13156,11126,15471,13229
39796,2023-01-20 10:51:51.854454,232082568,32,323,13156,11759,16081,13951
40124,2023-01-20 10:51:52.856941,233085051,32,327,13441,11809,16160,13982
40448,2023-01-20 10:51:53.859600,234087752,32,323,13156,11156,16276,13507
40777,2023-01-20 10:51:54.842702,235090384,32,328,13349,11328,15807,13398
41106,2023-01-20 10:51:55.844841,236092534,32,328,13470,11826,15957,13962
41429,2023-01-20 10:51:56.847296,237095066,32,322,13123,11910,16232,14051
41754,2023-01-20 10:51:57.849778,238097548,32,324,13185,11195,16286,13523
42079,2023-01-20 10:51:58.852272,239100101,32,324,13185,11376,15906,13485
42409,2023-01-20 10:51:59.857288,240105077,32,329,13343,11870,16115,14058
42777,2023-01-20 10:52:00.859842,241107625,32,367,14432,11161,16323,13748
43104,2023-01-20 10:52:01.862238,242110051,32,326,13257,11277,15735,13334
43430,2023-01-20 10:52:02.864758,243112549,32,325,13214,11780,16073,13965
43757,2023-01-20 10:52:03.867707,244115539,32,326,13257,12086,16282,14174
44087,2023-01-20 10:52:04.863444,245117520,32,329,13353,11179,16212,13490
44414,2023-01-20 10:52:05.852568,246120315,32,326,13257,11312,15824,13393
44742,2023-01-20 10:52:06.854834,247122618,32,327,13284,11812,16092,13991
45069,2023-01-20 10:52:07.857288,248125087,32,326,13257,12084,16333,14172
45397,2023-01-20 10:52:08.860466,249128252,32,327,13252,11268,16294,13582
45726,2023-01-20 10:52:09.862288,250130062,32,328,13359,11411,15821,13504
46052,2023-01-20 10:52:10.865224,251133011,32,325,13214,11866,16159,14045
46378,2023-01-20 10:52:11.867329,252135119,32,325,13214,12172,16338,14233
46705,2023-01-20 10:52:12.869815,253137605,32,326,13257,11170,15486,13308
47031,2023-01-20 10:52:13.872548,254140401,32,325,13214,11537,16038,13645
47362,2023-01-20 10:52:14.854942,255142555,32,330,13396,11983,16242,14169
47687,2023-01-20 10:52:15.857408,256145085,32,324,13181,11193,16308,13891
48014,2023-01-20 10:52:16.859842,257147622,32,326,13257,11334,15610,13411
48389,2023-01-20 10:52:17.862204,258150055,32,374,14635,11572,15949,13841
48716,2023-01-20 10:52:18.865097,259152872,32,326,13257,12048,16324,14135
49044,2023-01-20 10:52:19.867242,260155096,32,327,13252,11141,16344,13535
49372,2023-01-20 10:52:20.869761,261157565,32,327,13305,11274,15821,13427
49698,2023-01-20 10:52:21.872264,262160070,32,325,13214,11777,16091,13984
50028,2023-01-20 10:52:22.874858,263162643,32,329,13371,12169,16343,14214
50356,2023-01-20 10:52:23.857858,264165511,32,327,13308,11267,16293,13595
50710,2023-01-20 10:52:24.860449,265168216,32,353,14330,11410,15901,13674
51038,2023-01-20 10:52:25.862194,266170055,32,327,13316,11812,16105,13936
51364,2023-01-20 10:52:26.864739,267172558,32,325,13214,12204,16324,14145
51691,2023-01-20 10:52:27.867280,268175072,32,326,13257,11302,16328,13556
52019,2023-01-20 10:52:28.870052,269177877,32,327,13252,11757,16070,13944
52346,2023-01-20 10:52:29.872310,270180106,32,326,13257,11948,16241,14070
52673,2023-01-20 10:52:30.874723,271182548,32,326,13262,11225,16340,13863
53000,2023-01-20 10:52:31.877250,272185060,32,326,13257,11366,15700,13362
53325,2023-01-20 10:52:32.879756,273187634,32,324,13181,11878,16191,14053
53654,2023-01-20 10:52:33.862415,274190386,32,328,13295,12150,16313,14215
54030,2023-01-20 10:52:34.864420,275192524,32,375,14688,11087,16206,13319
54358,2023-01-20 10:52:35.866948,276195053,32,327,13305,11494,15764,13669
54684,2023-01-20 10:52:36.869423,277197577,32,325,13214,11723,16016,13844
55013,2023-01-20 10:52:37.872010,278200108,32,328,13327,12115,16310,14060
55342,2023-01-20 10:52:38.877002,279205108,32,328,13281,11143,16296,13456
55669,2023-01-20 10:52:39.879526,280207631,32,326,13257,11560,15873,13738
55997,2023-01-20 10:52:40.882275,281210383,32,327,13316,11789,16034,13871
56323,2023-01-20 10:52:41.884753,282212855,32,325,13214,12133,16275,14092
56650,2023-01-20 10:52:42.868067,283215689,32,326,13257,11264,16333,13559
56978,2023-01-20 10:52:43.869880,284217545,32,327,13252,11719,16053,13893
57306,2023-01-20 10:52:44.872531,285220328,32,327,13310,11953,16204,14012
57633,2023-01-20 10:52:45.874815,286222612,32,326,13262,12248,16310,14146
57960,2023-01-20 10:52:46.877265,287225082,32,326,13257,11242,15580,13268
58286,2023-01-20 10:52:47.880171,288227971,32,325,13214,11754,16067,13924
58615,2023-01-20 10:52:48.882166,289230026,32,328,13295,12026,16330,14130
58940,2023-01-20 10:52:49.885195,290232997,32,324,13181,11106,16346,13515
59317,2023-01-20 10:52:50.887264,291235110,32,376,14726,10647,15693,13228
59643,2023-01-20 10:52:51.870024,292237596,32,325,13214,11652,15999,13778
59970,2023-01-20 10:52:52.872724,293240410,32,326,13257,12044,16306,14036
60298,2023-01-20 10:52:53.874837,294242607,32,327,13252,11142,16241,13454
60626,2023-01-20 10:52:54.877243,295245096,32,327,13310,11506,15873,13711
60953,2023-01-20 10:52:55.879865,296247660,32,326,13262,11768,16057,13861
61280,2023-01-20 10:52:56.882231,297250091,32,326,13268,12112,16301,14077
61607,2023-01-20 10:52:57.885102,298252894,32,326,13257,11210,16279,13515
61935,2023-01-20 10:52:58.887323,299255118,32,327,13252,11665,15978,13836
62262,2023-01-20 10:52:59.889745,300257570,32,326,13257,11899,16172,13991
62589,2023-01-20 10:53:00.892250,301260067,32,326,13262,11123,16303,13791
62919,2023-01-20 10:53:01.894810,302262637,32,329,13371,11241,15579,13295
63247,2023-01-20 10:53:02.877851,303265504,32,327,13308,11773,16066,13940
63598,2023-01-20 10:53:03.880422,304268226,32,350,14157,12111,16298,14050
63925,2023-01-20 10:53:04.882227,305270025,32,326,13267,11292,16324,13782
64253,2023-01-20 10:53:05.884700,306272565,32,327,13305,11510,15678,13657
64579,2023-01-20 10:53:06.887201,307275053,32,325,13214,11808,16101,13904
64955,2023-01-20 10:53:07.890029,308277875,32,375,14678,12146,16328,14182
65284,2023-01-20 10:53:08.892196,309280046,32,328,13289,11137,15414,13333
65610,2023-01-20 10:53:09.894706,310282553,32,325,13214,11488,15802,13586
65938,2023-01-20 10:53:10.897237,311285060,32,327,13305,11783,16054,13771
66264,2023-01-20 10:53:11.879979,312287650,32,325,13214,12227,16324,14337
66592,2023-01-20 10:53:12.882567,313290378,32,327,13311,11225,15506,13418
66920,2023-01-20 10:53:13.884689,314292552,32,327,13252,11614,15907,13708
67248,2023-01-20 10:53:14.887210,315295048,32,327,13310,11852,16199,13862
67575,2023-01-20 10:53:15.889691,316297556,32,326,13262,12170,16316,14341
67902,2023-01-20 10:53:16.892307,317300106,32,326,13257,11303,15541,13460
68228,2023-01-20 10:53:17.897282,318305142,32,325,13214,11649,15942,13743
68557,2023-01-20 10:53:18.899799,319307660,32,328,13295,11987,16341,13990
68883,2023-01-20 10:53:19.892866,320310110,32,325,13214,11254,16300,13757
69211,2023-01-20 10:53:20.905001,321312841,32,327,13305,11472,15658,13626
69537,2023-01-20 10:53:21.887781,322315843,32,325,13214,11770,16063,13861
69864,2023-01-20 10:53:22.889785,323317827,32,326,13257,12108,16251,14055
70192,2023-01-20 10:53:23.892179,324320325,32,327,13252,11140,16326,13512
70567,2023-01-20 10:53:24.894485,325322595,32,374,14655,11317,15781,13556
70895,2023-01-20 10:53:25.896926,326325063,32,327,13305,11729,16062,13738
71221,2023-01-20 10:53:26.899862,327327975,32,325,13214,12173,16303,14303
71549,2023-01-20 10:53:27.901942,328330061,32,327,13311,11171,15452,13359
71877,2023-01-20 10:53:28.904817,329333001,32,327,13252,11560,15907,13658
72204,2023-01-20 10:53:29.904948,330333047,32,326,13257,11851,16198,13855
72531,2023-01-20 10:53:30.887377,331335065,32,326,13262,11165,16308,14018
72858,2023-01-20 10:53:31.889860,332337606,32,326,13257,11335,15569,13486
73184,2023-01-20 10:53:32.892553,333340415,32,325,13214,11681,16018,13781
73512,2023-01-20 10:53:33.894765,334342583,32,327,13266,12019,16313,14006
73838,2023-01-20 10:53:34.897288,335345151,32,325,13238,11258,16235,13738
74166,2023-01-20 10:53:35.899843,336347662,32,327,13400,11475,15635,13615
74490,2023-01-20 10:53:36.902267,337350084,32,323,13156,11679,16024,13797
74814,2023-01-20 10:53:37.905055,338352896,32,323,13156,12075,16207,14037
75141,2023-01-20 10:53:38.907284,339355080,32,326,13237,11174,15570,13219
75470,2023-01-20 10:53:39.899955,340357609,32,328,13422,11494,15662,13671
75795,2023-01-20 10:53:40.902587,341360076,32,324,13204,11824,16169,13939
76123,2023-01-20 10:53:41.894866,342362659,32,327,13299,11178,16248,13767
76451,2023-01-20 10:53:42.897662,343365507,32,327,13322,11242,15609,13336
76799,2023-01-20 10:53:43.900315,344368143,32,347,14052,11720,16030,13900
77125,2023-01-20 10:53:44.902233,345370061,32,325,13263,12133,16275,14083
77450,2023-01-20 10:53:45.904739,346372544,32,324,13204,11179,15524,13209
77778,2023-01-20 10:53:46.907225,347375084,32,327,13395,11561,15727,13720
78102,2023-01-20 10:53:47.910109,348377922,32,323,13156,11867,16123,13961
78428,2023-01-20 10:53:48.912199,349380062,32,325,13194,11180,16327,13855
78752,2023-01-20 10:53:49.904409,350382583,32,323,13156,11346,15780,13415
79082,2023-01-20 10:53:50.897324,351385075,32,329,13518,11577,15956,13854
79454,2023-01-20 10:53:51.899858,352387664,32,371,14548,11745,16206,13831
79779,2023-01-20 10:53:52.902553,353390414,32,324,13185,11374,16324,13823
80108,2023-01-20 10:53:53.904742,354392547,32,328,13295,11429,15779,13686
80435,2023-01-20 10:53:54.907215,355395069,32,326,13267,11710,15991,13835
80762,2023-01-20 10:53:55.909733,356397544,32,326,13257,12122,16318,14100
81089,2023-01-20 10:53:56.912225,357400039,32,326,13262,11442,16342,13867
81416,2023-01-20 10:53:57.917283,358405120,32,326,13257,11540,15865,13758
81744,2023-01-20 10:53:58.909067,359407644,32,327,13252,11869,16146,13989
82071,2023-01-20 10:53:59.902249,360410055,32,326,13278,11043,16349,13806
82397,2023-01-20 10:54:00.904728,361412576,32,325,13214,11284,15631,13300
82725,2023-01-20 10:54:01.907680,362415505,32,327,13305,11628,15932,13863
83051,2023-01-20 10:54:02.909693,363417540,32,325,13214,11957,16238,14075
83380,2023-01-20 10:54:03.912166,364420046,32,328,13295,11212,16327,13860
83707,2023-01-20 10:54:04.914714,365422562,32,326,13267,11319,15666,13345
84033,2023-01-20 10:54:05.917216,366425060,32,325,13214,11711,16058,13949
84361,2023-01-20 10:54:06.920113,367427941,32,327,13305,11992,16302,14126
84687,2023-01-20 10:54:07.911021,368430048,32,325,13214,11240,16340,13587
85065,2023-01-20 10:54:08.905066,369433029,32,377,14716,11478,15776,13593
85391,2023-01-20 10:54:09.906981,370435070,32,325,13214,11742,16052,13870
85720,2023-01-20 10:54:10.909544,371437641,32,328,13327,12127,16259,14063
86047,2023-01-20 10:54:11.912284,372440377,32,326,13262,11371,16311,13817
86374,2023-01-20 10:54:12.914482,373442574,32,326,13257,11469,15773,13681
86702,2023-01-20 10:54:13.917015,374445113,32,327,13252,11798,16108,13923
87030,2023-01-20 10:54:14.919542,375447639,32,327,13310,12162,16277,14091
87357,2023-01-20 10:54:15.922346,376450441,32,326,13268,11454,16340,13882
87685,2023-01-20 10:54:16.924936,377453034,32,327,13305,11504,15862,13745
88011,2023-01-20 10:54:17.907431,378455054,32,325,13214,11833,16137,13957
88340,2023-01-20 10:54:18.909878,379457549,32,328,13295,11111,16296,13805
88665,2023-01-20 10:54:19.912340,380460066,32,324,13181,11248,15595,13274
88994,2023-01-20 10:54:20.914819,381462642,32,328,13328,11640,16041,13891
89324,2023-01-20 10:54:21.917629,382465492,32,329,13399,12002,16254,14083
89672,2023-01-20 10:54:22.920332,383468147,32,347,14076,11232,16324,13736
90001,2023-01-20 10:54:23.922185,384470041,32,328,13295,11407,15775,13719
90328,2023-01-20 10:54:24.924741,385472554,32,326,13267,11708,16055,13867
90704,2023-01-20 10:54:25.927221,386475069,32,375,14678,11837,16344,14048
91031,2023-01-20 10:54:26.930033,387477900,32,326,13262,11317,16326,13718
91358,2023-01-20 10:54:27.920339,388480074,32,326,13257,11415,15719,13556
91686,2023-01-20 10:54:28.914793,389482550,32,327,13252,11744,16048,13786
92013,2023-01-20 10:54:29.917224,390485081,32,326,13257,10984,16338,13970
92339,2023-01-20 10:54:30.919797,391487637,32,325,13214,11159,15506,13456
92668,2023-01-20 10:54:31.922597,392490407,32,328,13359,11551,15850,13674
92994,2023-01-20 10:54:32.924685,393492549,32,325,13214,11832,16165,13886
93322,2023-01-20 10:54:33.927238,394495048,32,327,13252,11143,16329,13769
93650,2023-01-20 10:54:34.929720,395497565,32,327,13310,11227,15595,13531
93975,2023-01-20 10:54:35.932217,396500062,32,324,13181,11619,15966,13771
94303,2023-01-20 10:54:36.917399,397505071,32,327,13305,11991,16268,14009
94629,2023-01-20 10:54:37.919882,398507648,32,325,13214,11264,16310,13807
94958,2023-01-20 10:54:38.922206,399510046,32,328,13295,11482,15789,13727
95284,2023-01-20 10:54:39.924732,400512542,32,325,13214,11707,16054,13888
95611,2023-01-20 10:54:40.927624,401515505,32,326,13257,12165,16340,14132
95989,2023-01-20 10:54:41.929670,402517516,32,377,14753,11128,16336,13584
96316,2023-01-20 10:54:42.932471,403520317,32,326,13257,11344,15648,13510
96644,2023-01-20 10:54:43.934744,404522565,32,327,13252,11759,16185,13775
96972,2023-01-20 10:54:44.937238,405525071,32,327,13310,12123,16319,14328
97298,2023-01-20 10:54:45.933542,406527946,32,325,13214,11362,16334,13767
97627,2023-01-20 10:54:46.922350,407530042,32,328,13359,11460,15780,13617
97953,2023-01-20 10:54:47.925325,408533041,32,325,13214,11827,16291,13870
98281,2023-01-20 10:54:48.927195,409535078,32,327,13252,11105,16345,13705
98609,2023-01-20 10:54:49.929795,410537609,32,327,13286,11242,15610,13504
98935,2023-01-20 10:54:50.932528,411540379,32,325,13214,11548,15949,13732
99263,2023-01-20 10:54:51.934763,412542579,32,327,13305,12006,16346,13992
99589,2023-01-20 10:54:52.937218,413545070,32,325,13214,11193,16293,13764
99918,2023-01-20 10:54:53.939798,414547643,32,328,13295,11411,15718,13645
100245,2023-01-20 10:54:54.942213,415550062,32,326,13267,11583,15984,13768
100572,2023-01-20 10:54:55.931801,416552835,32,326,13257,12041,16346,14035
100899,2023-01-20 10:54:56.927048,417555064,32,326,13262,11228,16282,13798
101225,2023-01-20 10:54:57.929481,418557562,32,325,13224,11446,15750,13683
101602,2023-01-20 10:54:58.931948,419560043,32,376,14673,11709,16201,13712
101934,2023-01-20 10:54:59.934728,420562824,32,331,13425,12122,16318,14319
102262,2023-01-20 10:55:00.937420,421565517,32,327,13308,11361,16333,13744
102612,2023-01-20 10:55:01.939997,422568096,32,349,14167,11459,15802,13521
102939,2023-01-20 10:55:02.941952,423570051,32,326,13268,11826,16290,14164
103268,2023-01-20 10:55:03.944433,424572561,32,328,13305,11104,16344,13634
103595,2023-01-20 10:55:04.941217,425575075,32,326,13257,11188,15535,13355
103921,2023-01-20 10:55:05.936481,426577894,32,325,13214,11494,15864,13592
104249,2023-01-20 10:55:06.932299,427580051,32,327,13305,11997,16325,14247
104575,2023-01-20 10:55:07.934682,428582540,32,325,13214,11139,16325,13650
104904,2023-01-20 10:55:08.937192,429585057,32,328,13295,11357,15661,13496
105230,2023-01-20 10:55:09.939758,430587618,32,325,13214,11582,15952,13679
105557,2023-01-20 10:55:10.942535,431590376,32,326,13257,12128,16345,14322
105886,2023-01-20 10:55:11.944735,432592568,32,328,13332,11275,16321,13736
106213,2023-01-20 10:55:12.947234,433595069,32,326,13257,11375,15733,13546
106541,2023-01-20 10:55:13.949796,434597606,32,327,13272,11671,16041,13759
106917,2023-01-20 10:55:14.952241,435600060,32,375,14678,12126,16343,14388
107243,2023-01-20 10:55:15.937285,436605087,32,325,13214,11237,16303,13573
107571,2023-01-20 10:55:16.939829,437607626,32,327,13305,11335,15705,13421
107898,2023-01-20 10:55:17.942259,438610074,32,326,13268,11790,16166,14049
108226,2023-01-20 10:55:18.944753,439612572,32,327,13252,11165,16320,13895
108553,2023-01-20 10:55:19.947699,440615530,32,326,13257,11325,16337,13645
108879,2023-01-20 10:55:20.949692,441617523,32,325,13214,11423,16010,13563
109207,2023-01-20 10:55:21.952526,442620354,32,327,13305,12002,16248,14205
109533,2023-01-20 10:55:22.954748,443622569,32,325,13214,11101,16341,13619
109863,2023-01-20 10:55:23.957243,444625087,32,329,13348,11319,15644,13461
110189,2023-01-20 10:55:24.955728,445627970,32,325,13214,11491,16024,13609
110516,2023-01-20 10:55:25.942238,446630046,32,326,13257,12123,16337,14291
110842,2023-01-20 10:55:26.945192,447633007,32,325,13214,11184,16316,13704
111168,2023-01-20 10:55:27.947205,448635062,32,325,13243,11354,15730,13552
111494,2023-01-20 10:55:28.949761,449637587,32,325,13194,11732,16199,13826
111821,2023-01-20 10:55:29.952528,450640377,32,326,13352,12187,16334,14347
112145,2023-01-20 10:55:30.954749,451642586,32,323,13156,11230,15609,13443
112469,2023-01-20 10:55:31.957267,452645094,32,323,13156,11540,15916,13747
112794,2023-01-20 10:55:32.959797,453647644,32,324,13204,11990,16221,14009
113126,2023-01-20 10:55:33.947662,454650094,32,331,13540,11207,16320,13725
113450,2023-01-20 10:55:34.945067,455652895,32,323,13156,11377,15774,13586
113775,2023-01-20 10:55:35.947298,456655050,32,324,13185,11687,16117,13893
114100,2023-01-20 10:55:36.949685,457657563,32,324,13199,12108,16300,14108
114473,2023-01-20 10:55:37.952211,458660073,32,372,14596,11164,15515,13291
114802,2023-01-20 10:55:38.954728,459662624,32,328,13308,11568,15998,13777
115131,2023-01-20 10:55:39.957717,460665564,32,328,13446,11980,16328,14084
115480,2023-01-20 10:55:40.960242,461668145,32,348,14167,11240,16311,13776
115805,2023-01-20 10:55:41.962194,462670051,32,324,13199,11487,15849,13598
116132,2023-01-20 10:55:42.964699,463672585,32,326,13274,11754,16165,13855
116464,2023-01-20 10:55:43.947708,464675742,32,331,13561,12158,16311,14308
116788,2023-01-20 10:55:44.949758,465677912,32,323,13156,11276,16305,13960
117112,2023-01-20 10:55:45.950437,466680472,32,323,13152,11417,15843,13556
117439,2023-01-20 10:55:46.951958,467682932,32,326,13257,11727,16084,13823
117766,2023-01-20 10:55:47.952214,468683234,32,326,13262,11102,16314,13985
118095,2023-01-20 10:55:48.954415,469685717,32,328,13295,11277,15505,13456
118421,2023-01-20 10:55:49.954733,470686127,32,325,13214,11534,15910,13666
118748,2023-01-20 10:55:50.957552,471689239,32,326,13257,11815,16216,13924
119074,2023-01-20 10:55:51.957160,472691689,32,325,13214,11238,16321,14049
119401,2023-01-20 10:55:52.959807,473694023,32,326,13262,11365,15604,13553
119732,2023-01-20 10:55:53.959842,474696571,32,330,13402,11660,16036,13789
120058,2023-01-20 10:55:54.962298,475699000,32,325,13214,11850,16317,13974
120385,2023-01-20 10:55:55.965205,476701929,32,326,13257,11230,16308,13748
120711,2023-01-20 10:55:56.966846,477703913,32,325,13214,11448,15687,13625
121039,2023-01-20 10:55:57.952055,478708994,32,327,13305,11729,16071,13842
121367,2023-01-20 10:55:58.954859,479711458,32,327,13252,11976,16323,14067
121741,2023-01-20 10:55:59.957145,480713942,32,373,14620,11328,16318,13888
122067,2023-01-20 10:56:00.959888,481716566,32,325,13214,11503,15900,13618
122394,2023-01-20 10:56:01.962396,482719428,32,326,13257,11838,16229,13938
122721,2023-01-20 10:56:02.964997,483721704,32,326,13262,11159,16350,14038
123051,2023-01-20 10:56:03.967243,484723949,32,329,13348,11334,15574,13520
123377,2023-01-20 10:56:04.969744,485726464,32,325,13214,11538,15939,13665
123703,2023-01-20 10:56:05.972199,486728932,32,325,13214,11873,16286,13979
124029,2023-01-20 10:56:06.952746,487729245,32,325,13224,11242,16331,14027
124356,2023-01-20 10:56:07.954554,488731513,32,326,13262,11363,15608,13560
124685,2023-01-20 10:56:08.957189,489733938,32,328,13295,11698,16011,13786
125012,2023-01-20 10:56:09.959918,490736627,32,326,13268,11907,16320,14029
125339,2023-01-20 10:56:10.962140,491738927,32,326,13257,11242,16254,13493
125665,2023-01-20 10:56:11.962202,492739237,32,325,13214,11451,15887,13709
125995,2023-01-20 10:56:12.964831,493741874,32,329,13375,11843,16099,13912
126324,2023-01-20 10:56:13.967599,494744285,32,328,13305,12136,16299,14105
126651,2023-01-20 10:56:14.969798,495746481,32,326,13257,11240,16212,13503
127026,2023-01-20 10:56:15.971912,496748931,32,374,14635,11449,15747,13650
127353,2023-01-20 10:56:16.974814,497751497,32,326,13257,11660,16105,13802
127680,2023-01-20 10:56:17.957373,498753992,32,326,13262,12163,16346,14331
128009,2023-01-20 10:56:18.959517,499756521,32,328,13295,11296,15589,13458
128335,2023-01-20 10:56:19.962251,500758951,32,325,13214,11467,15814,13606
128661,2023-01-20 10:56:20.964776,501761494,32,325,13214,11888,16215,13957
128991,2023-01-20 10:56:21.967288,502764002,32,329,13371,11171,16340,14042
129318,2023-01-20 10:56:22.967615,503764335,32,326,13262,11378,15626,13538
129650,2023-01-20 10:56:23.969886,504766575,32,331,13442,11636,15994,13727
129998,2023-01-20 10:56:24.972426,505769390,32,347,14076,11840,16250,14108
130325,2023-01-20 10:56:25.959028,506771480,32,326,13253,11239,16317,13671
130651,2023-01-20 10:56:26.977148,507773887,32,325,13214,11446,15793,13562
130980,2023-01-20 10:56:27.960190,508776911,32,328,13359,11752,16128,13794
131308,2023-01-20 10:56:28.962243,509778905,32,327,13252,12183,16338,14332
131635,2023-01-20 10:56:29.964831,510781462,32,326,13257,11239,15455,13415
131961,2023-01-20 10:56:30.967555,511784254,32,325,13214,11588,15881,13659
132288,2023-01-20 10:56:31.969694,512786721,32,326,13257,11840,16210,13904
132664,2023-01-20 10:56:32.971614,513789327,32,375,14683,10868,16324,13861
132994,2023-01-20 10:56:33.974521,514792358,32,329,13348,11295,15484,13333
133320,2023-01-20 10:56:34.976740,515794557,32,325,13214,11446,15880,13514
133646,2023-01-20 10:56:35.963555,516797138,32,325,13214,12021,16215,14193
133973,2023-01-20 10:56:36.962290,517799554,32,326,13257,11150,16325,13937
134298,2023-01-20 10:56:37.964765,518802055,32,324,13181,11411,15671,13468
134628,2023-01-20 10:56:38.969700,519807059,32,329,13343,11615,15942,13632
134954,2023-01-20 10:56:39.972187,520809547,32,325,13214,12080,16296,14271
135281,2023-01-20 10:56:40.974686,521812040,32,326,13257,11238,16316,13664
135607,2023-01-20 10:56:41.977468,522814865,32,325,13214,11445,15738,13545
135935,2023-01-20 10:56:42.980558,523817909,32,327,13311,11751,16121,13796
136267,2023-01-20 10:56:43.982208,524819610,32,331,13423,12206,16317,14350
136594,2023-01-20 10:56:44.984965,525822318,32,326,13257,11203,16335,13651
136920,2023-01-20 10:56:45.987204,526824558,32,325,13214,11410,15703,13506
137247,2023-01-20 10:56:46.969866,527827078,32,326,13257,11716,16140,13797
137573,2023-01-20 10:56:47.972463,528829878,32,325,13214,12242,16330,14349
137951,2023-01-20 10:56:48.974772,529832164,32,377,14721,11274,15461,13489
138278,2023-01-20 10:56:49.977131,530834569,32,326,13257,11375,15788,13449
138604,2023-01-20 10:56:50.979815,531837207,32,325,13214,11921,16137,14106
138931,2023-01-20 10:56:51.982164,532839558,32,326,13257,12155,16342,14227
139257,2023-01-20 10:56:52.985008,533842396,32,325,13214,11340,15579,13392
139588,2023-01-20 10:56:53.987689,534845077,32,330,13396,11592,15871,13584
139913,2023-01-20 10:56:54.989672,535847061,32,324,13181,11956,16172,14139
140240,2023-01-20 10:56:55.992236,536849627,32,326,13257,11114,16332,13927
140566,2023-01-20 10:56:56.974834,537852089,32,325,13214,11375,15614,13432
140893,2023-01-20 10:56:57.977521,538854892,32,326,13257,11627,15997,13676
141223,2023-01-20 10:56:58.979888,539857243,32,329,13354,12130,16298,14299
141550,2023-01-20 10:56:59.982200,540859556,32,326,13257,11204,15363,13329
141876,2023-01-20 10:57:00.984761,541862110,32,325,13214,11442,15756,13535
142206,2023-01-20 10:57:01.987486,542864835,32,329,13371,11748,16139,13849
142534,2023-01-20 10:57:02.990230,543867595,32,327,13308,12241,16326,14341
142886,2023-01-20 10:57:03.992787,544870146,32,351,14215,11351,15460,13439
143213,2023-01-20 10:57:04.994164,545872087,32,326,13257,11477,15824,13502
143588,2023-01-20 10:57:05.977474,546874605,32,374,14635,11783,16158,14040
143915,2023-01-20 10:57:06.979975,547877313,32,326,13257,11111,16321,13814
144241,2023-01-20 10:57:07.982627,548879969,32,325,13214,11286,15579,13297
144571,2023-01-20 10:57:08.984745,549882090,32,329,13343,11615,15906,13862
144897,2023-01-20 10:57:09.987289,550884627,32,325,13214,12041,16246,14111
145224,2023-01-20 10:57:10.989778,551887116,32,326,13257,11199,16322,13865
145550,2023-01-20 10:57:11.992261,552889598,32,325,13214,11374,15841,13418
145877,2023-01-20 10:57:12.995112,553892497,32,326,13257,11779,16093,14034
146206,2023-01-20 10:57:13.997270,554894587,32,328,13320,12134,16326,14219
146536,2023-01-20 10:57:14.979863,555897465,32,329,13381,11197,16192,13504
146862,2023-01-20 10:57:15.981808,556899607,32,325,13214,11372,15785,13393
147189,2023-01-20 10:57:16.984305,557902157,32,326,13257,11744,16080,14025
147515,2023-01-20 10:57:17.989369,558907117,32,325,13214,12213,16343,14242
147844,2023-01-20 10:57:18.991657,559909550,32,328,13300,11254,15413,13317
148171,2023-01-20 10:57:19.994267,560912085,32,326,13257,11406,15873,13466
148496,2023-01-20 10:57:20.996714,561914550,32,324,13185,11886,16197,14139
148823,2023-01-20 10:57:22.000242,562917993,32,326,13285,11222,16304,13622
149150,2023-01-20 10:57:23.001836,563919587,32,326,13352,11422,15534,13417
149476,2023-01-20 10:57:23.986395,564922302,32,325,13209,11572,15958,13603
149800,2023-01-20 10:57:24.987274,565924590,32,323,13156,11950,16336,14251
150173,2023-01-20 10:57:25.990077,566927361,32,372,14577,11099,16342,13535
150500,2023-01-20 10:57:26.992727,567930088,32,326,13352,11416,15767,13380
150825,2023-01-20 10:57:27.994738,568932101,32,324,13185,11780,16091,14031
151153,2023-01-20 10:57:28.997191,569934548,32,327,13285,12138,16339,14230
151480,2023-01-20 10:57:30.000194,570937563,32,326,13292,11237,15468,13319
151804,2023-01-20 10:57:31.002196,571939563,32,323,13156,11547,16072,13663
152130,2023-01-20 10:57:32.005944,572943312,32,325,13228,12042,16310,14279
152454,2023-01-20 10:57:33.007674,573945026,32,323,13156,11141,15463,13386
152783,2023-01-20 10:57:33.990829,574947053,32,328,13405,11461,15693,13543
153109,2023-01-20 10:57:35.011142,575949602,32,325,13242,11719,16211,13820
153431,2023-01-20 10:57:35.994770,576952129,32,321,13070,11247,16274,13958
153760,2023-01-20 10:57:36.997497,577954890,32,328,13470,11297,15642,13512
154086,2023-01-20 10:57:38.000189,578957585,32,325,13242,11533,15735,13591
154414,2023-01-20 10:57:39.002145,579959526,32,327,13271,11843,16253,13956
154740,2023-01-20 10:57:40.004648,580962051,32,325,13228,11184,16283,13700
155069,2023-01-20 10:57:41.007313,581964694,32,328,13328,11293,15586,13535
155397,2023-01-20 10:57:42.010928,582968355,32,327,13308,11751,15953,13791
155746,2023-01-20 10:57:43.012658,583970036,32,348,14119,12032,16318,14202
156074,2023-01-20 10:57:43.994829,584972045,32,327,13267,11251,16330,13702
156401,2023-01-20 10:57:44.997230,585974528,32,326,13257,11457,15710,13560
156732,2023-01-20 10:57:46.000194,586977543,32,330,13424,11786,16215,13775
157059,2023-01-20 10:57:47.003363,587980697,32,326,13257,12171,16327,14318
157384,2023-01-20 10:57:48.004686,588982066,32,324,13181,11302,16328,13740
157713,2023-01-20 10:57:49.007211,589984550,32,328,13295,11594,15847,13708
158040,2023-01-20 10:57:50.009651,590987029,32,326,13262,11837,16093,13825
158412,2023-01-20 10:57:51.012204,591989540,32,371,14562,11227,16321,14086
158738,2023-01-20 10:57:52.015007,592992341,32,325,13214,11196,15532,13384
159065,2023-01-20 10:57:53.017212,593994545,32,326,13257,11708,15933,13692
159394,2023-01-20 10:57:54.000177,594997485,32,328,13305,12120,16322,14305
159721,2023-01-20 10:57:55.002197,595999530,32,326,13262,11262,16275,13643
160048,2023-01-20 10:57:56.004729,597002069,32,326,13257,11317,15613,13470
160374,2023-01-20 10:57:57.009695,598007031,32,325,13214,11743,16188,13782
160701,2023-01-20 10:57:58.012203,599009542,32,326,13257,11195,16297,13984
161029,2023-01-20 10:57:59.014709,600012050,32,327,13252,11229,15511,13454
161357,2023-01-20 10:58:00.017198,601014547,32,327,13305,11535,15752,13617
161684,2023-01-20 10:58:01.021119,602018459,32,326,13268,11864,16309,13933
162011,2023-01-20 10:58:02.002056,603019592,32,326,13257,11316,16328,14063
162336,2023-01-20 10:58:03.004751,604022298,32,324,13181,11317,15610,13535
162666,2023-01-20 10:58:04.006898,605024558,32,329,13348,11655,15906,13782
162993,2023-01-20 10:58:05.009323,606027066,32,326,13262,11947,16124,13922
163320,2023-01-20 10:58:06.012983,607030709,32,326,13257,11123,16309,13737
163695,2023-01-20 10:58:07.014353,608032071,32,374,14635,11352,15583,13532
164022,2023-01-20 10:58:08.016818,609034538,32,326,13257,11654,16107,13708
164350,2023-01-20 10:58:09.019367,610037138,32,327,13252,12099,16348,14279
164677,2023-01-20 10:58:10.021869,611039599,32,326,13262,11294,16268,13659
165004,2023-01-20 10:58:11.024606,612042335,32,326,13257,11403,15663,13509
165330,2023-01-20 10:58:12.024862,613044983,32,325,13214,11775,16238,13835
165657,2023-01-20 10:58:13.009730,614047060,32,326,13257,11227,16331,14011
165986,2023-01-20 10:58:14.012462,615049563,32,328,13305,11228,15500,13440
166314,2023-01-20 10:58:15.014749,616052101,32,327,13305,11475,15677,13561
166640,2023-01-20 10:58:16.017525,617054874,32,325,13214,11810,16252,13868
166970,2023-01-20 10:58:17.019809,618057215,32,329,13381,12262,16329,14371
167296,2023-01-20 10:58:18.022193,619059541,32,325,13214,11379,16319,13750
167625,2023-01-20 10:58:19.024678,620062054,32,328,13295,11531,15835,13671
167954,2023-01-20 10:58:20.027330,621064672,32,328,13343,11876,16324,13946
168283,2023-01-20 10:58:21.030134,622067456,32,328,13351,11313,16331,14067
168609,2023-01-20 10:58:22.011192,623068331,32,325,13214,11314,15628,13516
168958,2023-01-20 10:58:23.012724,624070008,32,348,14119,11706,15966,13707
169337,2023-01-20 10:58:24.014702,625072058,32,378,14755,12035,16289,14339
169664,2023-01-20 10:58:25.017157,626074568,32,326,13262,11170,16338,13800
169991,2023-01-20 10:58:26.019762,627077130,32,326,13257,11279,15595,13323
170317,2023-01-20 10:58:27.022462,628079836,32,325,13214,11800,16093,13991
170644,2023-01-20 10:58:28.024659,629082039,32,326,13257,12106,16323,14201
170972,2023-01-20 10:58:29.027203,630084565,32,327,13252,11344,16117,13559
171300,2023-01-20 10:58:30.029719,631087092,32,327,13305,11404,15660,13425
171626,2023-01-20 10:58:31.012459,632089551,32,325,13214,11888,16181,14080
171953,2023-01-20 10:58:32.016789,633092339,32,326,13257,12147,16346,14216
172279,2023-01-20 10:58:33.017199,634094530,32,325,13214,11192,15485,13329
172610,2023-01-20 10:58:34.019809,635097147,32,330,13402,11584,15951,13625
172936,2023-01-20 10:58:35.022202,636099536,32,325,13229,12004,16303,14201
173263,2023-01-20 10:58:36.024710,637102060,32,326,13257,11117,16304,13604
173589,2023-01-20 10:58:37.029724,638107052,32,325,13214,11346,15553,13421
173916,2023-01-20 10:58:38.032225,639109559,32,326,13257,11598,16110,13717
174244,2023-01-20 10:58:39.034713,640112040,32,327,13252,12130,16298,14283
174620,2023-01-20 10:58:40.037201,641114534,32,375,14683,11253,16313,13658
174947,2023-01-20 10:58:41.036674,642117623,32,326,13257,11267,15725,13320
175273,2023-01-20 10:58:42.021221,643118432,32,325,13214,11799,16092,14015
175600,2023-01-20 10:58:43.022240,644119577,32,326,13257,12191,16301,14224
175929,2023-01-20 10:58:44.024957,645122296,32,328,13305,11189,15483,13295
176257,2023-01-20 10:58:45.027245,646124574,32,327,13305,11383,15900,13503
176583,2023-01-20 10:58:46.029722,647127055,32,325,13214,11867,16181,14081
176910,2023-01-20 10:58:47.032505,648129837,32,326,13257,12240,16322,14254
177238,2023-01-20 10:58:48.034667,649132031,32,327,13284,11257,15483,13319
177567,2023-01-20 10:58:49.037222,650134554,32,328,13295,11493,15948,13598
177895,2023-01-20 10:58:50.039770,651137133,32,327,13316,11933,16232,14149
178222,2023-01-20 10:58:51.022015,652139589,32,326,13257,11231,16322,13929
178547,2023-01-20 10:58:52.024630,653142327,32,324,13181,11275,15568,13370
178873,2023-01-20 10:58:53.027402,654144986,32,325,13214,11527,16114,13673
179203,2023-01-20 10:58:54.029255,655147054,32,329,13348,12059,16261,14230
179530,2023-01-20 10:58:55.031858,656149570,32,326,13262,11129,16262,13612
179857,2023-01-20 10:58:56.034322,657152117,32,326,13257,11353,15603,13420
180232,2023-01-20 10:58:57.037131,658154863,32,374,14635,11562,16022,13708
180559,2023-01-20 10:58:58.039488,659157208,32,326,13257,12100,16317,14154
180887,2023-01-20 10:58:59.041788,660159551,32,327,13252,11252,16318,13569
181214,2023-01-20 10:59:00.044343,661162045,32,326,13257,11312,15856,13449
181544,2023-01-20 10:59:01.027709,662164970,32,329,13376,11796,16110,14016
181873,2023-01-20 10:59:02.030304,663167651,32,328,13351,12169,16297,14177
182223,2023-01-20 10:59:03.032709,664170059,32,349,14196,11340,16116,13445
182553,2023-01-20 10:59:04.034725,665172075,32,329,13348,11438,15891,13821
182879,2023-01-20 10:59:05.037180,666174542,32,325,13214,11879,16226,14017
183208,2023-01-20 10:59:06.039788,667177136,32,328,13359,12223,16343,14157
183534,2023-01-20 10:59:07.042500,668179857,32,325,13214,11221,15568,13252
183859,2023-01-20 10:59:08.044715,669182055,32,324,13181,11747,16114,13927
184188,2023-01-20 10:59:09.047306,670184617,32,328,13295,12038,16330,14156
184514,2023-01-20 10:59:10.049732,671187069,32,325,13214,11161,16221,13530
184842,2023-01-20 10:59:11.032228,672189569,32,327,13305,11433,15689,13383
185168,2023-01-20 10:59:12.034954,673192342,32,325,13214,11868,16181,14041
185495,2023-01-20 10:59:13.037165,674194562,32,326,13257,12169,16292,14226
185872,2023-01-20 10:59:14.039863,675197242,32,376,14697,11198,15389,13177
186196,2023-01-20 10:59:15.042159,676199545,32,323,13156,11590,15932,13769
186525,2023-01-20 10:59:16.044678,677202054,32,328,13443,11753,15987,13859
186849,2023-01-20 10:59:17.049688,678207072,32,323,13156,12083,16318,14080
187173,2023-01-20 10:59:18.052137,679209518,32,323,13156,11336,16308,13572
187504,2023-01-20 10:59:19.054651,680212059,32,330,13460,11779,16029,13931
187828,2023-01-20 10:59:20.057186,681214558,32,323,13156,11854,16197,13993
188155,2023-01-20 10:59:21.040332,682217616,32,326,13287,11325,16313,13868
188480,2023-01-20 10:59:22.042164,683219521,32,324,13199,11326,15692,13426
188805,2023-01-20 10:59:23.044954,684222306,32,324,13185,11887,16209,14055
189132,2023-01-20 10:59:24.047234,685224587,32,326,13247,12197,16302,14229
189458,2023-01-20 10:59:25.049706,686227093,32,325,13228,11325,15484,13356
189785,2023-01-20 10:59:26.052510,687229863,32,326,13367,11583,15888,13589
190109,2023-01-20 10:59:27.054704,688232078,32,323,13156,11972,16294,14140
190433,2023-01-20 10:59:28.057222,689234550,32,323,13156,11220,16324,13657
190759,2023-01-20 10:59:29.039937,690237156,32,325,13194,11381,15732,13535
191088,2023-01-20 10:59:30.042448,691239594,32,328,13470,11608,15953,13651
191413,2023-01-20 10:59:31.045003,692242358,32,324,13204,12112,16292,14242
191738,2023-01-20 10:59:32.047713,693244988,32,324,13185,11316,16293,13714
192065,2023-01-20 10:59:33.049695,694247044,32,326,13257,11563,15834,13632
192394,2023-01-20 10:59:34.052210,695249557,32,328,13305,11826,16151,13876
192721,2023-01-20 10:59:35.054791,696252130,32,326,13257,11158,16324,14018
193048,2023-01-20 10:59:36.057534,697254880,32,326,13262,11279,15524,13453
193376,2023-01-20 10:59:37.059877,698257225,32,327,13311,11598,15894,13677
193702,2023-01-20 10:59:38.062223,699259555,32,325,13214,11861,16277,13962
194030,2023-01-20 10:59:39.064726,700262043,32,327,13252,11289,16322,14061
194360,2023-01-20 10:59:40.046970,701264654,32,329,13371,11367,15660,13548
194734,2023-01-20 10:59:41.049742,702267495,32,373,14661,11734,16062,13784
195083,2023-01-20 10:59:42.052221,703270025,32,348,14119,12051,16260,14208
195409,2023-01-20 10:59:43.054345,704272080,32,325,13214,11190,15483,13295
195738,2023-01-20 10:59:44.056814,705274546,32,328,13315,11528,15808,13511
196064,2023-01-20 10:59:45.059397,706277133,32,325,13214,11948,16196,14126
196392,2023-01-20 10:59:46.062049,707280222,32,327,13305,11137,16263,13883
196718,2023-01-20 10:59:47.064321,708282436,32,325,13214,11258,15551,13365
197045,2023-01-20 10:59:48.067605,709285293,32,326,13257,11625,15929,13622
197375,2023-01-20 10:59:49.049892,710287700,32,329,13322,12004,16193,14179
197702,2023-01-20 10:59:50.058150,711290253,32,326,13257,11203,16335,13941
198029,2023-01-20 10:59:51.054721,712292693,32,326,13262,11324,15617,13416
198356,2023-01-20 10:59:52.057510,713295512,32,326,13257,11643,15990,13653
198683,2023-01-20 10:59:53.059855,714297852,32,326,13268,12092,16319,14272
199012,2023-01-20 10:59:54.062263,715300260,32,328,13305,11134,16181,13576
199339,2023-01-20 10:59:55.064693,716302685,32,326,13257,11359,15652,13451
199666,2023-01-20 10:59:56.067327,717305351,32,326,13262,11726,16129,13780
199993,2023-01-20 10:59:57.072307,718310293,32,326,13257,12214,16311,14326
200368,2023-01-20 10:59:58.074980,719312988,32,374,14635,11219,15413,13331
200697,2023-01-20 10:59:59.057458,720315590,32,328,13295,11457,15766,13468
201023,2023-01-20 11:00:00.059751,721318064,32,325,13214,11877,16125,14050
201349,2023-01-20 11:00:01.062658,722320999,32,325,13224,11114,16302,13897
201676,2023-01-20 11:00:02.064350,723322716,32,326,13262,11307,16200,13595
202003,2023-01-20 11:00:03.066943,724325284,32,326,13257,11525,15935,13574
202332,2023-01-20 11:00:04.069411,725327776,32,328,13305,12004,16139,14134
202659,2023-01-20 11:00:05.071935,726330268,32,326,13257,11149,16347,13934
202985,2023-01-20 11:00:06.074689,727333027,32,325,13214,11270,15563,13374
203313,2023-01-20 11:00:07.076892,728335269,32,327,13305,11608,15927,13607
203640,2023-01-20 11:00:08.060039,729337860,32,326,13268,12038,16265,14215
203968,2023-01-20 11:00:09.062341,730340258,32,327,13252,11166,15331,13311
204295,2023-01-20 11:00:10.064716,731342699,32,326,13257,11391,15705,13481
204621,2023-01-20 11:00:11.067661,732345544,32,325,13214,11729,16160,13794
204949,2023-01-20 11:00:12.070246,733348228,32,327,13305,12247,16309,14344
205275,2023-01-20 11:00:13.072270,734350274,32,325,13214,11254,15448,13410
205605,2023-01-20 11:00:14.074734,735352719,32,329,13348,11530,15757,13589
205980,2023-01-20 11:00:15.077303,736355306,32,374,14635,11532,16050,13849
206307,2023-01-20 11:00:16.080175,737358156,32,326,13257,12183,16306,14218
206634,2023-01-20 11:00:17.082374,738360341,32,326,13262,11253,15426,13275
206961,2023-01-20 11:00:18.064921,739362714,32,326,13257,11471,15927,13566
207292,2023-01-20 11:00:19.067430,740365362,32,330,13366,12003,16168,14151
207623,2023-01-20 11:00:20.069914,741367873,32,330,13421,11121,16309,13887
207971,2023-01-20 11:00:21.073047,742371020,32,347,14076,11285,15581,13252
208298,2023-01-20 11:00:22.074703,743372681,32,326,13272,11537,16039,13921
208625,2023-01-20 11:00:23.077308,744375291,32,326,13243,12000,16248,14118
208955,2023-01-20 11:00:24.079898,745377874,32,329,13359,11189,16328,13851
209282,2023-01-20 11:00:25.082266,746380244,32,326,13257,11387,15649,13345
209608,2023-01-20 11:00:26.085047,747383017,32,325,13214,11754,16104,14014
209936,2023-01-20 11:00:27.087273,748385273,32,327,13305,12180,16262,14193
210262,2023-01-20 11:00:28.069832,749387698,32,325,13214,11250,16310,13567
210591,2023-01-20 11:00:29.072438,750390251,32,328,13295,11502,15826,13481
210917,2023-01-20 11:00:30.074764,751392747,32,325,13214,11842,16189,14088
211293,2023-01-20 11:00:31.077537,752395547,32,375,14678,12214,16308,14136
211620,2023-01-20 11:00:32.079841,753397826,32,326,13262,11196,15529,13180
211947,2023-01-20 11:00:33.082260,754400263,32,326,13257,11582,15907,13816
212276,2023-01-20 11:00:34.084999,755402983,32,328,13305,11912,16095,13965
212603,2023-01-20 11:00:35.084518,756403338,32,326,13257,11100,16329,13799
212929,2023-01-20 11:00:36.089567,757408350,32,325,13214,11264,15612,13268
213255,2023-01-20 11:00:37.091801,758410598,32,325,13229,11665,15964,13881
213582,2023-01-20 11:00:38.074909,759413080,32,326,13257,11946,16173,14061
213910,2023-01-20 11:00:39.077253,760415586,32,327,13252,11226,16327,13845
214238,2023-01-20 11:00:40.080305,761418669,32,327,13311,11386,15679,13363
214564,2023-01-20 11:00:41.082416,762420774,32,325,13214,11753,16100,14009
214892,2023-01-20 11:00:42.084691,763423072,32,327,13305,12179,16315,14215
215218,2023-01-20 11:00:43.087267,764425617,32,325,13214,11249,16349,13575
215548,2023-01-20 11:00:44.089708,765428087,32,329,13348,11448,15741,13448
215874,2023-01-20 11:00:45.092548,766430908,32,325,13214,11788,16135,14031
216201,2023-01-20 11:00:46.094715,767433075,32,326,13257,12214,16325,14237
216528,2023-01-20 11:00:47.077331,768435587,32,326,13262,11245,15428,13295
216904,2023-01-20 11:00:48.079951,769438277,32,375,14678,11412,15832,13586
217232,2023-01-20 11:00:49.082182,770440569,32,327,13252,11857,16105,13970
217559,2023-01-20 11:00:50.085035,771443400,32,326,13257,11099,16308,13794
217887,2023-01-20 11:00:51.087216,772445601,32,327,13284,11227,15520,13224
218215,2023-01-20 11:00:52.090122,773448509,32,327,13305,11594,15893,13825
218541,2023-01-20 11:00:53.092192,774450578,32,325,13214,11929,16156,14007
218870,2023-01-20 11:00:54.086101,775453101,32,328,13305,11102,16309,13802
219196,2023-01-20 11:00:55.097543,776455929,32,325,13224,11262,15555,13245
219523,2023-01-20 11:00:56.099914,777458314,32,326,13268,11629,15976,13887
219851,2023-01-20 11:00:57.082387,778460598,32,327,13305,12001,16174,14065
220177,2023-01-20 11:00:58.084784,779463065,32,325,13214,11223,16324,13861
220509,2023-01-20 11:00:59.087309,780465661,32,331,13409,11410,15724,13440
220837,2023-01-20 11:01:00.090196,781468550,32,327,13308,11750,16118,14023
221186,2023-01-20 11:01:01.092744,782471104,32,348,14119,12242,16327,14143
221513,2023-01-20 11:01:02.094657,783473047,32,326,13262,11260,15368,13183
221840,2023-01-20 11:01:03.097190,784475560,32,326,13257,11498,15834,13782
222218,2023-01-20 11:01:04.099761,785478149,32,377,14726,11823,16132,13875
222545,2023-01-20 11:01:05.102517,786480890,32,326,13257,12121,16330,14292
222870,2023-01-20 11:01:06.095303,787483145,32,324,13185,11259,15495,13460
223195,2023-01-20 11:01:07.087258,788485561,32,324,13185,11569,15945,13777
223523,2023-01-20 11:01:08.089756,789488083,32,327,13400,12008,16167,13954
223850,2023-01-20 11:01:09.092225,790490580,32,326,13237,11188,16281,13736
224174,2023-01-20 11:01:10.094991,791493372,32,323,13156,11397,15773,13639
224497,2023-01-20 11:01:11.097206,792495567,32,322,13123,11740,16145,13965
224824,2023-01-20 11:01:12.099878,793498230,32,326,13377,12177,16301,14100
225150,2023-01-20 11:01:13.102178,794500560,32,325,13233,11228,15604,13191
225477,2023-01-20 11:01:14.104780,795503126,32,326,13247,11571,15912,13828
225803,2023-01-20 11:01:15.089479,796508064,32,325,13228,11897,16230,14074
226127,2023-01-20 11:01:16.101929,797510586,32,323,13156,11247,16264,13531
226452,2023-01-20 11:01:17.094320,798513065,32,324,13185,11440,15904,13467
226778,2023-01-20 11:01:18.096801,799515572,32,325,13247,11930,16212,14141
227106,2023-01-20 11:01:19.099818,800518605,32,327,13361,12001,16315,14184
227430,2023-01-20 11:01:20.102063,801520833,32,323,13156,11091,15467,13295
227754,2023-01-20 11:01:21.104301,802523075,32,323,13156,11661,16133,13683
228085,2023-01-20 11:01:22.106879,803525617,32,330,13540,12054,16300,14246
228411,2023-01-20 11:01:23.109304,804528066,32,325,13233,12133,16334,14203
228738,2023-01-20 11:01:24.112159,805530883,32,326,13247,11102,15510,13321
229064,2023-01-20 11:01:25.105117,806533070,32,325,13224,11634,15972,13617
229390,2023-01-20 11:01:26.097412,807535586,32,325,13214,11963,16310,14218
229717,2023-01-20 11:01:27.099932,808538275,32,326,13268,11363,16311,13965
230045,2023-01-20 11:01:28.102223,809540564,32,327,13305,11296,15595,13447
230373,2023-01-20 11:01:29.105007,810543353,32,327,13252,11706,16103,13728
230700,2023-01-20 11:01:30.107224,811545573,32,326,13257,12148,16301,14296
231026,2023-01-20 11:01:31.110114,812548482,32,325,13214,11333,16305,13730
231400,2023-01-20 11:01:32.112221,813550563,32,373,14620,11460,15906,13556
231727,2023-01-20 11:01:33.114733,814553093,32,326,13262,11951,16217,14133
232057,2023-01-20 11:01:34.117555,815555891,32,329,13348,12131,16329,14226
232383,2023-01-20 11:01:35.099963,816558288,32,325,13214,11385,16337,13648
232710,2023-01-20 11:01:36.102308,817560600,32,326,13257,11549,15941,13577
233036,2023-01-20 11:01:37.104663,818563058,32,325,13214,11932,16279,14182
233369,2023-01-20 11:01:38.107443,819565818,32,332,13473,11284,16309,13922
233699,2023-01-20 11:01:39.110099,820568491,32,329,13346,11217,15564,13393
234048,2023-01-20 11:01:40.112703,821571084,32,348,14119,11691,16072,13848
234373,2023-01-20 11:01:41.114688,822573058,32,324,13181,12020,16316,14172
234699,2023-01-20 11:01:42.117168,823575572,32,325,13214,11302,16314,13627
235029,2023-01-20 11:01:43.119847,824578226,32,329,13412,11429,15872,13486
235357,2023-01-20 11:01:44.122457,825580858,32,327,13252,11831,16161,14061
235684,2023-01-20 11:01:45.104836,826583073,32,326,13257,12185,16308,14229
236010,2023-01-20 11:01:46.107244,827585571,32,325,13214,11423,16309,13673
236337,2023-01-20 11:01:47.109718,828588049,32,326,13257,11464,16008,13589
236664,2023-01-20 11:01:48.112217,829590593,32,326,13262,11967,16266,14207
237042,2023-01-20 11:01:49.115030,830593367,32,377,14716,11060,16337,13764
237368,2023-01-20 11:01:50.117170,831595538,32,325,13214,11176,15549,13259
237695,2023-01-20 11:01:51.119805,832598145,32,326,13257,11722,16029,13927
238023,2023-01-20 11:01:52.122216,833600561,32,327,13284,11931,16278,14094
238352,2023-01-20 11:01:53.124801,834603139,32,328,13358,11196,16238,13496
238680,2023-01-20 11:01:54.117926,835608047,32,327,13252,11212,15675,13296
239007,2023-01-20 11:01:55.120301,836610612,32,326,13257,11720,16002,13899
239333,2023-01-20 11:01:56.114761,837613115,32,325,13214,11929,16297,14117
239658,2023-01-20 11:01:57.117218,838615563,32,324,13181,11264,16244,13551
239987,2023-01-20 11:01:58.120275,839618622,32,328,13359,11348,15801,13443
240315,2023-01-20 11:01:59.122423,840620775,32,327,13252,11846,16158,14051
240642,2023-01-20 11:02:00.124730,841623066,32,326,13257,12060,16331,14168
240968,2023-01-20 11:02:01.127288,842625626,32,325,13214,11352,16311,13623
241295,2023-01-20 11:02:02.129716,843628068,32,326,13257,11479,15937,13565
241622,2023-01-20 11:02:03.132536,844630869,32,326,13267,11982,16332,14196
241952,2023-01-20 11:02:04.114466,845633073,32,329,13343,12135,16329,14196
242278,2023-01-20 11:02:05.116898,846635564,32,325,13214,11420,16306,13664
242654,2023-01-20 11:02:06.119412,847638134,32,375,14678,11547,15935,13782
242980,2023-01-20 11:02:07.121844,848640554,32,325,13214,11840,16208,14025
243307,2023-01-20 11:02:08.124914,849643680,32,326,13257,11240,16303,13842
243636,2023-01-20 11:02:09.126913,850645636,32,328,13300,11259,15620,13322
243963,2023-01-20 11:02:10.129755,851648510,32,326,13257,11719,16066,13919
244289,2023-01-20 11:02:11.131834,852650579,32,325,13214,11928,16275,14112
244615,2023-01-20 11:02:12.134380,853653095,32,325,13214,11263,16311,13569
244942,2023-01-20 11:02:13.137174,854655919,32,326,13277,11390,15741,13433
245272,2023-01-20 11:02:14.120135,855658309,32,329,13354,11792,16101,14001
245599,2023-01-20 11:02:15.122271,856660591,32,326,13257,12060,16310,14173
245925,2023-01-20 11:02:16.124695,857663067,32,325,13214,11331,16217,13586
246255,2023-01-20 11:02:17.127321,858665653,32,329,13371,11458,15916,13571
246583,2023-01-20 11:02:18.130174,859668510,32,327,13308,11961,16308,14151
246937,2023-01-20 11:02:19.132751,860671117,32,353,14325,12232,16309,14140
247263,2023-01-20 11:02:20.134728,861673056,32,325,13214,11419,16305,13577
247590,2023-01-20 11:02:21.137221,862675592,32,326,13257,11700,16004,13930
247916,2023-01-20 11:02:22.139908,863678246,32,325,13214,12049,16183,14111
248295,2023-01-20 11:02:23.122652,864680862,32,378,14801,11168,16300,13603
248624,2023-01-20 11:02:24.124777,865683071,32,328,13300,11343,15550,13505
248950,2023-01-20 11:02:25.127172,866685563,32,325,13214,11595,15942,13718
249277,2023-01-20 11:02:26.129716,867688081,32,326,13257,11858,16151,13911
249603,2023-01-20 11:02:27.132204,868690596,32,325,13214,11260,16298,13769
249930,2023-01-20 11:02:28.134971,869693335,32,326,13257,11464,15757,13665
250258,2023-01-20 11:02:29.137206,870695569,32,327,13267,11802,16084,13878
250586,2023-01-20 11:02:30.139866,871698229,32,327,13311,11968,16326,14041
250912,2023-01-20 11:02:31.142199,872700563,32,325,13214,11260,16326,13502
251239,2023-01-20 11:02:32.144778,873703128,32,326,13257,11595,15845,13766
251567,2023-01-20 11:02:33.129862,874708077,32,327,13296,11890,16237,14032
251897,2023-01-20 11:02:34.132332,875710544,32,329,13343,12229,16312,14132
252223,2023-01-20 11:02:35.134790,876713120,32,325,13214,11295,16267,13511
252550,2023-01-20 11:02:36.137209,877715551,32,326,13257,11716,16012,13877
252876,2023-01-20 11:02:37.140268,878718601,32,325,13214,11925,16272,14071
253203,2023-01-20 11:02:38.142498,879720828,32,326,13257,11140,16219,13486
253581,2023-01-20 11:02:39.144749,880723082,32,377,14721,10034,15511,12957
253907,2023-01-20 11:02:40.147223,881725557,32,325,13214,11627,15995,13733
254234,2023-01-20 11:02:41.149776,882728098,32,326,13257,11879,16270,13963
254560,2023-01-20 11:02:42.132716,883730879,32,325,13214,11331,16184,13750
254888,2023-01-20 11:02:43.134802,884733118,32,327,13310,11549,15789,13698
255217,2023-01-20 11:02:44.137240,885735565,32,328,13300,11748,16009,13858
255545,2023-01-20 11:02:45.139879,886738216,32,327,13311,12054,16330,14080
255871,2023-01-20 11:02:46.142241,887740570,32,325,13214,11366,16332,13819
256198,2023-01-20 11:02:47.145030,888743355,32,326,13257,11618,15877,13755
256523,2023-01-20 11:02:48.147270,889745591,32,324,13181,11836,16183,13977
256853,2023-01-20 11:02:49.150158,890748484,32,329,13343,12171,16337,14105
257179,2023-01-20 11:02:50.152181,891750542,32,325,13214,11294,16306,13557
257506,2023-01-20 11:02:51.154772,892753094,32,326,13257,11715,15965,13859
257832,2023-01-20 11:02:52.152742,893755883,32,325,13214,11957,16325,14098
258160,2023-01-20 11:02:53.139577,894758271,32,327,13310,11172,16307,13520
258491,2023-01-20 11:02:54.141781,895760588,32,330,13370,11294,15631,13349
258817,2023-01-20 11:02:55.144312,896763070,32,325,13214,11659,16006,13854
259196,2023-01-20 11:02:56.146819,897765667,32,378,14792,11922,16208,13935
259524,2023-01-20 11:02:57.149741,898768501,32,327,13308,11207,16296,13697
259872,2023-01-20 11:02:58.152289,899771039,32,347,14090,11414,15696,13558
260199,2023-01-20 11:02:59.154272,900773034,32,326,13242,11706,16044,13753
260526,2023-01-20 11:03:00.142786,901775576,32,326,13352,12016,16266,14297
260851,2023-01-20 11:03:01.159527,902778263,32,324,13210,11316,16326,13706
261176,2023-01-20 11:03:02.142589,903780862,32,324,13199,11552,15918,13671
261500,2023-01-20 11:03:03.144793,904783067,32,323,13176,11906,16303,13977
261829,2023-01-20 11:03:04.147192,905785548,32,328,13390,12203,16327,14361
262155,2023-01-20 11:03:05.149733,906788082,32,325,13233,11274,15505,13478
262479,2023-01-20 11:03:06.152249,907790599,32,323,13156,11670,16013,13789
262805,2023-01-20 11:03:07.155031,908793387,32,325,13228,12034,16334,14074
263129,2023-01-20 11:03:08.157198,909795565,32,323,13156,11264,16316,13525
263456,2023-01-20 11:03:09.159874,910798222,32,326,13223,11665,15858,13855
263785,2023-01-20 11:03:10.162230,911800580,32,328,13443,12029,16184,14062
264109,2023-01-20 11:03:11.160872,912803071,32,323,13156,11198,16291,13774
264433,2023-01-20 11:03:12.149815,913808098,32,323,13156,11402,16325,13659
264758,2023-01-20 11:03:13.152220,914810555,32,324,13209,11832,16077,14025
265090,2023-01-20 11:03:14.154968,915813397,32,331,13522,11978,16217,14088
265415,2023-01-20 11:03:15.157420,916815849,32,324,13204,11256,16316,13831
265739,2023-01-20 11:03:16.160483,917818919,32,323,13181,11257,15811,13397
266062,2023-01-20 11:03:17.162450,918820853,32,322,13127,11919,16150,14105
266385,2023-01-20 11:03:18.164687,919823083,32,322,13127,11236,16302,13627
266710,2023-01-20 11:03:19.167262,920825652,32,324,13165,11472,15806,13580
