LineNo,UTC_Approx,TimeUS,FmtType,UnitIds,MultIds
384,2023-01-20 10:49:56.259410,116248439,254,s?????,F?????
1616,2023-01-20 10:49:56.666858,116668329,128,-b---,-----
1617,2023-01-20 10:49:56.666877,116668347,112,s--,F--
1618,2023-01-20 10:49:56.666894,116668365,111,s---,F---
1619,2023-01-20 10:49:56.667869,116669343,111,s---,F---
1620,2023-01-20 10:49:56.667887,116669361,113,s--,F--
1621,2023-01-20 10:49:56.667905,116669379,32,s---,F---
1622,2023-01-20 10:49:56.667927,116669401,87,s#---SmDUmnhnh-,F----0BGGB000--
1623,2023-01-20 10:49:56.667948,116669422,88,s#mmmnd-ssm,F-BBBB0-CC0
1624,2023-01-20 10:49:56.667972,116669447,92,s#-----,F------
1625,2023-01-20 10:49:56.667999,116669474,93,s#----,F-----
1626,2023-01-20 10:49:56.668030,116669505,89,s--S-------,F--0-------
1627,2023-01-20 10:49:56.668049,116669524,90,s-----,F-----
1628,2023-01-20 10:49:56.668068,116669543,91,s------------,F------------
1629,2023-01-20 10:49:56.668087,116669562,59,s-,F-
1630,2023-01-20 10:49:56.668105,116669580,60,sYYYYYYYYYYYYYY,F--------------
1631,2023-01-20 10:49:56.668129,116669604,61,sYY-,F---
1632,2023-01-20 10:49:56.668147,116669622,62,sYYYYYYYYYYYYYY,F--------------
1633,2023-01-20 10:49:56.668167,116669642,201,sYYYY,F----
1634,2023-01-20 10:49:56.668185,116669660,202,sYYYYYYYYYYYYYY,F--------------
1635,2023-01-20 10:49:56.668208,116669684,63,s--,F--
1636,2023-01-20 10:49:56.668226,116669702,64,s#mPOnsmO-,F-00B0C?0-
1637,2023-01-20 10:49:56.668246,116669722,190,s--mmnnmmms--,F--BBBBBBBC--
1638,2023-01-20 10:49:56.668265,116669741,65,svv---Ovvv,F00---0000
1639,2023-01-20 10:49:56.668338,116669814,74,s-------DUm-,F-------GG0-
1640,2023-01-20 10:49:56.668358,116669834,75,s---------------,F---------------
1641,2023-01-20 10:49:56.668379,116669855,76,s-------,F-------
1642,2023-01-20 10:49:56.668397,116669873,78,s--DUmmmddd,F--GGBBBBBB
1643,2023-01-20 10:49:56.668417,116669893,79,s--DUmmmddd,F--GGBBBBBB
1644,2023-01-20 10:49:56.668436,116669912,107,s#nPOPP-----,F-00B00-----
1645,2023-01-20 10:49:56.668456,116669932,83,s#vvAaXOw%,F-000C0?00
1646,2023-01-20 10:49:56.668474,116669951,84,s#vvvvvvvvvvvvv,F-0CCCCCCCCCCCC
1647,2023-01-20 10:49:56.668499,116669976,106,s#GGGGGGGGG-s,F-CCCCCCCCC-F
1648,2023-01-20 10:49:56.668519,116669996,115,s---,F---
1649,2023-01-20 10:49:56.668537,116670014,109,s#m--,F-B--
1650,2023-01-20 10:49:56.668555,116670032,110,s-------------,F-------------
1651,2023-01-20 10:49:56.668575,116670052,173,s--mmmmmmm,F--0000000
1652,2023-01-20 10:49:56.668595,116670072,178,sz---b%------s,F----0A------F
1653,2023-01-20 10:49:56.668615,116670092,177,s----mmm,F----000
1654,2023-01-20 10:49:56.668634,116670111,169,s-bddd-mDUmDUm,F-------GGBGGB
1655,2023-01-20 10:49:56.668654,116670131,170,sbbbbDUDU,F----GGGG
1656,2023-01-20 10:49:56.668736,116670214,171,sbnnnnnnb,F--------
1657,2023-01-20 10:49:56.668755,116670233,172,s--DU,F--GG
1658,2023-01-20 10:49:56.668777,116670255,73,sddhmDU????,FBBB0GG????
1659,2023-01-20 10:49:56.668796,116670274,80,s-DU-mm--m,F-GG-00--0
1660,2023-01-20 10:49:56.668816,116670294,82,s#qqvAOaO%,F-BB--BCB-
1661,2023-01-20 10:49:56.668835,116670313,81,s#---%,F-0000
1662,2023-01-20 10:49:56.668853,116670331,98,s----------,F----------
1663,2023-01-20 10:49:56.670369,116671853,98,s----------,F----------
1664,2023-01-20 10:49:56.670394,116671878,99,s----------,F----------
1665,2023-01-20 10:49:56.670422,116671906,100,s----------,F----------
1666,2023-01-20 10:49:56.670452,116671936,101,s----------,F----------
1667,2023-01-20 10:49:56.670471,116671955,102,s----------,F----------
1668,2023-01-20 10:49:56.670491,116671975,103,s----------,F----------
1669,2023-01-20 10:49:56.670510,116671994,104,s----------,F----------
1670,2023-01-20 10:49:56.670530,116672014,105,s??DUm--------,F??000--------
1671,2023-01-20 10:49:56.670550,116672034,160,s#sooo,F-F000
1672,2023-01-20 10:49:56.670568,116672052,161,s#sEEE,F-F000
1673,2023-01-20 10:49:56.670587,116672071,162,s#EEEooo--O--zz,F-000000-----00
1674,2023-01-20 10:49:56.670606,116672091,165,s#ooo-,F-000-
1675,2023-01-20 10:49:56.670625,116672110,163,s-----sz,F-----F-
1676,2023-01-20 10:49:56.670644,116672129,164,s--ooo,F--???
1677,2023-01-20 10:49:56.670662,116672147,129,s-,F-
1678,2023-01-20 10:49:56.670733,116672218,130,--,--
1679,2023-01-20 10:49:56.670751,116672236,138,DUm????????,GGB--------
1680,2023-01-20 10:49:56.670770,116672255,131,-,-
1681,2023-01-20 10:49:56.670803,116672288,132,DUm,GGB
1682,2023-01-20 10:49:56.670821,116672306,133,nn,00
1683,2023-01-20 10:49:56.670838,116672323,134,-,-
1684,2023-01-20 10:49:56.670856,116672341,135,DUm,GGB
1685,2023-01-20 10:49:56.670873,116672359,136,nn,00
1686,2023-01-20 10:49:56.670891,116672377,137,???-,???-
1687,2023-01-20 10:49:56.670909,116672395,139,------,------
1688,2023-01-20 10:49:56.670927,116672413,140,---------#,----------
1689,2023-01-20 10:49:56.670946,116672432,148,--,--
1690,2023-01-20 10:49:56.670964,116672450,149,----#,-----
1691,2023-01-20 10:49:56.670982,116672468,141,--,--
1692,2023-01-20 10:49:56.671012,116672498,142,---#,----
1693,2023-01-20 10:49:56.671030,116672516,143,???,???
1694,2023-01-20 10:49:56.671048,116672534,144,------#,-------
1695,2023-01-20 10:49:56.671066,116672552,145,--,--
1696,2023-01-20 10:49:56.671084,116672570,146,-------#,--------
1697,2023-01-20 10:49:56.671103,116672589,147,--------------#,---------------
1698,2023-01-20 10:49:56.671123,116672609,153,--------,--------
1699,2023-01-20 10:49:56.671141,116672628,154,----------#,-----------
1700,2023-01-20 10:49:56.671161,116672648,150,---------,---------
1701,2023-01-20 10:49:56.671180,116672667,151,smmmm-#,?0000--
1702,2023-01-20 10:49:56.671198,116672685,152,------,------
1703,2023-01-20 10:49:56.671217,116672704,155,---------,---------
1704,2023-01-20 10:49:56.671236,116672723,156,------------,------------
1705,2023-01-20 10:49:56.671255,116672742,157,------,------
1706,2023-01-20 10:49:56.671332,116672819,158,-------,-------
1707,2023-01-20 10:49:56.671350,116672837,159,-------------,-------------
1708,2023-01-20 10:49:56.673167,116674661,159,-------------,-------------
1709,2023-01-20 10:49:56.673187,116674681,43,s#-m---mmmmmmmm,F--B---BBBBBBBB
1710,2023-01-20 10:49:56.673207,116674701,44,s#ddhnnnnmmmkkkm,F-BBB0000000BBBB
1711,2023-01-20 10:49:56.673228,116674722,45,s#---nnGGGGGGoor,F----BBCCCCCC000
1712,2023-01-20 10:49:56.673251,116674746,46,s#nnnmmmGGGd?--,F-BBBBBBCCCBB00
1713,2023-01-20 10:49:56.673325,116674820,47,s#------mm-----,F-------??-----
1714,2023-01-20 10:49:56.673345,116674840,48,s#----m???mrnm,F-----BBBBB000
1715,2023-01-20 10:49:56.673366,116674861,49,s#------,F-------
1716,2023-01-20 10:49:56.673385,116674880,50,s#-----,F------
1717,2023-01-20 10:49:56.673403,116674898,51,s#-----,F------
1718,2023-01-20 10:49:56.673422,116674917,52,s#????,F-????
1719,2023-01-20 10:49:56.673440,116674935,53,s#sssssssss,F-000000000
1720,2023-01-20 10:49:56.673460,116674955,54,s#rr,F-00
1721,2023-01-20 10:49:56.673478,116674973,55,s#------------,F-------------
1722,2023-01-20 10:49:56.673498,116674993,56,s#------------,F-------------
1723,2023-01-20 10:49:56.673517,116675013,57,s#hdhhhhh-----,F-000000000000
1724,2023-01-20 10:49:56.673541,116675037,58,s#nnnnnnnnnn,F-0000000000
1725,2023-01-20 10:49:56.673561,116675057,41,s#hdhhhhh-----,F-000000000000
1726,2023-01-20 10:49:56.673581,116675077,42,s#nnnnnnnnnn,F-0000000000
1727,2023-01-20 10:49:56.673606,116675102,66,sddhmDU????,FBBB0GG????
1728,2023-01-20 10:49:56.673626,116675122,67,sdd,F00
1729,2023-01-20 10:49:56.673643,116675139,68,sddddhhdh-,FBBBBBBBB-
1730,2023-01-20 10:49:56.673712,116675208,69,s#DUm,F-GGB
1731,2023-01-20 10:49:56.673730,116675226,70,sDUmmm,FGG000
1732,2023-01-20 10:49:56.673749,116675245,71,skk-kk-kk-oo-,F?????????BB-
1733,2023-01-20 10:49:56.673769,116675265,72,s---,F000
1734,2023-01-20 10:49:56.673786,116675283,198,sEEEooo????,F000000????
1735,2023-01-20 10:49:56.673809,116675306,85,s----------,F----------
1736,2023-01-20 10:49:56.673844,116675341,86,s--------------,F--------------
1737,2023-01-20 10:49:56.673864,116675361,108,sqq,F00
1738,2023-01-20 10:49:56.673882,116675379,203,s---DU-m,F---GG--
1739,2023-01-20 10:49:56.673901,116675398,176,s--b---,F--0---
1740,2023-01-20 10:49:56.673920,116675417,114,s--DUm,F--GGB
1741,2023-01-20 10:49:56.673938,116675435,182,s#----s-,F-000-C-
1742,2023-01-20 10:49:56.673957,116675454,179,s-EEnn,F-0000
1743,2023-01-20 10:49:56.673975,116675472,181,sm-m-,F0-0-
1744,2023-01-20 10:49:56.673994,116675491,184,s-DUmhnn-,F-GGCBCC-
1745,2023-01-20 10:49:56.674020,116675517,180,s-,F-
1746,2023-01-20 10:49:56.674037,116675535,185,s----,F----
1747,2023-01-20 10:49:56.674057,116675554,183,s--,F--
1748,2023-01-20 10:49:56.674073,116675571,186,s-----mmn?vO,F-----000000
1749,2023-01-20 10:49:56.674097,116675595,187,smmnnnooo,F00000000
1750,2023-01-20 10:49:56.674116,116675614,188,smmnnnooo,F00000000
1751,2023-01-20 10:49:56.674135,116675633,189,smmnnnooo,F00000000
1752,2023-01-20 10:49:56.674154,116675652,195,s#----,F-----
1753,2023-01-20 10:49:56.675421,116676924,195,s#----,F-----
1754,2023-01-20 10:49:56.675440,116676943,196,----,----
1755,2023-01-20 10:49:56.675458,116676961,197,s-sbb,F-F--
1756,2023-01-20 10:49:56.675476,116676979,200,s---------,F---------
1757,2023-01-20 10:49:56.675499,116677002,199,s-----,F-----
1758,2023-01-20 10:49:56.675518,116677021,6,s----,F----
1759,2023-01-20 10:49:56.675536,116677039,0,s----mmmmmmnn,F----00B000BB
1760,2023-01-20 10:49:56.675556,116677059,1,s--,F--
1761,2023-01-20 10:49:56.675574,116677077,2,s--,F--
1762,2023-01-20 10:49:56.675592,116677095,3,s--,F--
1763,2023-01-20 10:49:56.675610,116677113,4,s--,F--
1764,2023-01-20 10:49:56.675627,116677131,5,s--,F--
1765,2023-01-20 10:49:56.675646,116677149,9,ss-zkkkooo,F---------
1766,2023-01-20 10:49:56.675714,116677218,10,s--ssssss,F--------
1767,2023-01-20 10:49:56.675733,116677237,8,s-mmm-nnnooo,F-BBB-BBBBBB
1768,2023-01-20 10:49:56.675752,116677256,11,s-dddkkk-n,F-000000-0
