LineNo,UTC_Approx,TimeUS,I,VDop,HAcc,VAcc,SAcc,YAcc,VV,SMS,Delta,Und
302,2023-01-20 10:49:56.200000,116183121,0,1.37,2.85,5.09,0.8,0,1,116131,200,-36.19
1067,2023-01-20 10:49:56.400000,116403010,0,1.37,2.85,5.1,0.82,0,1,116331,200,-36.19
1420,2023-01-20 10:49:56.600000,116601219,0,1.37,2.86,5.1,0.81,0,1,116531,200,-36.19
1898,2023-01-20 10:49:56.800000,116801971,0,1.37,2.86,5.11,0.83,0,1,116731,200,-36.19
1991,2023-01-20 10:49:57.000000,117001972,0,1.37,2.86,5.11,0.85,0,1,116931,200,-36.19
2083,2023-01-20 10:49:57.200000,117201931,0,1.37,2.86,5.12,0.81,0,1,117131,200,-36.19
2190,2023-01-20 10:49:57.400000,117382071,0,1.37,2.87,5.12,0.86,0,1,117331,200,-36.19
2312,2023-01-20 10:49:57.600000,117602060,0,1.37,2.87,5.12,0.85,0,1,117531,200,-36.19
2424,2023-01-20 10:49:57.800000,117802104,0,1.37,2.87,5.13,0.85,0,1,117731,200,-36.19
2509,2023-01-20 10:49:58.000000,118002164,0,1.37,2.87,5.13,0.84,0,1,117931,200,-36.19
2591,2023-01-20 10:49:58.200000,118201999,0,1.37,2.88,5.14,0.85,0,1,118131,200,-36.19
2670,2023-01-20 10:49:58.400000,118402060,0,1.37,2.88,5.14,0.8,0,1,118331,200,-36.19
2751,2023-01-20 10:49:58.600000,118602064,0,1.37,2.88,5.14,0.83,0,1,118531,200,-36.19
2833,2023-01-20 10:49:58.800000,118802117,0,1.37,2.88,5.14,0.8,0,1,118731,200,-36.189
2914,2023-01-20 10:49:59.000000,119002114,0,1.37,2.88,5.15,0.82,0,1,118931,200,-36.189
2995,2023-01-20 10:49:59.200000,119202061,0,1.37,2.88,5.15,0.76,0,1,119131,200,-36.19
3073,2023-01-20 10:49:59.400000,119402064,0,1.37,2.88,5.15,0.83,0,1,119331,200,-36.19
3154,2023-01-20 10:49:59.600000,119602072,0,1.37,2.88,5.15,0.83,0,1,119531,200,-36.19
3234,2023-01-20 10:49:59.800000,119802109,0,1.37,2.88,5.15,0.64,0,1,119731,200,-36.19
3313,2023-01-20 10:50:00.000000,120002119,0,1.37,2.88,5.15,0.8,0,1,119931,200,-36.19
3393,2023-01-20 10:50:00.200000,120202065,0,1.37,2.88,5.15,0.75,0,1,120131,200,-36.19
3471,2023-01-20 10:50:00.400000,120402081,0,1.37,2.88,5.15,0.8,0,1,120331,200,-36.19
3553,2023-01-20 10:50:00.600000,120602067,0,1.37,2.88,5.15,0.81,0,1,120531,200,-36.19
3634,2023-01-20 10:50:00.800000,120802091,0,1.37,2.88,5.15,0.56,0,1,120731,200,-36.19
3709,2023-01-20 10:50:01.000000,121002128,0,1.37,2.88,5.15,0.81,0,1,120931,200,-36.19
3774,2023-01-20 10:50:01.200000,121202115,0,1.37,2.88,5.15,0.82,0,1,121131,200,-36.19
3837,2023-01-20 10:50:01.400000,121402223,0,1.37,2.88,5.15,0.82,0,1,121331,200,-36.19
3903,2023-01-20 10:50:01.600000,121602120,0,1.37,2.88,5.15,0.79,0,1,121531,200,-36.19
3968,2023-01-20 10:50:01.800000,121802116,0,1.37,2.88,5.15,0.72,0,1,121731,200,-36.19
4033,2023-01-20 10:50:02.000000,122002267,0,1.37,2.88,5.15,0.76,0,1,121931,200,-36.19
4098,2023-01-20 10:50:02.200000,122202135,0,1.37,2.88,5.15,0.7,0,1,122131,200,-36.19
4161,2023-01-20 10:50:02.400000,122402139,0,1.37,2.88,5.16,0.83,0,1,122331,200,-36.19
4227,2023-01-20 10:50:02.600000,122602937,0,1.37,2.89,5.16,0.82,0,1,122531,200,-36.19
4293,2023-01-20 10:50:02.800000,122802863,0,1.37,2.89,5.16,0.76,0,1,122731,200,-36.19
4358,2023-01-20 10:50:03.000000,123002913,0,1.37,2.89,5.16,0.73,0,1,122931,200,-36.19
4423,2023-01-20 10:50:03.200000,123202917,0,1.37,2.89,5.16,0.73,0,1,123131,200,-36.19
4486,2023-01-20 10:50:03.400000,123402906,0,1.37,2.89,5.17,0.8,0,1,123331,200,-36.19
4551,2023-01-20 10:50:03.600000,123602879,0,1.37,2.9,5.18,0.8,0,1,123531,200,-36.19
4617,2023-01-20 10:50:03.800000,123802886,0,1.37,2.9,5.19,0.85,0,1,123731,200,-36.19
4682,2023-01-20 10:50:04.000000,124002265,0,1.37,2.91,5.2,0.9,0,1,123931,200,-36.19
4747,2023-01-20 10:50:04.200000,124202130,0,1.37,2.91,5.21,0.87,0,1,124131,200,-36.19
4810,2023-01-20 10:50:04.400000,124402139,0,1.37,2.92,5.22,0.86,0,1,124331,200,-36.19
4876,2023-01-20 10:50:04.600000,124602219,0,1.37,2.92,5.23,0.88,0,1,124531,200,-36.19
4942,2023-01-20 10:50:04.800000,124802134,0,1.37,2.93,5.24,0.84,0,1,124731,200,-36.19
5006,2023-01-20 10:50:05.000000,125002229,0,1.37,2.93,5.25,0.81,0,1,124931,200,-36.19
5071,2023-01-20 10:50:05.200000,125202132,0,1.37,2.94,5.26,0.82,0,1,125131,200,-36.19
5134,2023-01-20 10:50:05.400000,125402142,0,1.37,2.94,5.27,0.82,0,1,125331,200,-36.19
5200,2023-01-20 10:50:05.600000,125602114,0,1.37,2.95,5.28,0.83,0,1,125531,200,-36.19
5266,2023-01-20 10:50:05.800000,125802109,0,1.37,2.95,5.29,0.74,0,1,125731,200,-36.19
5331,2023-01-20 10:50:06.000000,126022070,0,1.37,2.96,5.3,0.85,0,1,125931,200,-36.19
5396,2023-01-20 10:50:06.200000,126221998,0,1.37,2.96,5.31,0.84,0,1,126131,200,-36.189
5461,2023-01-20 10:50:06.400000,126424499,0,1.37,2.97,5.33,0.85,0,1,126331,200,-36.19
5527,2023-01-20 10:50:06.600000,126624523,0,1.37,2.97,5.34,0.82,0,1,126531,200,-36.189
5592,2023-01-20 10:50:06.800000,126824652,0,1.37,2.98,5.35,0.83,0,1,126731,200,-36.19
5656,2023-01-20 10:50:07.000000,127024831,0,1.37,2.98,5.36,0.82,0,1,126931,200,-36.19
5721,2023-01-20 10:50:07.200000,127224867,0,1.37,2.99,5.37,0.81,0,1,127131,200,-36.19
5784,2023-01-20 10:50:07.400000,127424741,0,1.37,2.99,5.38,0.81,0,1,127331,200,-36.19
5850,2023-01-20 10:50:07.600000,127624914,0,1.37,3,5.39,0.8,0,1,127531,200,-36.19
5914,2023-01-20 10:50:07.800000,127804652,0,1.37,3,5.4,0.82,0,1,127731,200,-36.19
5981,2023-01-20 10:50:08.000000,128024948,0,1.37,3,5.41,0.82,0,1,127931,200,-36.189
6046,2023-01-20 10:50:08.200000,128224985,0,1.37,3.01,5.41,0.81,0,1,128131,200,-36.189
6109,2023-01-20 10:50:08.400000,128424901,0,1.37,3.01,5.42,0.8,0,1,128331,200,-36.19
6175,2023-01-20 10:50:08.600000,128624914,0,1.37,3.02,5.43,0.8,0,1,128531,200,-36.19
6240,2023-01-20 10:50:08.800000,128824931,0,1.37,3.02,5.43,0.76,0,1,128731,200,-36.19
6307,2023-01-20 10:50:09.000000,129024735,0,1.37,3.03,5.45,0.79,0,1,128931,200,-36.19
6372,2023-01-20 10:50:09.200000,129224658,0,1.37,3.03,5.45,0.79,0,1,129131,200,-36.19
6435,2023-01-20 10:50:09.400000,129425018,0,1.37,3.03,5.46,0.78,0,1,129331,200,-36.189
6501,2023-01-20 10:50:09.600000,129627486,0,1.37,3.04,5.46,0.78,0,1,129531,200,-36.189
6566,2023-01-20 10:50:09.800000,129827489,0,1.37,3.04,5.47,0.78,0,1,129731,200,-36.19
6631,2023-01-20 10:50:10.000000,130027533,0,1.37,3.05,5.48,0.83,0,1,129931,200,-36.19
6696,2023-01-20 10:50:10.200000,130227483,0,1.37,3.05,5.49,0.84,0,1,130131,200,-36.19
6759,2023-01-20 10:50:10.400000,130428001,0,1.37,3.06,5.5,0.78,0,1,130331,200,-36.19
6825,2023-01-20 10:50:10.600000,130628055,0,1.37,3.06,5.5,0.79,0,1,130531,200,-36.189
6890,2023-01-20 10:50:10.800000,130828091,0,1.37,3.07,5.5,0.81,0,1,130731,200,-36.189
6954,2023-01-20 10:50:11.000000,131028268,0,1.37,3.07,5.51,0.81,0,1,130971,240,-36.19
7019,2023-01-20 10:50:11.200000,131228095,0,1.36,3.07,5.51,0.78,0,1,131171,200,-36.19
7083,2023-01-20 10:50:11.400000,131428109,0,1.36,3.08,5.52,0.84,0,1,131371,200,-36.19
7149,2023-01-20 10:50:11.600000,131628097,0,1.36,3.08,5.53,0.81,0,1,131571,200,-36.19
7214,2023-01-20 10:50:11.800000,131828098,0,1.36,3.09,5.54,0.78,0,1,131771,200,-36.189
7278,2023-01-20 10:50:12.000000,132028248,0,1.36,3.1,5.55,0.81,0,1,131971,200,-36.19
7343,2023-01-20 10:50:12.200000,132228086,0,1.36,3.1,5.56,0.79,0,1,132171,200,-36.189
7406,2023-01-20 10:50:12.400000,132428093,0,1.36,3.11,5.57,0.76,0,1,132371,200,-36.19
7472,2023-01-20 10:50:12.600000,132628108,0,1.36,3.12,5.58,0.83,0,1,132571,200,-36.19
7537,2023-01-20 10:50:12.800000,132828087,0,1.36,3.12,5.58,0.68,0,1,132771,200,-36.19
7602,2023-01-20 10:50:13.000000,133028234,0,1.36,3.13,5.59,0.76,0,1,132971,200,-36.19
7667,2023-01-20 10:50:13.200000,133228086,0,1.36,3.13,5.6,0.62,0,1,133171,200,-36.19
7730,2023-01-20 10:50:13.400000,133428092,0,1.36,3.14,5.62,0.7,0,1,133371,200,-36.189
7795,2023-01-20 10:50:13.600000,133628091,0,1.36,3.14,5.62,0.73,0,1,133571,200,-36.19
7861,2023-01-20 10:50:13.800000,133828094,0,1.36,3.15,5.64,0.62,0,1,133771,200,-36.189
7927,2023-01-20 10:50:14.000000,134028260,0,1.36,3.15,5.65,0.64,0,1,133971,200,-36.19
7992,2023-01-20 10:50:14.200000,134228113,0,1.36,3.16,5.66,0.9,0,1,134171,200,-36.19
8055,2023-01-20 10:50:14.400000,134428098,0,1.36,3.16,5.67,0.69,0,1,134371,200,-36.189
8121,2023-01-20 10:50:14.600000,134628098,0,1.36,3.17,5.68,0.77,0,1,134571,200,-36.19
8187,2023-01-20 10:50:14.800000,134828098,0,1.36,3.17,5.7,0.7,0,1,134771,200,-36.189
8251,2023-01-20 10:50:15.000000,135028266,0,1.36,3.18,5.71,0.66,0,1,134971,200,-36.19
8316,2023-01-20 10:50:15.200000,135228136,0,1.36,3.18,5.71,0.64,0,1,135171,200,-36.19
8379,2023-01-20 10:50:15.400000,135428096,0,1.36,3.18,5.72,0.85,0,1,135371,200,-36.19
8444,2023-01-20 10:50:15.600000,135628102,0,1.36,3.19,5.72,0.69,0,1,135571,200,-36.19
8510,2023-01-20 10:50:15.800000,135828097,0,1.36,3.19,5.73,0.62,0,1,135771,200,-36.19
8574,2023-01-20 10:50:16.000000,136028159,0,1.36,3.19,5.74,0.8,0,1,135971,200,-36.19
8639,2023-01-20 10:50:16.200000,136228097,0,1.36,3.19,5.74,0.89,0,1,136171,200,-36.19
8702,2023-01-20 10:50:16.400000,136428206,0,1.36,3.19,5.75,0.88,0,1,136371,200,-36.19
8767,2023-01-20 10:50:16.600000,136628090,0,1.36,3.19,5.75,0.92,0,1,136571,200,-36.19
8833,2023-01-20 10:50:16.800000,136828095,0,1.36,3.19,5.75,0.9,0,1,136771,200,-36.19
8897,2023-01-20 10:50:17.000000,137028142,0,1.36,3.19,5.75,0.93,0,1,136971,200,-36.19
8962,2023-01-20 10:50:17.200000,137228085,0,1.36,3.19,5.74,0.92,0,1,137171,200,-36.19
9025,2023-01-20 10:50:17.400000,137428102,0,1.36,3.18,5.73,0.78,0,1,137371,200,-36.19
9090,2023-01-20 10:50:17.600000,137628080,0,1.36,3.18,5.73,0.87,0,1,137571,200,-36.19
9156,2023-01-20 10:50:17.800000,137828082,0,1.36,3.17,5.72,0.79,0,1,137771,200,-36.189
9220,2023-01-20 10:50:18.000000,138047639,0,1.36,3.17,5.72,0.75,0,1,137971,200,-36.189
9286,2023-01-20 10:50:18.200000,138228146,0,1.36,3.17,5.71,0.76,0,1,138171,200,-36.189
9349,2023-01-20 10:50:18.400000,138428065,0,1.36,3.16,5.7,0.66,0,1,138371,200,-36.19
9415,2023-01-20 10:50:18.600000,138647597,0,1.36,3.16,5.69,0.66,0,1,138571,200,-36.189
9480,2023-01-20 10:50:18.800000,138847665,0,1.36,3.16,5.69,0.75,0,1,138771,200,-36.189
9546,2023-01-20 10:50:19.000000,139047737,0,1.36,3.15,5.68,0.81,0,1,138971,200,-36.19
9611,2023-01-20 10:50:19.200000,139247666,0,1.36,3.15,5.68,0.78,0,1,139171,200,-36.19
9674,2023-01-20 10:50:19.400000,139447717,0,1.36,3.14,5.67,0.85,0,1,139371,200,-36.19
9740,2023-01-20 10:50:19.600000,139647823,0,1.36,3.14,5.66,0.81,0,1,139571,200,-36.19
9805,2023-01-20 10:50:19.800000,139847828,0,1.36,3.13,5.66,0.82,0,1,139771,200,-36.19
9869,2023-01-20 10:50:20.000000,140047862,0,1.36,3.13,5.65,0.87,0,1,139971,200,-36.19
9934,2023-01-20 10:50:20.200000,140247842,0,1.36,3.12,5.64,0.83,0,1,140171,200,-36.19
10000,2023-01-20 10:50:20.400000,140447714,0,1.36,3.12,5.63,0.84,0,1,140371,200,-36.19
10066,2023-01-20 10:50:20.600000,140647723,0,1.36,3.11,5.62,0.86,0,1,140571,200,-36.19
10130,2023-01-20 10:50:20.800000,140847647,0,1.36,3.1,5.61,0.65,0,1,140771,200,-36.19
10194,2023-01-20 10:50:21.000000,141047885,0,1.36,3.09,5.6,0.69,0,1,140971,200,-36.19
10259,2023-01-20 10:50:21.200000,141247774,0,1.36,3.08,5.6,0.62,0,1,141171,200,-36.19
10322,2023-01-20 10:50:21.400000,141447823,0,1.36,3.08,5.59,0.61,0,1,141371,200,-36.19
10387,2023-01-20 10:50:21.600000,141647751,0,1.36,3.07,5.58,0.58,0,1,141571,200,-36.19
10453,2023-01-20 10:50:21.800000,141847874,0,1.36,3.06,5.57,0.59,0,1,141771,200,-36.19
10517,2023-01-20 10:50:22.000000,142047901,0,1.36,3.06,5.56,0.63,0,1,141971,200,-36.189
10582,2023-01-20 10:50:22.200000,142247800,0,1.36,3.05,5.56,0.6,0,1,142171,200,-36.19
10645,2023-01-20 10:50:22.400000,142447870,0,1.36,3.04,5.56,0.58,0,1,142371,200,-36.189
10710,2023-01-20 10:50:22.600000,142647777,0,1.36,3.04,5.56,0.57,0,1,142571,200,-36.19
10776,2023-01-20 10:50:22.800000,142847811,0,1.36,3.04,5.57,0.58,0,1,142771,200,-36.19
10840,2023-01-20 10:50:23.000000,143047874,0,1.36,3.04,5.57,0.57,0,1,142971,200,-36.19
10907,2023-01-20 10:50:23.200000,143247772,0,1.36,3.04,5.57,0.6,0,1,143171,200,-36.19
10970,2023-01-20 10:50:23.400000,143447830,0,1.36,3.04,5.57,0.65,0,1,143371,200,-36.19
11035,2023-01-20 10:50:23.600000,143647801,0,1.36,3.04,5.58,0.6,0,1,143571,200,-36.19
11101,2023-01-20 10:50:23.800000,143847829,0,1.36,3.04,5.58,0.58,0,1,143771,200,-36.189
11168,2023-01-20 10:50:24.000000,144047862,0,1.36,3.04,5.59,0.56,0,1,143971,200,-36.189
11233,2023-01-20 10:50:24.200000,144247739,0,1.36,3.04,5.6,0.59,0,1,144171,200,-36.19
11296,2023-01-20 10:50:24.400000,144447864,0,1.36,3.04,5.61,0.61,0,1,144371,200,-36.189
11363,2023-01-20 10:50:24.600000,144647732,0,1.36,3.05,5.62,0.65,0,1,144571,200,-36.189
11430,2023-01-20 10:50:24.800000,144847895,0,1.36,3.05,5.63,0.62,0,1,144771,200,-36.19
11494,2023-01-20 10:50:25.000000,145047894,0,1.36,3.05,5.63,0.64,0,1,144971,200,-36.19
11560,2023-01-20 10:50:25.200000,145247836,0,1.36,3.05,5.64,0.63,0,1,145171,200,-36.19
11623,2023-01-20 10:50:25.400000,145447848,0,1.36,3.06,5.65,0.63,0,1,145371,200,-36.19
11688,2023-01-20 10:50:25.600000,145647821,0,1.36,3.07,5.66,0.76,0,1,145571,200,-36.19
11754,2023-01-20 10:50:25.800000,145847846,0,1.36,3.08,5.67,0.74,0,1,145771,200,-36.19
11819,2023-01-20 10:50:26.000000,146047894,0,1.36,3.09,5.68,0.72,0,1,145971,200,-36.19
11884,2023-01-20 10:50:26.200000,146247819,0,1.36,3.1,5.69,0.78,0,1,146171,200,-36.19
11947,2023-01-20 10:50:26.400000,146447891,0,1.36,3.11,5.7,0.78,0,1,146371,200,-36.19
12012,2023-01-20 10:50:26.600000,146647831,0,1.36,3.12,5.71,0.71,0,1,146571,200,-36.189
12078,2023-01-20 10:50:26.800000,146847841,0,1.36,3.13,5.71,0.68,0,1,146771,200,-36.19
12142,2023-01-20 10:50:27.000000,147047890,0,1.36,3.14,5.72,0.98,0,1,146971,200,-36.189
12207,2023-01-20 10:50:27.200000,147247871,0,1.36,3.15,5.73,1,0,1,147171,200,-36.19
12270,2023-01-20 10:50:27.400000,147447842,0,1.36,3.16,5.74,0.93,0,1,147371,200,-36.19
12342,2023-01-20 10:50:27.600000,147667551,0,1.36,3.17,5.76,0.93,0,1,147571,200,-36.19
12407,2023-01-20 10:50:27.800000,147867566,0,1.36,3.18,5.77,0.93,0,1,147771,200,-36.189
12472,2023-01-20 10:50:28.000000,148067694,0,1.36,3.19,5.78,0.95,0,1,147971,200,-36.19
12537,2023-01-20 10:50:28.200000,148267644,0,1.36,3.2,5.8,0.97,0,1,148171,200,-36.19
12601,2023-01-20 10:50:28.400000,148467594,0,1.36,3.21,5.82,0.97,0,1,148371,200,-36.189
12660,2023-01-20 10:50:28.600000,148647834,0,1.36,3.22,5.84,0.99,0,1,148571,200,-36.189
12732,2023-01-20 10:50:28.800000,148867614,0,1.36,3.23,5.85,1.02,0,1,148771,200,-36.189
12798,2023-01-20 10:50:29.000000,149067842,0,1.36,3.24,5.87,1.02,0,1,148971,200,-36.189
12864,2023-01-20 10:50:29.200000,149267734,0,1.52,3.26,5.9,1.12,0,1,149171,200,-36.19
12927,2023-01-20 10:50:29.400000,149467864,0,1.52,3.27,5.92,1.08,0,1,149371,200,-36.189
12992,2023-01-20 10:50:29.600000,149667825,0,1.52,3.29,5.94,1.03,0,1,149571,200,-36.19
13058,2023-01-20 10:50:29.800000,149867843,0,1.52,3.3,5.96,1.04,0,1,149771,200,-36.19
13122,2023-01-20 10:50:30.000000,150067888,0,1.52,3.31,5.99,1.06,0,1,149971,200,-36.19
13187,2023-01-20 10:50:30.200000,150267820,0,1.52,3.32,6.01,1.08,0,1,150171,200,-36.19
13250,2023-01-20 10:50:30.400000,150467818,0,1.36,3.34,6.03,1.06,0,1,150371,200,-36.19
13316,2023-01-20 10:50:30.600000,150667829,0,1.36,3.35,6.05,1.04,0,1,150571,200,-36.19
13382,2023-01-20 10:50:30.800000,150867833,0,1.36,3.36,6.06,1.06,0,1,150771,200,-36.19
13446,2023-01-20 10:50:31.000000,151067900,0,1.36,3.37,6.08,1.07,0,1,151019,248,-36.19
13511,2023-01-20 10:50:31.200000,151267724,0,1.36,3.38,6.09,1.11,0,1,151219,200,-36.19
13574,2023-01-20 10:50:31.400000,151467824,0,1.36,3.39,6.11,1.15,0,1,151419,200,-36.19
13639,2023-01-20 10:50:31.600000,151667863,0,1.36,3.4,6.13,1.11,0,1,151619,200,-36.19
13705,2023-01-20 10:50:31.800000,151867837,0,1.36,3.41,6.14,1.11,0,1,151819,200,-36.19
13770,2023-01-20 10:50:32.000000,152067883,0,1.36,3.42,6.16,1.13,0,1,152019,200,-36.19
13835,2023-01-20 10:50:32.200000,152267829,0,1.36,3.43,6.17,1.11,0,1,152219,200,-36.19
13898,2023-01-20 10:50:32.400000,152467816,0,1.36,3.44,6.19,1.16,0,1,152419,200,-36.189
13963,2023-01-20 10:50:32.600000,152667866,0,1.36,3.45,6.2,1.1,0,1,152619,200,-36.189
14029,2023-01-20 10:50:32.800000,152867839,0,1.36,3.45,6.21,1.13,0,1,152819,200,-36.19
14093,2023-01-20 10:50:33.000000,153067881,0,1.36,3.46,6.22,1.13,0,1,153019,200,-36.189
14158,2023-01-20 10:50:33.200000,153267825,0,1.36,3.47,6.23,1.11,0,1,153219,200,-36.19
14222,2023-01-20 10:50:33.400000,153467817,0,1.36,3.48,6.24,1.09,0,1,153419,200,-36.19
14289,2023-01-20 10:50:33.600000,153667826,0,1.36,3.48,6.24,1.09,0,1,153619,200,-36.19
14355,2023-01-20 10:50:33.800000,153867839,0,1.36,3.49,6.25,1.12,0,1,153819,200,-36.189
14421,2023-01-20 10:50:34.000000,154067892,0,1.36,3.49,6.25,1.08,0,1,154019,200,-36.189
14486,2023-01-20 10:50:34.200000,154267864,0,1.36,3.49,6.25,1.1,0,1,154219,200,-36.19
14549,2023-01-20 10:50:34.400000,154467816,0,1.36,3.5,6.26,1.11,0,1,154419,200,-36.19
14614,2023-01-20 10:50:34.600000,154667743,0,1.36,3.5,6.27,1.04,0,1,154619,200,-36.19
14681,2023-01-20 10:50:34.800000,154867841,0,1.36,3.51,6.28,0.87,0,1,154819,200,-36.19
14747,2023-01-20 10:50:35.000000,155067907,0,1.36,3.51,6.28,0.83,0,1,155019,200,-36.19
14812,2023-01-20 10:50:35.200000,155267736,0,1.36,3.52,6.29,0.84,0,1,155219,200,-36.19
14875,2023-01-20 10:50:35.400000,155467741,0,1.36,3.52,6.3,0.93,0,1,155419,200,-36.189
14940,2023-01-20 10:50:35.600000,155667739,0,1.36,3.52,6.3,1,0,1,155619,200,-36.19
15006,2023-01-20 10:50:35.800000,155867780,0,1.36,3.53,6.31,0.98,0,1,155819,200,-36.19
15070,2023-01-20 10:50:36.000000,156067862,0,1.36,3.53,6.32,0.99,0,1,156019,200,-36.189
15135,2023-01-20 10:50:36.200000,156267746,0,1.36,3.54,6.32,0.69,0,1,156219,200,-36.189
15198,2023-01-20 10:50:36.400000,156467843,0,1.36,3.54,6.33,0.7,0,1,156419,200,-36.19
15263,2023-01-20 10:50:36.600000,156667730,0,1.36,3.54,6.34,0.77,0,1,156619,200,-36.189
15329,2023-01-20 10:50:36.800000,156867722,0,1.36,3.54,6.34,0.8,0,1,156819,200,-36.189
15393,2023-01-20 10:50:37.000000,157067908,0,1.36,3.54,6.34,0.73,0,1,157019,200,-36.19
15458,2023-01-20 10:50:37.200000,157267748,0,1.36,3.55,6.35,0.72,0,1,157219,200,-36.19
15521,2023-01-20 10:50:37.400000,157467743,0,1.36,3.55,6.35,0.72,0,1,157419,200,-36.19
15586,2023-01-20 10:50:37.600000,157667712,0,1.36,3.55,6.36,0.78,0,1,157619,200,-36.19
15652,2023-01-20 10:50:37.800000,157867742,0,1.36,3.56,6.38,0.7,0,1,157819,200,-36.189
15717,2023-01-20 10:50:38.000000,158067828,0,1.36,3.57,6.39,0.69,0,1,158019,200,-36.19
15804,2023-01-20 10:50:38.200000,158287589,0,1.36,3.57,6.39,0.68,0,1,158219,200,-36.189
15868,2023-01-20 10:50:38.400000,158487585,0,1.36,3.58,6.4,0.69,0,1,158419,200,-36.189
15936,2023-01-20 10:50:38.600000,158687648,0,1.36,3.59,6.4,0.7,0,1,158619,200,-36.19
16000,2023-01-20 10:50:38.800000,158887658,0,1.36,3.59,6.4,0.72,0,1,158819,200,-36.19
16044,2023-01-20 10:50:39.000000,159067867,0,1.36,3.6,6.4,0.71,0,1,159019,200,-36.19
16132,2023-01-20 10:50:39.200000,159287643,0,1.36,3.6,6.4,0.7,0,1,159219,200,-36.189
16195,2023-01-20 10:50:39.400000,159487714,0,1.36,3.6,6.4,0.72,0,1,159419,200,-36.189
16262,2023-01-20 10:50:39.600000,159687746,0,1.36,3.61,6.39,0.69,0,1,159619,200,-36.19
16326,2023-01-20 10:50:39.800000,159887862,0,1.36,3.61,6.39,0.73,0,1,159819,200,-36.19
16391,2023-01-20 10:50:40.000000,160087852,0,1.36,3.61,6.39,0.71,0,1,160019,200,-36.19
16457,2023-01-20 10:50:40.200000,160287742,0,1.36,3.62,6.39,0.71,0,1,160219,200,-36.189
16520,2023-01-20 10:50:40.400000,160487845,0,1.36,3.62,6.39,0.71,0,1,160419,200,-36.19
16588,2023-01-20 10:50:40.600000,160687819,0,1.36,3.62,6.39,0.69,0,1,160619,200,-36.19
16652,2023-01-20 10:50:40.800000,160887783,0,1.36,3.63,6.4,0.68,0,1,160819,200,-36.19
16717,2023-01-20 10:50:41.000000,161087869,0,1.36,3.63,6.4,0.69,0,1,161019,200,-36.19
16783,2023-01-20 10:50:41.200000,161287752,0,1.36,3.64,6.41,0.71,0,1,161219,200,-36.189
16846,2023-01-20 10:50:41.400000,161487739,0,1.36,3.64,6.42,0.74,0,1,161419,200,-36.19
16914,2023-01-20 10:50:41.600000,161687823,0,1.36,3.65,6.42,0.71,0,1,161619,200,-36.19
16978,2023-01-20 10:50:41.800000,161887744,0,1.36,3.65,6.43,0.71,0,1,161819,200,-36.189
17043,2023-01-20 10:50:42.000000,162087848,0,1.36,3.65,6.43,0.72,0,1,162019,200,-36.19
17109,2023-01-20 10:50:42.200000,162287750,0,1.36,3.66,6.44,0.72,0,1,162219,200,-36.189
17172,2023-01-20 10:50:42.400000,162487847,0,1.36,3.66,6.44,0.72,0,1,162419,200,-36.189
17240,2023-01-20 10:50:42.600000,162687818,0,1.36,3.66,6.45,0.7,0,1,162619,200,-36.19
17304,2023-01-20 10:50:42.800000,162887823,0,1.36,3.67,6.45,0.73,0,1,162819,200,-36.19
17369,2023-01-20 10:50:43.000000,163087898,0,1.36,3.67,6.46,0.72,0,1,163019,200,-36.19
17435,2023-01-20 10:50:43.200000,163287742,0,1.36,3.67,6.46,0.71,0,1,163219,200,-36.19
17498,2023-01-20 10:50:43.400000,163487741,0,1.36,3.67,6.47,0.7,0,1,163419,200,-36.189
17567,2023-01-20 10:50:43.600000,163687829,0,1.36,3.67,6.47,0.69,0,1,163619,200,-36.189
17631,2023-01-20 10:50:43.800000,163887822,0,1.36,3.68,6.48,0.63,0,1,163819,200,-36.19
17698,2023-01-20 10:50:44.000000,164087857,0,1.36,3.68,6.48,0.65,0,1,164019,200,-36.189
17764,2023-01-20 10:50:44.200000,164287747,0,1.36,3.68,6.48,0.62,0,1,164219,200,-36.189
17827,2023-01-20 10:50:44.400000,164487748,0,1.36,3.68,6.47,0.65,0,1,164419,200,-36.19
17896,2023-01-20 10:50:44.600000,164687749,0,1.36,3.68,6.47,0.64,0,1,164619,200,-36.19
17960,2023-01-20 10:50:44.800000,164887782,0,1.36,3.68,6.46,0.68,0,1,164819,200,-36.189
18025,2023-01-20 10:50:45.000000,165087896,0,1.36,3.68,6.44,0.66,0,1,165019,200,-36.189
18091,2023-01-20 10:50:45.200000,165287720,0,1.36,3.67,6.43,0.62,0,1,165219,200,-36.189
18154,2023-01-20 10:50:45.400000,165487750,0,1.36,3.67,6.41,0.62,0,1,165419,200,-36.189
18222,2023-01-20 10:50:45.600000,165687841,0,1.36,3.67,6.4,0.66,0,1,165619,200,-36.19
18286,2023-01-20 10:50:45.800000,165887747,0,1.36,3.67,6.39,0.65,0,1,165819,200,-36.189
18351,2023-01-20 10:50:46.000000,166087840,0,1.36,3.67,6.38,0.64,0,1,166019,200,-36.19
18417,2023-01-20 10:50:46.200000,166287816,0,1.36,3.66,6.35,0.6,0,1,166219,200,-36.189
18480,2023-01-20 10:50:46.400000,166487714,0,1.36,3.66,6.33,0.64,0,1,166419,200,-36.19
18548,2023-01-20 10:50:46.600000,166687747,0,1.36,3.65,6.31,0.67,0,1,166619,200,-36.189
18612,2023-01-20 10:50:46.800000,166887821,0,1.36,3.65,6.28,0.65,0,1,166819,200,-36.189
18678,2023-01-20 10:50:47.000000,167107678,0,1.36,3.65,6.26,0.7,0,1,167019,200,-36.19
18744,2023-01-20 10:50:47.200000,167307604,0,1.36,3.65,6.26,0.77,0,1,167219,200,-36.189
18807,2023-01-20 10:50:47.400000,167507598,0,1.36,3.65,6.27,0.76,0,1,167419,200,-36.19
18875,2023-01-20 10:50:47.600000,167707603,0,1.36,3.65,6.27,0.74,0,1,167619,200,-36.189
18940,2023-01-20 10:50:47.800000,167907560,0,1.36,3.66,6.28,0.75,0,1,167819,200,-36.19
19004,2023-01-20 10:50:48.000000,168107640,0,1.36,3.66,6.28,0.69,0,1,168019,200,-36.19
19070,2023-01-20 10:50:48.200000,168307640,0,1.36,3.66,6.28,0.68,0,1,168219,200,-36.19
19133,2023-01-20 10:50:48.400000,168507706,0,1.36,3.67,6.28,0.65,0,1,168419,200,-36.189
19202,2023-01-20 10:50:48.600000,168707732,0,1.36,3.67,6.28,0.66,0,1,168619,200,-36.189
19266,2023-01-20 10:50:48.800000,168907800,0,1.36,3.67,6.28,0.61,0,1,168819,200,-36.189
19332,2023-01-20 10:50:49.000000,169107896,0,1.36,3.67,6.27,0.66,0,1,169019,200,-36.189
19398,2023-01-20 10:50:49.200000,169307799,0,1.36,3.66,6.26,0.69,0,1,169219,200,-36.189
19461,2023-01-20 10:50:49.400000,169507679,0,1.36,3.65,6.25,0.69,0,1,169419,200,-36.189
19529,2023-01-20 10:50:49.600000,169707843,0,1.36,3.65,6.24,0.65,0,1,169619,200,-36.189
19594,2023-01-20 10:50:49.800000,169907742,0,1.36,3.65,6.24,0.61,0,1,169819,200,-36.189
19658,2023-01-20 10:50:50.000000,170107845,0,1.36,3.64,6.24,0.67,0,1,170019,200,-36.189
19766,2023-01-20 10:50:50.200000,170307862,0,1.36,3.64,6.23,0.65,0,1,170219,200,-36.189
19829,2023-01-20 10:50:50.400000,170507776,0,1.36,3.64,6.22,0.66,0,1,170419,200,-36.189
19897,2023-01-20 10:50:50.600000,170707741,0,1.36,3.64,6.22,0.69,0,1,170619,200,-36.189
19962,2023-01-20 10:50:50.800000,170907745,0,1.36,3.64,6.22,0.7,0,1,170819,200,-36.189
20026,2023-01-20 10:50:51.000000,171107890,0,1.36,3.64,6.21,0.7,0,1,171060,241,-36.19
20092,2023-01-20 10:50:51.200000,171307744,0,1.36,3.64,6.21,0.69,0,1,171260,200,-36.19
20155,2023-01-20 10:50:51.400000,171507751,0,1.36,3.63,6.2,0.65,0,1,171460,200,-36.189
20223,2023-01-20 10:50:51.600000,171707845,0,1.36,3.63,6.19,0.7,0,1,171660,200,-36.19
20288,2023-01-20 10:50:51.800000,171907728,0,1.36,3.63,6.19,0.71,0,1,171860,200,-36.189
20352,2023-01-20 10:50:52.000000,172107859,0,1.36,3.63,6.18,0.67,0,1,172060,200,-36.189
20418,2023-01-20 10:50:52.200000,172307864,0,1.36,3.63,6.18,0.67,0,1,172260,200,-36.189
20481,2023-01-20 10:50:52.400000,172507777,0,1.36,3.62,6.18,0.67,0,1,172460,200,-36.189
20549,2023-01-20 10:50:52.600000,172707743,0,1.36,3.62,6.18,0.65,0,1,172660,200,-36.189
20614,2023-01-20 10:50:52.800000,172907852,0,1.36,3.62,6.18,0.61,0,1,172860,200,-36.189
20678,2023-01-20 10:50:53.000000,173107856,0,1.36,3.61,6.18,0.61,0,1,173060,200,-36.189
20744,2023-01-20 10:50:53.200000,173307777,0,1.36,3.61,6.18,0.68,0,1,173260,200,-36.189
20807,2023-01-20 10:50:53.400000,173507750,0,1.36,3.61,6.17,0.66,0,1,173460,200,-36.189
20875,2023-01-20 10:50:53.600000,173707847,0,1.36,3.61,6.17,0.7,0,1,173660,200,-36.189
20941,2023-01-20 10:50:53.800000,173907720,0,1.36,3.61,6.17,0.74,0,1,173860,200,-36.189
21007,2023-01-20 10:50:54.000000,174107855,0,1.36,3.61,6.17,0.75,0,1,174060,200,-36.189
21073,2023-01-20 10:50:54.200000,174327894,0,1.36,3.6,6.17,0.75,0,1,174260,200,-36.189
21136,2023-01-20 10:50:54.400000,174507744,0,1.36,3.6,6.18,0.72,0,1,174460,200,-36.189
21205,2023-01-20 10:50:54.600000,174707779,0,1.36,3.6,6.18,0.73,0,1,174660,200,-36.189
21270,2023-01-20 10:50:54.800000,174907848,0,1.36,3.6,6.19,0.66,0,1,174860,200,-36.189
21334,2023-01-20 10:50:55.000000,175107865,0,1.36,3.6,6.19,0.68,0,1,175060,200,-36.189
21400,2023-01-20 10:50:55.200000,175307776,0,1.36,3.6,6.19,0.66,0,1,175260,200,-36.189
21463,2023-01-20 10:50:55.400000,175507876,0,1.36,3.6,6.19,0.61,0,1,175460,200,-36.189
21531,2023-01-20 10:50:55.600000,175707751,0,1.36,3.6,6.2,0.65,0,1,175660,200,-36.189
21596,2023-01-20 10:50:55.800000,175907741,0,1.36,3.61,6.2,0.66,0,1,175860,200,-36.189
21660,2023-01-20 10:50:56.000000,176107852,0,1.36,3.61,6.2,0.62,0,1,176060,200,-36.189
21726,2023-01-20 10:50:56.200000,176307875,0,1.36,3.6,6.2,0.66,0,1,176260,200,-36.189
21789,2023-01-20 10:50:56.400000,176527884,0,1.36,3.6,6.2,0.63,0,1,176460,200,-36.189
21857,2023-01-20 10:50:56.600000,176727921,0,1.36,3.6,6.19,0.65,0,1,176660,200,-36.189
21922,2023-01-20 10:50:56.800000,176927919,0,1.36,3.6,6.19,0.65,0,1,176860,200,-36.189
21986,2023-01-20 10:50:57.000000,177128012,0,1.36,3.59,6.19,0.65,0,1,177060,200,-36.189
22052,2023-01-20 10:50:57.200000,177307778,0,1.36,3.59,6.18,0.63,0,1,177260,200,-36.189
22115,2023-01-20 10:50:57.400000,177527925,0,1.36,3.59,6.18,0.67,0,1,177460,200,-36.188
22183,2023-01-20 10:50:57.600000,177727987,0,1.36,3.59,6.18,0.66,0,1,177660,200,-36.189
22248,2023-01-20 10:50:57.800000,177927951,0,1.36,3.58,6.18,0.66,0,1,177860,200,-36.189
22312,2023-01-20 10:50:58.000000,178128087,0,1.36,3.58,6.17,0.67,0,1,178060,200,-36.189
22378,2023-01-20 10:50:58.200000,178328064,0,1.36,3.58,6.18,0.79,0,1,178260,200,-36.189
22441,2023-01-20 10:50:58.400000,178528081,0,1.36,3.58,6.18,0.67,0,1,178460,200,-36.189
22509,2023-01-20 10:50:58.600000,178728019,0,1.36,3.58,6.18,0.65,0,1,178660,200,-36.188
22575,2023-01-20 10:50:58.800000,178928033,0,1.36,3.58,6.18,0.67,0,1,178860,200,-36.189
22641,2023-01-20 10:50:59.000000,179128133,0,1.36,3.57,6.18,0.66,0,1,179060,200,-36.189
22707,2023-01-20 10:50:59.200000,179328065,0,1.36,3.57,6.18,0.63,0,1,179260,200,-36.188
22770,2023-01-20 10:50:59.400000,179528071,0,1.36,3.56,6.17,0.61,0,1,179460,200,-36.189
22838,2023-01-20 10:50:59.600000,179728117,0,1.36,3.56,6.17,0.66,0,1,179660,200,-36.189
22903,2023-01-20 10:50:59.800000,179928008,0,1.36,3.55,6.16,0.62,0,1,179860,200,-36.189
22967,2023-01-20 10:51:00.000000,180128110,0,1.36,3.54,6.16,0.62,0,1,180060,200,-36.189
23033,2023-01-20 10:51:00.200000,180328127,0,1.36,3.54,6.15,0.59,0,1,180260,200,-36.188
23096,2023-01-20 10:51:00.400000,180528064,0,1.36,3.53,6.15,0.63,0,1,180460,200,-36.189
23164,2023-01-20 10:51:00.600000,180728099,0,1.36,3.53,6.15,0.57,0,1,180660,200,-36.189
23229,2023-01-20 10:51:00.800000,180928087,0,1.36,3.52,6.14,0.58,0,1,180860,200,-36.189
23293,2023-01-20 10:51:01.000000,181128109,0,1.36,3.52,6.14,0.58,0,1,181060,200,-36.189
23359,2023-01-20 10:51:01.200000,181328064,0,1.36,3.51,6.13,0.59,0,1,181260,200,-36.189
23422,2023-01-20 10:51:01.400000,181528078,0,1.36,3.5,6.13,0.61,0,1,181460,200,-36.188
23490,2023-01-20 10:51:01.600000,181728070,0,1.36,3.5,6.12,0.61,0,1,181660,200,-36.189
23555,2023-01-20 10:51:01.800000,181928075,0,1.36,3.49,6.11,0.6,0,1,181860,200,-36.188
23619,2023-01-20 10:51:02.000000,182128136,0,1.36,3.48,6.1,0.6,0,1,182060,200,-36.189
23685,2023-01-20 10:51:02.200000,182328108,0,1.36,3.48,6.09,0.6,0,1,182260,200,-36.188
23748,2023-01-20 10:51:02.400000,182528061,0,1.36,3.47,6.08,0.61,0,1,182460,200,-36.188
23816,2023-01-20 10:51:02.600000,182728101,0,1.36,3.47,6.07,0.61,0,1,182660,200,-36.188
23881,2023-01-20 10:51:02.800000,182928123,0,1.36,3.46,6.07,0.63,0,1,182860,200,-36.188
23945,2023-01-20 10:51:03.000000,183128103,0,1.36,3.46,6.06,0.6,0,1,183060,200,-36.189
24011,2023-01-20 10:51:03.200000,183328077,0,1.36,3.45,6.05,0.62,0,1,183260,200,-36.189
24074,2023-01-20 10:51:03.400000,183528094,0,1.36,3.45,6.05,0.65,0,1,183460,200,-36.189
24142,2023-01-20 10:51:03.600000,183728070,0,1.36,3.45,6.05,0.66,0,1,183660,200,-36.188
24206,2023-01-20 10:51:03.800000,183928062,0,1.36,3.45,6.04,0.69,0,1,183860,200,-36.189
24273,2023-01-20 10:51:04.000000,184128130,0,1.36,3.45,6.04,0.64,0,1,184060,200,-36.188
24339,2023-01-20 10:51:04.200000,184328062,0,1.36,3.45,6.04,0.65,0,1,184260,200,-36.189
24402,2023-01-20 10:51:04.400000,184528066,0,1.36,3.45,6.03,0.63,0,1,184460,200,-36.188
24473,2023-01-20 10:51:04.600000,184728112,0,1.36,3.45,6.03,0.6,0,1,184660,200,-36.188
24538,2023-01-20 10:51:04.800000,184928109,0,1.36,3.45,6.02,0.63,0,1,184860,200,-36.188
24602,2023-01-20 10:51:05.000000,185128103,0,1.36,3.44,6.02,0.6,0,1,185060,200,-36.188
24668,2023-01-20 10:51:05.200000,185328072,0,1.36,3.44,6.02,0.61,0,1,185260,200,-36.189
24731,2023-01-20 10:51:05.400000,185528106,0,1.36,3.44,6.01,0.7,0,1,185460,200,-36.188
24799,2023-01-20 10:51:05.600000,185728088,0,1.36,3.43,6.01,0.69,0,1,185660,200,-36.189
24864,2023-01-20 10:51:05.800000,185928066,0,1.36,3.43,6.01,0.68,0,1,185860,200,-36.188
24928,2023-01-20 10:51:06.000000,186128095,0,1.36,3.43,6,0.65,0,1,186060,200,-36.189
24994,2023-01-20 10:51:06.200000,186328075,0,1.36,3.43,6,0.62,0,1,186260,200,-36.188
25057,2023-01-20 10:51:06.400000,186528105,0,1.36,3.42,6,0.62,0,1,186460,200,-36.188
25126,2023-01-20 10:51:06.600000,186747651,0,1.36,3.42,5.99,0.58,0,1,186660,200,-36.188
25240,2023-01-20 10:51:06.800000,186947837,0,1.36,3.42,5.99,0.6,0,1,186860,200,-36.188
25304,2023-01-20 10:51:07.000000,187147679,0,1.36,3.41,5.99,0.61,0,1,187060,200,-36.189
25370,2023-01-20 10:51:07.200000,187347576,0,1.36,3.41,5.98,0.61,0,1,187260,200,-36.188
25433,2023-01-20 10:51:07.400000,187547600,0,1.36,3.41,5.98,0.6,0,1,187460,200,-36.188
25500,2023-01-20 10:51:07.600000,187728072,0,1.36,3.4,5.98,0.61,0,1,187660,200,-36.189
25566,2023-01-20 10:51:07.800000,187947624,0,1.36,3.4,5.97,0.6,0,1,187860,200,-36.189
25630,2023-01-20 10:51:08.000000,188147710,0,1.36,3.4,5.96,0.6,0,1,188060,200,-36.189
25696,2023-01-20 10:51:08.200000,188347737,0,1.36,3.39,5.96,0.6,0,1,188260,200,-36.188
25759,2023-01-20 10:51:08.400000,188547733,0,1.36,3.39,5.95,0.61,0,1,188460,200,-36.188
25827,2023-01-20 10:51:08.600000,188747853,0,1.36,3.39,5.95,0.63,0,1,188660,200,-36.189
25892,2023-01-20 10:51:08.800000,188947846,0,1.36,3.39,5.95,0.62,0,1,188860,200,-36.188
25959,2023-01-20 10:51:09.000000,189147844,0,1.36,3.39,5.94,0.61,0,1,189060,200,-36.188
26025,2023-01-20 10:51:09.200000,189347777,0,1.36,3.39,5.94,0.61,0,1,189260,200,-36.188
26088,2023-01-20 10:51:09.400000,189547748,0,1.36,3.38,5.94,0.63,0,1,189460,200,-36.189
26156,2023-01-20 10:51:09.600000,189747748,0,1.36,3.38,5.93,0.61,0,1,189660,200,-36.188
26221,2023-01-20 10:51:09.800000,189947737,0,1.36,3.38,5.93,0.61,0,1,189860,200,-36.189
26285,2023-01-20 10:51:10.000000,190147857,0,1.36,3.38,5.93,0.62,0,1,190060,200,-36.188
26351,2023-01-20 10:51:10.200000,190347820,0,1.36,3.38,5.92,0.62,0,1,190260,200,-36.188
26414,2023-01-20 10:51:10.400000,190547749,0,1.36,3.38,5.92,0.61,0,1,190460,200,-36.189
26482,2023-01-20 10:51:10.600000,190747852,0,1.36,3.38,5.92,0.65,0,1,190660,200,-36.188
26547,2023-01-20 10:51:10.800000,190947875,0,1.36,3.38,5.92,0.62,0,1,190860,200,-36.188
26611,2023-01-20 10:51:11.000000,191147847,0,1.36,3.38,5.92,0.62,0,1,191099,239,-36.188
26677,2023-01-20 10:51:11.200000,191347823,0,1.36,3.38,5.91,0.62,0,1,191299,200,-36.188
26740,2023-01-20 10:51:11.400000,191547845,0,1.36,3.38,5.92,0.64,0,1,191499,200,-36.189
26808,2023-01-20 10:51:11.600000,191747744,0,1.36,3.38,5.92,0.66,0,1,191699,200,-36.188
26873,2023-01-20 10:51:11.800000,191947744,0,1.36,3.38,5.92,0.66,0,1,191899,200,-36.188
26937,2023-01-20 10:51:12.000000,192147863,0,1.36,3.39,5.92,0.65,0,1,192099,200,-36.188
27003,2023-01-20 10:51:12.200000,192347823,0,1.36,3.39,5.92,0.65,0,1,192299,200,-36.188
27066,2023-01-20 10:51:12.400000,192547746,0,1.36,3.39,5.93,0.66,0,1,192499,200,-36.188
27134,2023-01-20 10:51:12.600000,192747859,0,1.36,3.39,5.93,0.66,0,1,192699,200,-36.188
27199,2023-01-20 10:51:12.800000,192947730,0,1.36,3.4,5.94,0.66,0,1,192899,200,-36.189
27263,2023-01-20 10:51:13.000000,193147851,0,1.36,3.4,5.94,0.65,0,1,193099,200,-36.188
27329,2023-01-20 10:51:13.200000,193347831,0,1.36,3.4,5.94,0.66,0,1,193299,200,-36.188
27392,2023-01-20 10:51:13.400000,193547844,0,1.36,3.41,5.95,0.67,0,1,193499,200,-36.188
27460,2023-01-20 10:51:13.600000,193747722,0,1.36,3.41,5.95,0.66,0,1,193699,200,-36.188
27525,2023-01-20 10:51:13.800000,193947773,0,1.36,3.41,5.96,0.65,0,1,193899,200,-36.188
27591,2023-01-20 10:51:14.000000,194147896,0,1.36,3.41,5.96,0.66,0,1,194099,200,-36.188
27658,2023-01-20 10:51:14.200000,194347784,0,1.36,3.42,5.97,0.67,0,1,194299,200,-36.189
27721,2023-01-20 10:51:14.400000,194547745,0,1.36,3.42,5.97,0.66,0,1,194499,200,-36.188
27790,2023-01-20 10:51:14.600000,194747864,0,1.36,3.42,5.98,0.66,0,1,194699,200,-36.188
27855,2023-01-20 10:51:14.800000,194947726,0,1.35,3.43,5.99,0.74,0,1,194899,200,-36.188
27919,2023-01-20 10:51:15.000000,195147844,0,1.35,3.43,5.99,0.76,0,1,195099,200,-36.188
27985,2023-01-20 10:51:15.200000,195347825,0,1.35,3.44,6,0.72,0,1,195299,200,-36.189
28048,2023-01-20 10:51:15.400000,195547744,0,1.35,3.44,6.01,0.66,0,1,195499,200,-36.189
28116,2023-01-20 10:51:15.600000,195747744,0,1.35,3.45,6.02,0.62,0,1,195699,200,-36.188
28181,2023-01-20 10:51:15.800000,195947774,0,1.35,3.45,6.02,0.61,0,1,195899,200,-36.188
28245,2023-01-20 10:51:16.000000,196147885,0,1.35,3.45,6.03,0.63,0,1,196099,200,-36.188
28311,2023-01-20 10:51:16.200000,196347751,0,1.35,3.46,6.03,0.61,0,1,196299,200,-36.188
28374,2023-01-20 10:51:16.400000,196547737,0,1.35,3.46,6.04,0.7,0,1,196499,200,-36.188
28447,2023-01-20 10:51:16.600000,196767572,0,1.35,3.46,6.04,0.71,0,1,196699,200,-36.188
28512,2023-01-20 10:51:16.800000,196967659,0,1.35,3.47,6.05,0.65,0,1,196899,200,-36.188
28576,2023-01-20 10:51:17.000000,197167843,0,1.35,3.47,6.05,0.64,0,1,197099,200,-36.188
28642,2023-01-20 10:51:17.200000,197367696,0,1.35,3.47,6.05,0.62,0,1,197299,200,-36.188
28707,2023-01-20 10:51:17.400000,197567650,0,1.35,3.47,6.05,0.63,0,1,197499,200,-36.188
28773,2023-01-20 10:51:17.600000,197767668,0,1.35,3.47,6.06,0.65,0,1,197699,200,-36.188
28838,2023-01-20 10:51:17.800000,197967782,0,1.35,3.47,6.06,0.66,0,1,197899,200,-36.188
28902,2023-01-20 10:51:18.000000,198167661,0,1.35,3.47,6.06,0.65,0,1,198099,200,-36.188
28968,2023-01-20 10:51:18.200000,198367818,0,1.35,3.47,6.06,0.64,0,1,198299,200,-36.188
29033,2023-01-20 10:51:18.400000,198567731,0,1.35,3.47,6.06,0.64,0,1,198499,200,-36.188
29099,2023-01-20 10:51:18.600000,198767745,0,1.35,3.47,6.06,0.64,0,1,198699,200,-36.188
29164,2023-01-20 10:51:18.800000,198967829,0,1.35,3.47,6.06,0.64,0,1,198899,200,-36.188
29230,2023-01-20 10:51:19.000000,199167841,0,1.35,3.47,6.06,0.65,0,1,199099,200,-36.188
29297,2023-01-20 10:51:19.200000,199367777,0,1.35,3.47,6.06,0.63,0,1,199299,200,-36.188
29362,2023-01-20 10:51:19.400000,199567845,0,1.35,3.47,6.07,0.61,0,1,199499,200,-36.188
29428,2023-01-20 10:51:19.600000,199767739,0,1.35,3.48,6.07,0.69,0,1,199699,200,-36.188
29493,2023-01-20 10:51:19.800000,199967747,0,1.35,3.48,6.07,0.83,0,1,199899,200,-36.188
29557,2023-01-20 10:51:20.000000,200167895,0,1.35,3.49,6.08,0.71,0,1,200099,200,-36.188
29623,2023-01-20 10:51:20.200000,200367800,0,1.35,3.49,6.08,0.68,0,1,200299,200,-36.188
29688,2023-01-20 10:51:20.400000,200567779,0,1.35,3.49,6.08,0.66,0,1,200499,200,-36.188
29754,2023-01-20 10:51:20.600000,200767742,0,1.35,3.49,6.09,0.65,0,1,200699,200,-36.188
29819,2023-01-20 10:51:20.800000,200967775,0,1.35,3.49,6.09,0.64,0,1,200899,200,-36.188
29883,2023-01-20 10:51:21.000000,201167847,0,1.35,3.49,6.09,0.69,0,1,201099,200,-36.188
29949,2023-01-20 10:51:21.200000,201367822,0,1.35,3.49,6.1,0.68,0,1,201299,200,-36.188
30014,2023-01-20 10:51:21.400000,201567745,0,1.35,3.5,6.1,0.67,0,1,201499,200,-36.188
30079,2023-01-20 10:51:21.600000,201767735,0,1.35,3.5,6.1,0.63,0,1,201699,200,-36.187
30142,2023-01-20 10:51:21.800000,201967698,0,1.35,3.5,6.1,0.65,0,1,201899,200,-36.188
30200,2023-01-20 10:51:22.000000,202167674,0,1.35,3.5,6.1,0.65,0,1,202099,200,-36.188
30260,2023-01-20 10:51:22.200000,202367690,0,1.35,3.5,6.1,0.63,0,1,202299,200,-36.188
30319,2023-01-20 10:51:22.400000,202567644,0,1.35,3.5,6.1,0.62,0,1,202499,200,-36.188
30379,2023-01-20 10:51:22.600000,202767690,0,1.35,3.5,6.1,0.63,0,1,202699,200,-36.188
30437,2023-01-20 10:51:22.800000,202967648,0,1.35,3.5,6.11,0.59,0,1,202899,200,-36.188
30495,2023-01-20 10:51:23.000000,203167736,0,1.35,3.51,6.12,0.59,0,1,203099,200,-36.188
30555,2023-01-20 10:51:23.200000,203367655,0,1.35,3.51,6.12,0.58,0,1,203299,200,-36.188
30614,2023-01-20 10:51:23.400000,203567620,0,1.35,3.51,6.13,0.58,0,1,203499,200,-36.188
30673,2023-01-20 10:51:23.600000,203767622,0,1.35,3.51,6.13,0.58,0,1,203699,200,-36.188
30732,2023-01-20 10:51:23.800000,203967655,0,1.35,3.51,6.14,0.58,0,1,203899,200,-36.187
30792,2023-01-20 10:51:24.000000,204167695,0,1.35,3.52,6.15,0.58,0,1,204099,200,-36.188
30855,2023-01-20 10:51:24.200000,204367749,0,1.35,3.52,6.16,0.58,0,1,204299,200,-36.187
30922,2023-01-20 10:51:24.400000,204567779,0,1.35,3.53,6.16,0.6,0,1,204499,200,-36.187
31035,2023-01-20 10:51:24.600000,204767780,0,1.35,3.53,6.17,0.63,0,1,204699,200,-36.188
31099,2023-01-20 10:51:24.800000,204967746,0,1.35,3.53,6.18,0.6,0,1,204899,200,-36.187
31163,2023-01-20 10:51:25.000000,205167852,0,1.35,3.53,6.18,0.6,0,1,205099,200,-36.187
31229,2023-01-20 10:51:25.200000,205367861,0,1.35,3.54,6.19,0.62,0,1,205299,200,-36.188
31294,2023-01-20 10:51:25.400000,205567713,0,1.35,3.54,6.2,0.69,0,1,205499,200,-36.187
31359,2023-01-20 10:51:25.600000,205767723,0,1.35,3.54,6.21,0.65,0,1,205699,200,-36.187
31423,2023-01-20 10:51:25.800000,205967854,0,1.35,3.55,6.22,0.62,0,1,205899,200,-36.187
31512,2023-01-20 10:51:26.000000,206187656,0,1.35,3.55,6.22,0.63,0,1,206099,200,-36.187
31575,2023-01-20 10:51:26.200000,206387684,0,1.35,3.56,6.23,0.59,0,1,206299,200,-36.188
31641,2023-01-20 10:51:26.400000,206587623,0,1.49,3.56,6.24,0.68,0,1,206499,200,-36.188
31706,2023-01-20 10:51:26.600000,206787710,0,1.49,3.56,6.25,0.67,0,1,206699,200,-36.187
31770,2023-01-20 10:51:26.800000,206987705,0,1.49,3.56,6.26,0.64,0,1,206899,200,-36.187
31836,2023-01-20 10:51:27.000000,207187855,0,1.35,3.56,6.26,0.7,0,1,207099,200,-36.188
31899,2023-01-20 10:51:27.200000,207387858,0,1.49,3.56,6.27,0.62,0,1,207299,200,-36.187
31965,2023-01-20 10:51:27.400000,207587662,0,1.49,3.56,6.28,0.63,0,1,207499,200,-36.188
32030,2023-01-20 10:51:27.600000,207787681,0,1.49,3.56,6.28,0.68,0,1,207699,200,-36.188
32094,2023-01-20 10:51:27.800000,207987698,0,1.49,3.56,6.28,0.65,0,1,207899,200,-36.188
32160,2023-01-20 10:51:28.000000,208187850,0,1.49,3.56,6.28,0.64,0,1,208099,200,-36.187
32224,2023-01-20 10:51:28.200000,208387820,0,1.35,3.56,6.28,0.61,0,1,208299,200,-36.188
32289,2023-01-20 10:51:28.400000,208587699,0,1.35,3.56,6.27,0.6,0,1,208499,200,-36.188
32354,2023-01-20 10:51:28.600000,208787748,0,1.35,3.56,6.26,0.61,0,1,208699,200,-36.188
32419,2023-01-20 10:51:28.800000,208987819,0,1.35,3.55,6.26,0.68,0,1,208899,200,-36.188
32487,2023-01-20 10:51:29.000000,209187846,0,1.35,3.55,6.25,0.67,0,1,209099,200,-36.187
32552,2023-01-20 10:51:29.200000,209387802,0,1.35,3.55,6.24,0.65,0,1,209299,200,-36.188
32618,2023-01-20 10:51:29.400000,209587751,0,1.51,3.55,6.24,0.65,0,1,209499,200,-36.188
32683,2023-01-20 10:51:29.600000,209787717,0,1.51,3.55,6.23,0.65,0,1,209699,200,-36.188
32748,2023-01-20 10:51:29.800000,209987869,0,1.51,3.55,6.23,0.65,0,1,209899,200,-36.188
32814,2023-01-20 10:51:30.000000,210187857,0,1.51,3.54,6.22,0.65,0,1,210099,200,-36.187
32878,2023-01-20 10:51:30.200000,210387823,0,1.51,3.54,6.22,0.66,0,1,210299,200,-36.187
32944,2023-01-20 10:51:30.400000,210587746,0,1.51,3.54,6.22,0.66,0,1,210499,200,-36.188
33009,2023-01-20 10:51:30.600000,210787777,0,1.51,3.54,6.21,0.67,0,1,210699,200,-36.188
33074,2023-01-20 10:51:30.800000,210987782,0,1.51,3.54,6.21,0.65,0,1,210899,200,-36.188
33140,2023-01-20 10:51:31.000000,211187855,0,1.51,3.54,6.21,0.65,0,1,211139,240,-36.187
33202,2023-01-20 10:51:31.200000,211387646,0,1.51,3.54,6.2,0.63,0,1,211339,200,-36.187
33262,2023-01-20 10:51:31.400000,211587648,0,1.51,3.54,6.21,0.65,0,1,211539,200,-36.188
33321,2023-01-20 10:51:31.600000,211787648,0,1.51,3.54,6.21,0.75,0,1,211739,200,-36.188
33380,2023-01-20 10:51:31.800000,211987664,0,1.51,3.54,6.22,0.77,0,1,211939,200,-36.188
33440,2023-01-20 10:51:32.000000,212187696,0,1.51,3.55,6.22,0.69,0,1,212139,200,-36.187
33497,2023-01-20 10:51:32.200000,212387665,0,1.51,3.55,6.23,0.74,0,1,212339,200,-36.187
33557,2023-01-20 10:51:32.400000,212587634,0,1.51,3.55,6.24,0.69,0,1,212539,200,-36.188
33616,2023-01-20 10:51:32.600000,212787639,0,1.51,3.55,6.24,0.65,0,1,212739,200,-36.187
33674,2023-01-20 10:51:32.800000,212987652,0,1.51,3.56,6.25,0.64,0,1,212939,200,-36.188
33734,2023-01-20 10:51:33.000000,213187688,0,1.51,3.56,6.26,0.56,0,1,213139,200,-36.188
33792,2023-01-20 10:51:33.200000,213387656,0,1.51,3.56,6.26,0.55,0,1,213339,200,-36.187
33851,2023-01-20 10:51:33.400000,213587649,0,1.51,3.56,6.26,0.62,0,1,213539,200,-36.187
33910,2023-01-20 10:51:33.600000,213787690,0,1.51,3.55,6.27,0.64,0,1,213739,200,-36.188
33975,2023-01-20 10:51:33.800000,213987780,0,1.51,3.55,6.27,0.64,0,1,213939,200,-36.188
34043,2023-01-20 10:51:34.000000,214187858,0,1.51,3.55,6.27,0.63,0,1,214139,200,-36.187
34106,2023-01-20 10:51:34.200000,214387851,0,1.51,3.55,6.28,0.64,0,1,214339,200,-36.188
34174,2023-01-20 10:51:34.400000,214587742,0,1.51,3.55,6.29,0.66,0,1,214539,200,-36.187
34239,2023-01-20 10:51:34.600000,214787750,0,1.51,3.55,6.29,0.64,0,1,214739,200,-36.187
34303,2023-01-20 10:51:34.800000,214987854,0,1.51,3.55,6.3,0.6,0,1,214939,200,-36.187
34369,2023-01-20 10:51:35.000000,215187842,0,1.51,3.55,6.31,0.76,0,1,215139,200,-36.188
34432,2023-01-20 10:51:35.200000,215407582,0,1.51,3.55,6.32,0.69,0,1,215339,200,-36.188
34499,2023-01-20 10:51:35.400000,215607561,0,1.51,3.55,6.33,0.63,0,1,215539,200,-36.187
34564,2023-01-20 10:51:35.600000,215807590,0,1.51,3.55,6.34,0.66,0,1,215739,200,-36.188
34629,2023-01-20 10:51:35.800000,216007579,0,1.51,3.55,6.34,0.62,0,1,215939,200,-36.187
34695,2023-01-20 10:51:36.000000,216207631,0,1.51,3.55,6.35,0.69,0,1,216139,200,-36.188
34757,2023-01-20 10:51:36.200000,216387730,0,1.51,3.56,6.36,0.71,0,1,216339,200,-36.187
34823,2023-01-20 10:51:36.400000,216607694,0,1.51,3.55,6.37,0.64,0,1,216539,200,-36.187
34888,2023-01-20 10:51:36.600000,216807711,0,1.51,3.55,6.37,0.62,0,1,216739,200,-36.187
34953,2023-01-20 10:51:36.800000,217007847,0,1.51,3.55,6.36,0.62,0,1,216939,200,-36.187
35017,2023-01-20 10:51:37.000000,217207687,0,1.51,3.55,6.35,0.63,0,1,217139,200,-36.187
35074,2023-01-20 10:51:37.200000,217407680,0,1.51,3.54,6.34,0.68,0,1,217339,200,-36.187
35134,2023-01-20 10:51:37.400000,217607644,0,1.51,3.54,6.34,0.78,0,1,217539,200,-36.188
35195,2023-01-20 10:51:37.600000,217807772,0,1.51,3.54,6.34,0.73,0,1,217739,200,-36.187
35259,2023-01-20 10:51:37.800000,218007846,0,1.51,3.54,6.34,0.74,0,1,217939,200,-36.187
35326,2023-01-20 10:51:38.000000,218207855,0,1.51,3.55,6.34,0.71,0,1,218139,200,-36.187
35390,2023-01-20 10:51:38.200000,218407646,0,1.51,3.55,6.34,0.7,0,1,218339,200,-36.187
35449,2023-01-20 10:51:38.400000,218607649,0,1.51,3.55,6.35,0.71,0,1,218539,200,-36.187
35508,2023-01-20 10:51:38.600000,218807652,0,1.51,3.55,6.35,0.64,0,1,218739,200,-36.187
35566,2023-01-20 10:51:38.800000,219007607,0,1.51,3.56,6.35,0.6,0,1,218939,200,-36.188
35629,2023-01-20 10:51:39.000000,219207694,0,1.51,3.56,6.35,0.62,0,1,219139,200,-36.187
35686,2023-01-20 10:51:39.200000,219407631,0,1.51,3.57,6.36,0.62,0,1,219339,200,-36.187
35746,2023-01-20 10:51:39.400000,219607643,0,1.51,3.57,6.36,0.62,0,1,219539,200,-36.187
35814,2023-01-20 10:51:39.600000,219807750,0,1.51,3.58,6.37,0.63,0,1,219739,200,-36.187
35878,2023-01-20 10:51:39.800000,220007843,0,1.51,3.58,6.37,0.64,0,1,219939,200,-36.187
35944,2023-01-20 10:51:40.000000,220207843,0,1.51,3.59,6.38,0.87,0,1,220139,200,-36.187
36007,2023-01-20 10:51:40.200000,220407825,0,1.51,3.6,6.39,0.78,0,1,220339,200,-36.188
36072,2023-01-20 10:51:40.400000,220607860,0,1.51,3.6,6.4,0.74,0,1,220539,200,-36.188
36137,2023-01-20 10:51:40.600000,220807751,0,1.51,3.61,6.41,0.69,0,1,220739,200,-36.187
36202,2023-01-20 10:51:40.800000,221007772,0,1.51,3.62,6.41,0.76,0,1,220939,200,-36.187
36268,2023-01-20 10:51:41.000000,221207902,0,1.51,3.62,6.42,0.7,0,1,221139,200,-36.187
36331,2023-01-20 10:51:41.200000,221407823,0,1.51,3.62,6.43,0.62,0,1,221339,200,-36.187
36396,2023-01-20 10:51:41.400000,221607816,0,1.51,3.63,6.43,0.64,0,1,221539,200,-36.187
36461,2023-01-20 10:51:41.600000,221807846,0,1.51,3.62,6.43,0.63,0,1,221739,200,-36.187
36525,2023-01-20 10:51:41.800000,222007825,0,1.51,3.62,6.43,0.73,0,1,221939,200,-36.188
36591,2023-01-20 10:51:42.000000,222207828,0,1.51,3.61,6.42,0.7,0,1,222139,200,-36.187
36654,2023-01-20 10:51:42.200000,222407746,0,1.51,3.61,6.42,0.75,0,1,222339,200,-36.188
36720,2023-01-20 10:51:42.400000,222607861,0,1.51,3.6,6.42,0.68,0,1,222539,200,-36.188
36785,2023-01-20 10:51:42.600000,222807743,0,1.51,3.6,6.41,0.71,0,1,222739,200,-36.187
36849,2023-01-20 10:51:42.800000,223007800,0,1.51,3.59,6.41,0.71,0,1,222939,200,-36.187
36915,2023-01-20 10:51:43.000000,223207901,0,1.51,3.58,6.4,0.69,0,1,223139,200,-36.187
36978,2023-01-20 10:51:43.200000,223407832,0,1.51,3.57,6.39,0.66,0,1,223339,200,-36.188
37044,2023-01-20 10:51:43.400000,223607749,0,1.51,3.56,6.38,0.66,0,1,223539,200,-36.187
37109,2023-01-20 10:51:43.600000,223807865,0,1.51,3.55,6.37,0.66,0,1,223739,200,-36.187
37173,2023-01-20 10:51:43.800000,224007749,0,1.51,3.54,6.36,0.66,0,1,223939,200,-36.187
37242,2023-01-20 10:51:44.000000,224207844,0,1.51,3.54,6.35,0.66,0,1,224139,200,-36.187
37305,2023-01-20 10:51:44.200000,224407744,0,1.51,3.53,6.34,0.67,0,1,224339,200,-36.187
37372,2023-01-20 10:51:44.400000,224607843,0,1.51,3.52,6.33,0.65,0,1,224539,200,-36.187
37437,2023-01-20 10:51:44.600000,224807735,0,1.51,3.51,6.32,0.66,0,1,224739,200,-36.187
37497,2023-01-20 10:51:44.800000,225007694,0,1.51,3.5,6.31,0.64,0,1,224939,200,-36.187
37557,2023-01-20 10:51:45.000000,225207660,0,1.51,3.49,6.3,0.66,0,1,225139,200,-36.187
37623,2023-01-20 10:51:45.200000,225407774,0,1.51,3.49,6.29,0.67,0,1,225339,200,-36.187
37690,2023-01-20 10:51:45.400000,225627899,0,1.51,3.48,6.29,0.65,0,1,225539,200,-36.187
37755,2023-01-20 10:51:45.600000,225827873,0,1.51,3.47,6.28,0.71,0,1,225739,200,-36.187
37819,2023-01-20 10:51:45.800000,226027893,0,1.51,3.47,6.28,0.72,0,1,225939,200,-36.187
37886,2023-01-20 10:51:46.000000,226227990,0,1.51,3.47,6.28,0.74,0,1,226139,200,-36.187
37949,2023-01-20 10:51:46.200000,226428002,0,1.51,3.47,6.28,0.71,0,1,226339,200,-36.187
38014,2023-01-20 10:51:46.400000,226627961,0,1.51,3.47,6.27,0.75,0,1,226539,200,-36.187
38078,2023-01-20 10:51:46.600000,226807840,0,1.51,3.47,6.27,0.77,0,1,226739,200,-36.187
38143,2023-01-20 10:51:46.800000,227027993,0,1.51,3.46,6.26,0.8,0,1,226939,200,-36.187
38210,2023-01-20 10:51:47.000000,227228132,0,1.51,3.46,6.26,0.79,0,1,227139,200,-36.188
38273,2023-01-20 10:51:47.200000,227428062,0,1.51,3.46,6.26,0.82,0,1,227339,200,-36.187
38338,2023-01-20 10:51:47.400000,227628089,0,1.51,3.46,6.26,0.78,0,1,227539,200,-36.187
38403,2023-01-20 10:51:47.600000,227828108,0,1.51,3.45,6.25,0.75,0,1,227739,200,-36.187
38467,2023-01-20 10:51:47.800000,228028057,0,1.51,3.45,6.25,0.73,0,1,227939,200,-36.187
38534,2023-01-20 10:51:48.000000,228228114,0,1.51,3.45,6.25,0.74,0,1,228139,200,-36.187
38597,2023-01-20 10:51:48.200000,228428120,0,1.51,3.44,6.24,0.7,0,1,228339,200,-36.187
38662,2023-01-20 10:51:48.400000,228628060,0,1.51,3.44,6.24,0.74,0,1,228539,200,-36.187
38727,2023-01-20 10:51:48.600000,228828099,0,1.51,3.43,6.24,0.7,0,1,228739,200,-36.187
38790,2023-01-20 10:51:48.800000,229028111,0,1.51,3.43,6.24,0.71,0,1,228939,200,-36.187
38859,2023-01-20 10:51:49.000000,229228112,0,1.51,3.42,6.24,0.72,0,1,229139,200,-36.187
38922,2023-01-20 10:51:49.200000,229428066,0,1.51,3.42,6.23,0.7,0,1,229339,200,-36.187
38987,2023-01-20 10:51:49.400000,229628093,0,1.51,3.42,6.23,0.72,0,1,229539,200,-36.187
39053,2023-01-20 10:51:49.600000,229828108,0,1.51,3.41,6.23,0.71,0,1,229739,200,-36.187
39118,2023-01-20 10:51:49.800000,230028078,0,1.51,3.41,6.23,0.71,0,1,229939,200,-36.187
39184,2023-01-20 10:51:50.000000,230228126,0,1.51,3.4,6.23,0.72,0,1,230139,200,-36.187
39247,2023-01-20 10:51:50.200000,230428076,0,1.51,3.4,6.23,0.74,0,1,230339,200,-36.187
39313,2023-01-20 10:51:50.400000,230628054,0,1.51,3.39,6.23,0.72,0,1,230539,200,-36.187
39378,2023-01-20 10:51:50.600000,230828104,0,1.51,3.39,6.23,0.71,0,1,230739,200,-36.187
39442,2023-01-20 10:51:50.800000,231028129,0,1.51,3.38,6.23,0.68,0,1,230939,200,-36.187
39508,2023-01-20 10:51:51.000000,231228113,0,1.51,3.38,6.23,0.7,0,1,231179,240,-36.187
39571,2023-01-20 10:51:51.200000,231428070,0,1.51,3.38,6.22,0.66,0,1,231379,200,-36.187
39637,2023-01-20 10:51:51.400000,231628123,0,1.51,3.38,6.22,0.67,0,1,231579,200,-36.188
39702,2023-01-20 10:51:51.600000,231828096,0,1.51,3.38,6.22,0.77,0,1,231779,200,-36.188
39766,2023-01-20 10:51:51.800000,232028106,0,1.51,3.38,6.22,0.62,0,1,231979,200,-36.187
39837,2023-01-20 10:51:52.000000,232228137,0,1.51,3.38,6.23,0.9,0,1,232179,200,-36.187
39900,2023-01-20 10:51:52.200000,232428069,0,1.51,3.38,6.22,0.93,0,1,232379,200,-36.187
39965,2023-01-20 10:51:52.400000,232628066,0,1.51,3.38,6.21,1.04,0,1,232579,200,-36.187
40030,2023-01-20 10:51:52.600000,232828094,0,1.51,3.38,6.21,0.94,0,1,232779,200,-36.187
40094,2023-01-20 10:51:52.800000,233028102,0,1.51,3.37,6.2,0.87,0,1,232979,200,-36.187
40160,2023-01-20 10:51:53.000000,233228131,0,1.51,3.37,6.18,0.84,0,1,233179,200,-36.187
40223,2023-01-20 10:51:53.200000,233428083,0,1.51,3.36,6.17,0.84,0,1,233379,200,-36.187
40289,2023-01-20 10:51:53.400000,233628117,0,1.51,3.36,6.16,0.79,0,1,233579,200,-36.187
40354,2023-01-20 10:51:53.600000,233828088,0,1.51,3.35,6.16,0.93,0,1,233779,200,-36.187
40418,2023-01-20 10:51:53.800000,234028117,0,1.51,3.35,6.15,0.88,0,1,233979,200,-36.187
40486,2023-01-20 10:51:54.000000,234228233,0,1.51,3.35,6.14,0.85,0,1,234179,200,-36.187
40549,2023-01-20 10:51:54.200000,234447778,0,1.51,3.35,6.14,0.84,0,1,234379,200,-36.187
40616,2023-01-20 10:51:54.400000,234628089,0,1.51,3.35,6.13,0.82,0,1,234579,200,-36.187
40682,2023-01-20 10:51:54.600000,234847629,0,1.51,3.35,6.13,0.8,0,1,234779,200,-36.187
40746,2023-01-20 10:51:54.800000,235047669,0,1.51,3.34,6.12,0.8,0,1,234979,200,-36.187
40812,2023-01-20 10:51:55.000000,235247729,0,1.51,3.34,6.12,0.81,0,1,235179,200,-36.187
40875,2023-01-20 10:51:55.200000,235447599,0,1.51,3.34,6.11,0.79,0,1,235379,200,-36.187
40941,2023-01-20 10:51:55.400000,235647683,0,1.51,3.34,6.11,0.82,0,1,235579,200,-36.187
41006,2023-01-20 10:51:55.600000,235847657,0,1.51,3.34,6.1,0.82,0,1,235779,200,-36.187
41075,2023-01-20 10:51:55.800000,236047651,0,1.51,3.34,6.1,0.81,0,1,235979,200,-36.187
41141,2023-01-20 10:51:56.000000,236247839,0,1.51,3.34,6.09,0.85,0,1,236179,200,-36.187
41204,2023-01-20 10:51:56.200000,236447732,0,1.51,3.34,6.09,0.88,0,1,236379,200,-36.187
41270,2023-01-20 10:51:56.400000,236647821,0,1.51,3.34,6.09,0.88,0,1,236579,200,-36.187
41335,2023-01-20 10:51:56.600000,236847827,0,1.51,3.34,6.09,0.93,0,1,236779,200,-36.187
41399,2023-01-20 10:51:56.800000,237047778,0,1.51,3.34,6.09,0.93,0,1,236979,200,-36.187
41466,2023-01-20 10:51:57.000000,237247746,0,1.51,3.34,6.09,0.86,0,1,237179,200,-36.187
41529,2023-01-20 10:51:57.200000,237447749,0,1.51,3.34,6.08,0.86,0,1,237379,200,-36.187
41594,2023-01-20 10:51:57.400000,237647870,0,1.51,3.34,6.08,0.85,0,1,237579,200,-36.187
41659,2023-01-20 10:51:57.600000,237847822,0,1.51,3.34,6.08,0.85,0,1,237779,200,-36.187
41724,2023-01-20 10:51:57.800000,238047741,0,1.51,3.34,6.07,0.85,0,1,237979,200,-36.187
41790,2023-01-20 10:51:58.000000,238247856,0,1.51,3.34,6.07,0.87,0,1,238179,200,-36.187
41853,2023-01-20 10:51:58.200000,238447775,0,1.51,3.34,6.07,0.86,0,1,238379,200,-36.187
41919,2023-01-20 10:51:58.400000,238647826,0,1.51,3.34,6.06,0.84,0,1,238579,200,-36.187
41984,2023-01-20 10:51:58.600000,238847830,0,1.51,3.34,6.06,0.84,0,1,238779,200,-36.187
42049,2023-01-20 10:51:58.800000,239047820,0,1.51,3.34,6.06,0.85,0,1,238979,200,-36.187
42119,2023-01-20 10:51:59.000000,239247854,0,1.51,3.34,6.06,0.88,0,1,239179,200,-36.187
42182,2023-01-20 10:51:59.200000,239447747,0,1.51,3.34,6.06,0.84,0,1,239379,200,-36.187
42248,2023-01-20 10:51:59.400000,239647878,0,1.51,3.34,6.06,0.84,0,1,239579,200,-36.187
42314,2023-01-20 10:51:59.600000,239847817,0,1.51,3.34,6.05,0.81,0,1,239779,200,-36.187
42379,2023-01-20 10:51:59.800000,240047745,0,1.51,3.33,6.05,0.83,0,1,239979,200,-36.186
42446,2023-01-20 10:52:00.000000,240247897,0,1.51,3.33,6.05,0.85,0,1,240179,200,-36.187
42509,2023-01-20 10:52:00.200000,240447746,0,1.51,3.33,6.05,0.84,0,1,240379,200,-36.187
42575,2023-01-20 10:52:00.400000,240647787,0,1.51,3.33,6.05,0.85,0,1,240579,200,-36.187
42640,2023-01-20 10:52:00.600000,240847826,0,1.51,3.33,6.05,0.85,0,1,240779,200,-36.186
42747,2023-01-20 10:52:00.800000,241047752,0,1.51,3.33,6.04,0.85,0,1,240979,200,-36.186
42814,2023-01-20 10:52:01.000000,241247855,0,1.51,3.33,6.04,0.88,0,1,241179,200,-36.187
42878,2023-01-20 10:52:01.200000,241447816,0,1.51,3.33,6.04,0.85,0,1,241379,200,-36.187
42944,2023-01-20 10:52:01.400000,241647829,0,1.51,3.33,6.04,0.87,0,1,241579,200,-36.187
43009,2023-01-20 10:52:01.600000,241847822,0,1.51,3.33,6.04,0.88,0,1,241779,200,-36.187
43074,2023-01-20 10:52:01.800000,242047773,0,1.51,3.33,6.04,0.88,0,1,241979,200,-36.187
43141,2023-01-20 10:52:02.000000,242247902,0,1.51,3.34,6.04,0.88,0,1,242179,200,-36.186
43204,2023-01-20 10:52:02.200000,242447751,0,1.51,3.34,6.04,0.88,0,1,242379,200,-36.186
43270,2023-01-20 10:52:02.400000,242647832,0,1.51,3.34,6.04,0.87,0,1,242579,200,-36.187
43335,2023-01-20 10:52:02.600000,242847872,0,1.51,3.34,6.04,0.87,0,1,242779,200,-36.186
43400,2023-01-20 10:52:02.800000,243047753,0,1.51,3.34,6.04,0.87,0,1,242979,200,-36.187
43467,2023-01-20 10:52:03.000000,243247869,0,1.51,3.34,6.04,0.87,0,1,243179,200,-36.186
43529,2023-01-20 10:52:03.200000,243447775,0,1.51,3.34,6.03,0.86,0,1,243379,200,-36.187
43596,2023-01-20 10:52:03.400000,243647881,0,1.51,3.34,6.03,0.87,0,1,243579,200,-36.187
43661,2023-01-20 10:52:03.600000,243847739,0,1.51,3.34,6.03,0.86,0,1,243779,200,-36.186
43726,2023-01-20 10:52:03.800000,244047817,0,1.51,3.34,6.03,0.86,0,1,243979,200,-36.186
43795,2023-01-20 10:52:04.000000,244247860,0,1.51,3.34,6.03,0.9,0,1,244179,200,-36.187
43858,2023-01-20 10:52:04.200000,244447741,0,1.51,3.35,6.03,0.91,0,1,244379,200,-36.186
43932,2023-01-20 10:52:04.400000,244667540,0,1.51,3.35,6.03,0.9,0,1,244579,200,-36.187
43997,2023-01-20 10:52:04.600000,244867560,0,1.51,3.35,6.03,0.88,0,1,244779,200,-36.187
44056,2023-01-20 10:52:04.800000,245047734,0,1.51,3.35,6.03,0.88,0,1,244979,200,-36.186
44130,2023-01-20 10:52:05.000000,245267728,0,1.51,3.35,6.03,0.85,0,1,245179,200,-36.186
44193,2023-01-20 10:52:05.200000,245467745,0,1.51,3.35,6.03,0.88,0,1,245379,200,-36.187
44259,2023-01-20 10:52:05.400000,245667671,0,1.51,3.35,6.03,0.85,0,1,245579,200,-36.186
44325,2023-01-20 10:52:05.600000,245867680,0,1.51,3.35,6.03,0.84,0,1,245779,200,-36.187
44389,2023-01-20 10:52:05.800000,246067702,0,1.51,3.35,6.03,0.83,0,1,245979,200,-36.187
44456,2023-01-20 10:52:06.000000,246267872,0,1.51,3.35,6.03,0.86,0,1,246179,200,-36.187
44519,2023-01-20 10:52:06.200000,246467749,0,1.51,3.35,6.03,0.87,0,1,246379,200,-36.186
44587,2023-01-20 10:52:06.400000,246667775,0,1.51,3.35,6.03,0.85,0,1,246579,200,-36.186
44652,2023-01-20 10:52:06.600000,246867863,0,1.51,3.35,6.02,0.84,0,1,246779,200,-36.187
44717,2023-01-20 10:52:06.800000,247067752,0,1.51,3.35,6.02,0.86,0,1,246979,200,-36.186
44784,2023-01-20 10:52:07.000000,247267870,0,1.51,3.35,6.02,0.86,0,1,247179,200,-36.186
44847,2023-01-20 10:52:07.200000,247467800,0,1.51,3.35,6.02,0.84,0,1,247379,200,-36.187
44913,2023-01-20 10:52:07.400000,247667683,0,1.51,3.35,6.02,0.86,0,1,247579,200,-36.186
44978,2023-01-20 10:52:07.600000,247867784,0,1.51,3.35,6.02,0.86,0,1,247779,200,-36.187
45044,2023-01-20 10:52:07.800000,248067749,0,1.51,3.35,6.02,0.87,0,1,247979,200,-36.186
45111,2023-01-20 10:52:08.000000,248267922,0,1.51,3.36,6.02,0.88,0,1,248179,200,-36.187
45174,2023-01-20 10:52:08.200000,248467747,0,1.51,3.36,6.02,0.88,0,1,248379,200,-36.186
45240,2023-01-20 10:52:08.400000,248667734,0,1.51,3.36,6.02,0.87,0,1,248579,200,-36.186
45305,2023-01-20 10:52:08.600000,248867863,0,1.51,3.36,6.02,0.85,0,1,248779,200,-36.186
45370,2023-01-20 10:52:08.800000,249067750,0,1.51,3.36,6.02,0.84,0,1,248979,200,-36.186
45439,2023-01-20 10:52:09.000000,249267867,0,1.51,3.36,6.02,0.84,0,1,249179,200,-36.186
45502,2023-01-20 10:52:09.200000,249467750,0,1.51,3.36,6.02,0.87,0,1,249379,200,-36.186
45568,2023-01-20 10:52:09.400000,249667750,0,1.51,3.36,6.02,0.86,0,1,249579,200,-36.186
45633,2023-01-20 10:52:09.600000,249867826,0,1.51,3.37,6.02,0.95,0,1,249779,200,-36.186
45700,2023-01-20 10:52:09.800000,250067732,0,1.51,3.37,6.02,0.94,0,1,249979,200,-36.186
45767,2023-01-20 10:52:10.000000,250267868,0,1.51,3.37,6.03,0.93,0,1,250179,200,-36.186
45830,2023-01-20 10:52:10.200000,250467740,0,1.51,3.38,6.03,0.86,0,1,250379,200,-36.186
45896,2023-01-20 10:52:10.400000,250667750,0,1.51,3.38,6.03,0.89,0,1,250579,200,-36.186
45961,2023-01-20 10:52:10.600000,250867872,0,1.51,3.38,6.03,0.9,0,1,250779,200,-36.186
46026,2023-01-20 10:52:10.800000,251067747,0,1.51,3.38,6.03,0.93,0,1,250979,200,-36.186
46093,2023-01-20 10:52:11.000000,251267869,0,1.51,3.38,6.03,0.89,0,1,251219,240,-36.186
46156,2023-01-20 10:52:11.200000,251467854,0,1.51,3.39,6.03,0.89,0,1,251419,200,-36.186
46222,2023-01-20 10:52:11.400000,251667774,0,1.51,3.39,6.03,0.88,0,1,251619,200,-36.185
46287,2023-01-20 10:52:11.600000,251867831,0,1.51,3.39,6.03,0.9,0,1,251819,200,-36.186
46352,2023-01-20 10:52:11.800000,252067749,0,1.51,3.39,6.03,0.9,0,1,252019,200,-36.186
46420,2023-01-20 10:52:12.000000,252267871,0,1.51,3.39,6.03,0.89,0,1,252219,200,-36.186
46483,2023-01-20 10:52:12.200000,252467733,0,1.51,3.39,6.04,0.9,0,1,252419,200,-36.186
46549,2023-01-20 10:52:12.400000,252667749,0,1.51,3.39,6.04,0.93,0,1,252619,200,-36.186
46614,2023-01-20 10:52:12.600000,252867825,0,1.51,3.4,6.04,0.93,0,1,252819,200,-36.186
46679,2023-01-20 10:52:12.800000,253067746,0,1.51,3.4,6.05,0.9,0,1,253019,200,-36.186
46746,2023-01-20 10:52:13.000000,253267872,0,1.51,3.4,6.05,0.89,0,1,253219,200,-36.186
46809,2023-01-20 10:52:13.200000,253467844,0,1.51,3.4,6.05,0.88,0,1,253419,200,-36.186
