LineNo,UTC_Approx,UTC_GPS,TimeUS,I,Status,GMS,GWk,NSats,HDop,Lat,Lng,Alt,Spd,GCrs,VZ,Yaw,U
301,2023-01-20 10:49:56.200000,2023-01-20 10:49:56.200000,116183121,0,3,471014200,2245,13,0.78,39.8043833,32.3788021,732.72,0.093,0,-0.247,0,1
1066,2023-01-20 10:49:56.400000,2023-01-20 10:49:56.400000,116403010,0,3,471014400,2245,13,0.78,39.8043832,32.3788021,732.72,0.032,0,-0.21,0,1
1419,2023-01-20 10:49:56.600000,2023-01-20 10:49:56.600000,116601219,0,3,471014600,2245,13,0.78,39.8043831,32.378802,732.73,0.11,0,-0.309,0,1
1897,2023-01-20 10:49:56.800000,2023-01-20 10:49:56.800000,116801971,0,3,471014800,2245,13,0.78,39.8043831,32.3788017,732.76,0.17,0,-0.261,0,1
1990,2023-01-20 10:49:57.000000,2023-01-20 10:49:57.000000,117001972,0,3,471015000,2245,13,0.78,39.8043832,32.3788016,732.76,0.129,0,-0.326,0,1
2082,2023-01-20 10:49:57.200000,2023-01-20 10:49:57.200000,117201931,0,3,471015200,2245,13,0.78,39.8043833,32.3788018,732.73,0.151,0,-0.165,0,1
2189,2023-01-20 10:49:57.400000,2023-01-20 10:49:57.400000,117382071,0,3,471015400,2245,13,0.78,39.8043835,32.3788019,732.7,0.154,0,-0.292,0,1
2311,2023-01-20 10:49:57.600000,2023-01-20 10:49:57.600000,117602060,0,3,471015600,2245,13,0.78,39.8043835,32.3788019,732.65,0.116,0,-0.291,0,1
2423,2023-01-20 10:49:57.800000,2023-01-20 10:49:57.800000,117802104,0,3,471015800,2245,13,0.78,39.8043835,32.3788019,732.66,0.113,0,-0.296,0,1
2508,2023-01-20 10:49:58.000000,2023-01-20 10:49:58.000000,118002164,0,3,471016000,2245,13,0.78,39.8043834,32.3788018,732.63,0.071,0,-0.158,0,1
2590,2023-01-20 10:49:58.200000,2023-01-20 10:49:58.200000,118201999,0,3,471016200,2245,13,0.78,39.8043834,32.3788017,732.58,0.15,0,-0.317,0,1
2669,2023-01-20 10:49:58.400000,2023-01-20 10:49:58.400000,118402060,0,3,471016400,2245,13,0.78,39.8043835,32.3788013,732.66,0.155,0,-0.252,0,1
2750,2023-01-20 10:49:58.600000,2023-01-20 10:49:58.600000,118602064,0,3,471016600,2245,13,0.78,39.8043835,32.3788013,732.61,0.15,0,-0.229,0,1
2832,2023-01-20 10:49:58.800000,2023-01-20 10:49:58.800000,118802117,0,3,471016800,2245,13,0.78,39.8043835,32.3788013,732.59,0.007,0,-0.153,0,1
2913,2023-01-20 10:49:59.000000,2023-01-20 10:49:59.000000,119002114,0,3,471017000,2245,13,0.78,39.8043834,32.3788015,732.48,0.135,0,-0.274,0,1
2994,2023-01-20 10:49:59.200000,2023-01-20 10:49:59.200000,119202061,0,3,471017200,2245,13,0.78,39.8043836,32.3788013,732.46,0.261,0,-0.203,0,1
3072,2023-01-20 10:49:59.400000,2023-01-20 10:49:59.400000,119402064,0,3,471017400,2245,13,0.78,39.8043839,32.3788012,732.43,0.106,0,-0.217,0,1
3153,2023-01-20 10:49:59.600000,2023-01-20 10:49:59.600000,119602072,0,3,471017600,2245,13,0.78,39.804384,32.3788014,732.39,0.079,0,-0.256,0,1
3233,2023-01-20 10:49:59.800000,2023-01-20 10:49:59.800000,119802109,0,3,471017800,2245,13,0.78,39.8043842,32.3788016,732.39,0.115,0,-0.101,0,1
3312,2023-01-20 10:50:00.000000,2023-01-20 10:50:00.000000,120002119,0,3,471018000,2245,13,0.78,39.8043843,32.3788019,732.31,0.155,0,-0.071,0,1
3392,2023-01-20 10:50:00.200000,2023-01-20 10:50:00.200000,120202065,0,3,471018200,2245,13,0.78,39.8043843,32.378802,732.29,0.029,0,-0.093,0,1
3470,2023-01-20 10:50:00.400000,2023-01-20 10:50:00.400000,120402081,0,3,471018400,2245,13,0.78,39.8043842,32.378802,732.3,0.02,0,-0.12,0,1
3552,2023-01-20 10:50:00.600000,2023-01-20 10:50:00.600000,120602067,0,3,471018600,2245,13,0.78,39.8043841,32.3788021,732.24,0.014,0,-0.157,0,1
3633,2023-01-20 10:50:00.800000,2023-01-20 10:50:00.800000,120802091,0,3,471018800,2245,13,0.78,39.804384,32.3788024,732.18,0.118,0,-0.06900001,0,1
3708,2023-01-20 10:50:01.000000,2023-01-20 10:50:01.000000,121002128,0,3,471019000,2245,13,0.78,39.8043839,32.3788026,732.11,0.063,0,-0.175,0,1
3773,2023-01-20 10:50:01.200000,2023-01-20 10:50:01.200000,121202115,0,3,471019200,2245,13,0.78,39.8043839,32.3788027,732.06,0.12,0,-0.15,0,1
3836,2023-01-20 10:50:01.400000,2023-01-20 10:50:01.400000,121402223,0,3,471019400,2245,13,0.78,39.8043841,32.3788028,732.07,0.19,0,-0.229,0,1
3902,2023-01-20 10:50:01.600000,2023-01-20 10:50:01.600000,121602120,0,3,471019600,2245,13,0.78,39.8043843,32.3788028,732.12,0.071,0,-0.304,0,1
3967,2023-01-20 10:50:01.800000,2023-01-20 10:50:01.800000,121802116,0,3,471019800,2245,13,0.78,39.804384,32.3788029,732.1,0.098,0,-0.206,0,1
4032,2023-01-20 10:50:02.000000,2023-01-20 10:50:02.000000,122002267,0,3,471020000,2245,13,0.78,39.8043838,32.3788033,732.04,0.1,0,-0.067,0,1
4097,2023-01-20 10:50:02.200000,2023-01-20 10:50:02.200000,122202135,0,3,471020200,2245,13,0.78,39.804384,32.3788036,732.15,0.291,0,-0.488,0,1
4160,2023-01-20 10:50:02.400000,2023-01-20 10:50:02.400000,122402139,0,3,471020400,2245,13,0.78,39.8043837,32.3788042,732.1,0.08400001,0,-0.7180001,0,1
4226,2023-01-20 10:50:02.600000,2023-01-20 10:50:02.600000,122602937,0,3,471020600,2245,13,0.78,39.8043838,32.378804,732.21,0.146,0,-0.7,0,1
4292,2023-01-20 10:50:02.800000,2023-01-20 10:50:02.800000,122802863,0,3,471020800,2245,13,0.78,39.804384,32.3788042,732.42,0.267,0,-1.215,0,1
4357,2023-01-20 10:50:03.000000,2023-01-20 10:50:03.000000,123002913,0,3,471021000,2245,13,0.78,39.8043833,32.378805,732.62,0.637,0,-1.121,0,1
4422,2023-01-20 10:50:03.200000,2023-01-20 10:50:03.200000,123202917,0,3,471021200,2245,13,0.78,39.8043828,32.3788058,732.93,0.435,0,-1.268,0,1
4485,2023-01-20 10:50:03.400000,2023-01-20 10:50:03.400000,123402906,0,3,471021400,2245,13,0.78,39.8043821,32.3788065,732.95,0.27,0,-0.604,0,1
4550,2023-01-20 10:50:03.600000,2023-01-20 10:50:03.600000,123602879,0,3,471021600,2245,13,0.78,39.8043816,32.3788062,733.04,0.231,0,-0.409,0,1
4616,2023-01-20 10:50:03.800000,2023-01-20 10:50:03.800000,123802886,0,3,471021800,2245,13,0.78,39.8043815,32.3788055,733.1,0.434,0,-0.7820001,0,1
4681,2023-01-20 10:50:04.000000,2023-01-20 10:50:04.000000,124002265,0,3,471022000,2245,13,0.78,39.8043821,32.3788046,733.19,0.738,0,-1.015,0,1
4746,2023-01-20 10:50:04.200000,2023-01-20 10:50:04.200000,124202130,0,3,471022200,2245,13,0.78,39.804383,32.3788038,733.22,0.682,0,-0.827,0,1
4809,2023-01-20 10:50:04.400000,2023-01-20 10:50:04.400000,124402139,0,3,471022400,2245,13,0.78,39.8043835,32.3788037,733.18,0.322,0,-0.752,0,1
4875,2023-01-20 10:50:04.600000,2023-01-20 10:50:04.600000,124602219,0,3,471022600,2245,13,0.78,39.8043838,32.3788036,733.14,0.529,0,-0.892,0,1
4941,2023-01-20 10:50:04.800000,2023-01-20 10:50:04.800000,124802134,0,3,471022800,2245,13,0.78,39.8043839,32.378803,733.21,0.302,0,-1.163,0,1
5005,2023-01-20 10:50:05.000000,2023-01-20 10:50:05.000000,125002229,0,3,471023000,2245,13,0.78,39.8043838,32.378803,733.3,0.16,0,-0.786,0,1
5070,2023-01-20 10:50:05.200000,2023-01-20 10:50:05.200000,125202132,0,3,471023200,2245,13,0.78,39.8043837,32.3788033,733.49,0.167,0,-1,0,1
5133,2023-01-20 10:50:05.400000,2023-01-20 10:50:05.400000,125402142,0,3,471023400,2245,13,0.78,39.8043836,32.3788039,733.68,0.22,0,-1.176,0,1
5199,2023-01-20 10:50:05.600000,2023-01-20 10:50:05.600000,125602114,0,3,471023600,2245,13,0.78,39.8043834,32.3788042,733.86,0.274,0,-0.9950001,0,1
5265,2023-01-20 10:50:05.800000,2023-01-20 10:50:05.800000,125802109,0,3,471023800,2245,13,0.78,39.8043823,32.3788049,733.68,0.478,0,-0.567,0,1
5330,2023-01-20 10:50:06.000000,2023-01-20 10:50:06.000000,126022070,0,3,471024000,2245,13,0.78,39.8043818,32.3788055,733.68,0.122,0,-0.9590001,0,1
5395,2023-01-20 10:50:06.200000,2023-01-20 10:50:06.200000,126221998,0,3,471024200,2245,13,0.78,39.8043817,32.3788051,733.88,0.282,0,-0.757,0,1
5460,2023-01-20 10:50:06.400000,2023-01-20 10:50:06.400000,126424499,0,3,471024400,2245,13,0.78,39.8043813,32.3788048,733.89,0.223,0,-0.673,0,1
5526,2023-01-20 10:50:06.600000,2023-01-20 10:50:06.600000,126624523,0,3,471024600,2245,13,0.78,39.8043803,32.3788046,733.97,0.904,166.7451,-0.551,0,1
5591,2023-01-20 10:50:06.800000,2023-01-20 10:50:06.800000,126824652,0,3,471024800,2245,13,0.78,39.8043789,32.3788041,734.16,0.9860001,181.7963,-0.446,0,1
5655,2023-01-20 10:50:07.000000,2023-01-20 10:50:07.000000,127024831,0,3,471025000,2245,13,0.78,39.8043775,32.3788031,734.37,1.012,189.6722,-0.447,0,1
5720,2023-01-20 10:50:07.200000,2023-01-20 10:50:07.200000,127224867,0,3,471025200,2245,13,0.78,39.8043763,32.3788019,734.55,1.074,203.3999,-0.669,0,1
5783,2023-01-20 10:50:07.400000,2023-01-20 10:50:07.400000,127424741,0,3,471025400,2245,13,0.78,39.804374,32.3788008,734.41,1.275,203.6287,-0.251,0,1
5849,2023-01-20 10:50:07.600000,2023-01-20 10:50:07.600000,127624914,0,3,471025600,2245,13,0.78,39.8043713,32.3787999,734.35,1.642,200.2127,-0.298,0,1
5913,2023-01-20 10:50:07.800000,2023-01-20 10:50:07.800000,127804652,0,3,471025800,2245,13,0.78,39.8043687,32.378799,734.31,1.445,200.2883,-0.057,0,1
5980,2023-01-20 10:50:08.000000,2023-01-20 10:50:08.000000,128024948,0,3,471026000,2245,13,0.78,39.8043659,32.3787976,734.33,1.968,202.0669,-0.15,0,1
6045,2023-01-20 10:50:08.200000,2023-01-20 10:50:08.200000,128224985,0,3,471026200,2245,13,0.78,39.8043627,32.3787956,734.34,2.116,204.6486,-0.209,0,1
6108,2023-01-20 10:50:08.400000,2023-01-20 10:50:08.400000,128424901,0,3,471026400,2245,13,0.78,39.8043594,32.3787934,734.3,2.007,207.2104,-0.021,0,1
6174,2023-01-20 10:50:08.600000,2023-01-20 10:50:08.600000,128624914,0,3,471026600,2245,13,0.78,39.8043568,32.3787908,734.38,1.883,210.8356,-0.28,0,1
6239,2023-01-20 10:50:08.800000,2023-01-20 10:50:08.800000,128824931,0,3,471026800,2245,13,0.78,39.8043537,32.3787883,734.23,1.965,216.2133,-0.338,0,1
6306,2023-01-20 10:50:09.000000,2023-01-20 10:50:09.000000,129024735,0,3,471027000,2245,13,0.78,39.8043506,32.3787852,734.23,2.429,216.0258,-0.416,0,1
6371,2023-01-20 10:50:09.200000,2023-01-20 10:50:09.200000,129224658,0,3,471027200,2245,13,0.78,39.8043469,32.3787818,734.21,2.684,214.6606,-0.17,0,1
6434,2023-01-20 10:50:09.400000,2023-01-20 10:50:09.400000,129425018,0,3,471027400,2245,13,0.78,39.804343,32.3787785,734.25,2.606,213.1318,-0.339,0,1
6500,2023-01-20 10:50:09.600000,2023-01-20 10:50:09.600000,129627486,0,3,471027600,2245,13,0.78,39.8043394,32.3787757,734.28,2.203,212.6577,-0.199,0,1
6565,2023-01-20 10:50:09.800000,2023-01-20 10:50:09.800000,129827489,0,3,471027800,2245,13,0.78,39.8043358,32.3787728,734.24,2.476,214.06,-0.132,0,1
6630,2023-01-20 10:50:10.000000,2023-01-20 10:50:10.000000,130027533,0,3,471028000,2245,13,0.78,39.8043326,32.37877,734.3,2.083,212.309,-0.153,0,1
6695,2023-01-20 10:50:10.200000,2023-01-20 10:50:10.200000,130227483,0,3,471028200,2245,13,0.78,39.8043295,32.3787674,734.36,2.181,212.1269,-0.135,0,1
6758,2023-01-20 10:50:10.400000,2023-01-20 10:50:10.400000,130428001,0,3,471028400,2245,13,0.78,39.8043271,32.3787646,734.57,1.845,214.5115,-0.341,0,1
6824,2023-01-20 10:50:10.600000,2023-01-20 10:50:10.600000,130628055,0,3,471028600,2245,13,0.78,39.8043248,32.3787621,734.65,1.612,215.617,-0.051,0,1
6889,2023-01-20 10:50:10.800000,2023-01-20 10:50:10.800000,130828091,0,3,471028800,2245,13,0.78,39.804322,32.3787599,734.55,1.852,214.6652,-0.031,0,1
6953,2023-01-20 10:50:11.000000,2023-01-20 10:50:11.000000,131028268,0,3,471029000,2245,13,0.78,39.8043193,32.3787576,734.46,1.689,215.2875,-0.008,0,1
7018,2023-01-20 10:50:11.200000,2023-01-20 10:50:11.200000,131228095,0,3,471029200,2245,13,0.78,39.8043177,32.3787553,734.6,1.22,217.1237,-0.124,0,1
7082,2023-01-20 10:50:11.400000,2023-01-20 10:50:11.400000,131428109,0,3,471029400,2245,13,0.78,39.8043158,32.3787538,734.51,1.023,214.0745,-0.09200001,0,1
7148,2023-01-20 10:50:11.600000,2023-01-20 10:50:11.600000,131628097,0,3,471029600,2245,13,0.78,39.8043149,32.3787522,734.67,0.91,215.5233,-0.226,0,1
7213,2023-01-20 10:50:11.800000,2023-01-20 10:50:11.800000,131828098,0,3,471029800,2245,13,0.78,39.804314,32.3787509,734.74,0.6950001,215.5233,-0.333,0,1
7277,2023-01-20 10:50:12.000000,2023-01-20 10:50:12.000000,132028248,0,3,471030000,2245,13,0.78,39.8043128,32.3787498,734.66,0.7870001,215.5233,-0.261,0,1
7342,2023-01-20 10:50:12.200000,2023-01-20 10:50:12.200000,132228086,0,3,471030200,2245,13,0.78,39.8043123,32.3787485,734.73,0.596,215.5233,-0.221,0,1
7405,2023-01-20 10:50:12.400000,2023-01-20 10:50:12.400000,132428093,0,3,471030400,2245,13,0.78,39.8043123,32.3787474,734.85,0.361,215.5233,-0.082,0,1
7471,2023-01-20 10:50:12.600000,2023-01-20 10:50:12.600000,132628108,0,3,471030600,2245,13,0.78,39.8043117,32.3787469,734.8,0.319,215.5233,-0.064,0,1
7536,2023-01-20 10:50:12.800000,2023-01-20 10:50:12.800000,132828087,0,3,471030800,2245,13,0.78,39.8043113,32.3787468,734.66,0.082,215.5233,0.004,0,1
7601,2023-01-20 10:50:13.000000,2023-01-20 10:50:13.000000,133028234,0,3,471031000,2245,13,0.78,39.804311,32.3787467,734.56,0.236,215.5233,0.09200001,0,1
7666,2023-01-20 10:50:13.200000,2023-01-20 10:50:13.200000,133228086,0,3,471031200,2245,13,0.78,39.8043112,32.3787465,734.62,0.101,215.5233,0.006,0,1
7729,2023-01-20 10:50:13.400000,2023-01-20 10:50:13.400000,133428092,0,3,471031400,2245,13,0.78,39.8043109,32.3787463,734.55,0.203,215.5233,-0.085,0,1
7794,2023-01-20 10:50:13.600000,2023-01-20 10:50:13.600000,133628091,0,3,471031600,2245,13,0.78,39.8043107,32.3787463,734.49,0.225,215.5233,-0.13,0,1
7860,2023-01-20 10:50:13.800000,2023-01-20 10:50:13.800000,133828094,0,3,471031800,2245,13,0.78,39.8043109,32.3787466,734.55,0.478,215.5233,-0.106,0,1
7926,2023-01-20 10:50:14.000000,2023-01-20 10:50:14.000000,134028260,0,3,471032000,2245,13,0.78,39.8043103,32.3787471,734.44,0.254,215.5233,-0.026,0,1
7991,2023-01-20 10:50:14.200000,2023-01-20 10:50:14.200000,134228113,0,3,471032200,2245,13,0.78,39.8043104,32.3787467,734.49,0.08000001,215.5233,0.25,0,1
8054,2023-01-20 10:50:14.400000,2023-01-20 10:50:14.400000,134428098,0,3,471032400,2245,13,0.78,39.8043101,32.3787465,734.38,0.126,215.5233,0.044,0,1
8120,2023-01-20 10:50:14.600000,2023-01-20 10:50:14.600000,134628098,0,3,471032600,2245,13,0.78,39.8043096,32.3787469,734.27,0.479,215.5233,0.087,0,1
8186,2023-01-20 10:50:14.800000,2023-01-20 10:50:14.800000,134828098,0,3,471032800,2245,13,0.78,39.8043097,32.3787469,734.28,0.166,215.5233,0.106,0,1
8250,2023-01-20 10:50:15.000000,2023-01-20 10:50:15.000000,135028266,0,3,471033000,2245,13,0.78,39.8043095,32.3787471,734.17,0.256,215.5233,-0.142,0,1
8315,2023-01-20 10:50:15.200000,2023-01-20 10:50:15.200000,135228136,0,3,471033200,2245,13,0.78,39.8043095,32.3787475,734.17,0.153,215.5233,-0.083,0,1
8378,2023-01-20 10:50:15.400000,2023-01-20 10:50:15.400000,135428096,0,3,471033400,2245,13,0.78,39.8043095,32.3787477,734.08,0.154,215.5233,-0.019,0,1
8443,2023-01-20 10:50:15.600000,2023-01-20 10:50:15.600000,135628102,0,3,471033600,2245,13,0.78,39.8043093,32.3787481,733.95,0.152,215.5233,0.041,0,1
8509,2023-01-20 10:50:15.800000,2023-01-20 10:50:15.800000,135828097,0,3,471033800,2245,13,0.78,39.804309,32.3787485,733.85,0.245,215.5233,0.013,0,1
8573,2023-01-20 10:50:16.000000,2023-01-20 10:50:16.000000,136028159,0,3,471034000,2245,13,0.78,39.8043082,32.3787493,733.62,0.397,215.5233,0.191,0,1
8638,2023-01-20 10:50:16.200000,2023-01-20 10:50:16.200000,136228097,0,3,471034200,2245,13,0.78,39.8043073,32.3787501,733.5,0.641,215.5233,0.538,0,1
8701,2023-01-20 10:50:16.400000,2023-01-20 10:50:16.400000,136428206,0,3,471034400,2245,13,0.78,39.8043073,32.3787504,733.54,0.22,215.5233,0.7360001,0,1
8766,2023-01-20 10:50:16.600000,2023-01-20 10:50:16.600000,136628090,0,3,471034600,2245,13,0.78,39.8043073,32.3787504,733.4,0.238,215.5233,0.637,0,1
8832,2023-01-20 10:50:16.800000,2023-01-20 10:50:16.800000,136828095,0,3,471034800,2245,13,0.78,39.8043077,32.37875,733.43,0.09900001,215.5233,0.714,0,1
8896,2023-01-20 10:50:17.000000,2023-01-20 10:50:17.000000,137028142,0,3,471035000,2245,13,0.78,39.8043081,32.3787497,733.37,0.052,215.5233,0.546,0,1
8961,2023-01-20 10:50:17.200000,2023-01-20 10:50:17.200000,137228085,0,3,471035200,2245,13,0.78,39.8043085,32.3787495,733.34,0.133,215.5233,0.457,0,1
9024,2023-01-20 10:50:17.400000,2023-01-20 10:50:17.400000,137428102,0,3,471035400,2245,13,0.78,39.804309,32.3787493,733.31,0.186,215.5233,0.26,0,1
9089,2023-01-20 10:50:17.600000,2023-01-20 10:50:17.600000,137628080,0,3,471035600,2245,13,0.78,39.8043096,32.3787491,733.33,0.09200001,215.5233,0.27,0,1
9155,2023-01-20 10:50:17.800000,2023-01-20 10:50:17.800000,137828082,0,3,471035800,2245,13,0.78,39.8043098,32.3787492,733.24,0.085,215.5233,0.052,0,1
9219,2023-01-20 10:50:18.000000,2023-01-20 10:50:18.000000,138047639,0,3,471036000,2245,13,0.78,39.8043101,32.3787494,733.2,0.208,215.5233,0.089,0,1
9285,2023-01-20 10:50:18.200000,2023-01-20 10:50:18.200000,138228146,0,3,471036200,2245,13,0.78,39.8043103,32.3787495,733.18,0.129,215.5233,0.055,0,1
9348,2023-01-20 10:50:18.400000,2023-01-20 10:50:18.400000,138428065,0,3,471036400,2245,13,0.78,39.8043106,32.3787499,733.18,0.213,215.5233,0.01,0,1
9414,2023-01-20 10:50:18.600000,2023-01-20 10:50:18.600000,138647597,0,3,471036600,2245,13,0.78,39.8043108,32.3787503,733.14,0.189,215.5233,-0.011,0,1
9479,2023-01-20 10:50:18.800000,2023-01-20 10:50:18.800000,138847665,0,3,471036800,2245,13,0.78,39.804311,32.3787506,733.14,0.163,215.5233,0.027,0,1
9545,2023-01-20 10:50:19.000000,2023-01-20 10:50:19.000000,139047737,0,3,471037000,2245,13,0.78,39.804311,32.3787509,733.06,0.131,215.5233,0.117,0,1
9610,2023-01-20 10:50:19.200000,2023-01-20 10:50:19.200000,139247666,0,3,471037200,2245,13,0.78,39.8043112,32.3787511,733,0.2,215.5233,0.11,0,1
9673,2023-01-20 10:50:19.400000,2023-01-20 10:50:19.400000,139447717,0,3,471037400,2245,13,0.78,39.8043114,32.3787513,732.94,0.135,215.5233,0.251,0,1
9739,2023-01-20 10:50:19.600000,2023-01-20 10:50:19.600000,139647823,0,3,471037600,2245,13,0.78,39.8043116,32.3787519,732.81,0.399,215.5233,0.489,0,1
9804,2023-01-20 10:50:19.800000,2023-01-20 10:50:19.800000,139847828,0,3,471037800,2245,13,0.78,39.8043122,32.3787525,732.82,0.244,215.5233,0.245,0,1
9868,2023-01-20 10:50:20.000000,2023-01-20 10:50:20.000000,140047862,0,3,471038000,2245,13,0.78,39.8043123,32.3787531,732.73,0.184,215.5233,0.615,0,1
9933,2023-01-20 10:50:20.200000,2023-01-20 10:50:20.200000,140247842,0,3,471038200,2245,13,0.78,39.8043125,32.3787536,732.71,0.344,215.5233,0.46,0,1
9999,2023-01-20 10:50:20.400000,2023-01-20 10:50:20.400000,140447714,0,3,471038400,2245,13,0.78,39.8043128,32.3787542,732.65,0.172,215.5233,0.371,0,1
10065,2023-01-20 10:50:20.600000,2023-01-20 10:50:20.600000,140647723,0,3,471038600,2245,13,0.78,39.8043131,32.3787544,732.66,0.023,215.5233,0.079,0,1
10129,2023-01-20 10:50:20.800000,2023-01-20 10:50:20.800000,140847647,0,3,471038800,2245,13,0.78,39.8043129,32.3787545,732.59,0.269,215.5233,0.032,0,1
10193,2023-01-20 10:50:21.000000,2023-01-20 10:50:21.000000,141047885,0,3,471039000,2245,13,0.78,39.804313,32.3787545,732.58,0.121,215.5233,0.071,0,1
10258,2023-01-20 10:50:21.200000,2023-01-20 10:50:21.200000,141247774,0,3,471039200,2245,13,0.78,39.8043132,32.3787548,732.6,0.199,215.5233,0.012,0,1
10321,2023-01-20 10:50:21.400000,2023-01-20 10:50:21.400000,141447823,0,3,471039400,2245,13,0.78,39.8043136,32.3787553,732.64,0.329,215.5233,-0.118,0,1
10386,2023-01-20 10:50:21.600000,2023-01-20 10:50:21.600000,141647751,0,3,471039600,2245,13,0.78,39.804314,32.3787564,732.66,0.521,215.5233,-0.031,0,1
10452,2023-01-20 10:50:21.800000,2023-01-20 10:50:21.800000,141847874,0,3,471039800,2245,13,0.78,39.8043145,32.3787576,732.66,0.5560001,215.5233,0.006,0,1
10516,2023-01-20 10:50:22.000000,2023-01-20 10:50:22.000000,142047901,0,3,471040000,2245,13,0.78,39.8043151,32.3787592,732.52,0.887,127.3204,0.151,0,1
10581,2023-01-20 10:50:22.200000,2023-01-20 10:50:22.200000,142247800,0,3,471040200,2245,13,0.78,39.804316,32.3787609,732.52,0.822,101.0034,-0.261,0,1
10644,2023-01-20 10:50:22.400000,2023-01-20 10:50:22.400000,142447870,0,3,471040400,2245,13,0.78,39.8043165,32.3787631,732.31,0.9310001,84.64479,-0.038,0,1
10709,2023-01-20 10:50:22.600000,2023-01-20 10:50:22.600000,142647777,0,3,471040600,2245,13,0.78,39.8043168,32.3787655,732.26,1.17,87.10982,-0.269,0,1
10775,2023-01-20 10:50:22.800000,2023-01-20 10:50:22.800000,142847811,0,3,471040800,2245,13,0.78,39.8043172,32.3787686,732.27,1.497,81.93026,-0.103,0,1
10839,2023-01-20 10:50:23.000000,2023-01-20 10:50:23.000000,143047874,0,3,471041000,2245,13,0.78,39.8043178,32.3787725,732.27,1.887,80.72068,0.108,0,1
10906,2023-01-20 10:50:23.200000,2023-01-20 10:50:23.200000,143247772,0,3,471041200,2245,13,0.78,39.8043185,32.3787771,732.19,2.109,77.84144,0.141,0,1
10969,2023-01-20 10:50:23.400000,2023-01-20 10:50:23.400000,143447830,0,3,471041400,2245,13,0.78,39.80432,32.3787822,732.2,2.616,73.80137,0.094,0,1
11034,2023-01-20 10:50:23.600000,2023-01-20 10:50:23.600000,143647801,0,3,471041600,2245,13,0.78,39.8043213,32.3787884,732.24,2.987,76.62896,-0.219,0,1
11100,2023-01-20 10:50:23.800000,2023-01-20 10:50:23.800000,143847829,0,3,471041800,2245,13,0.78,39.8043222,32.3787958,732.24,3.375,79.89913,-0.458,0,1
11167,2023-01-20 10:50:24.000000,2023-01-20 10:50:24.000000,144047862,0,3,471042000,2245,13,0.78,39.8043234,32.3788041,732.25,4.063,78.0229,-0.27,0,1
11232,2023-01-20 10:50:24.200000,2023-01-20 10:50:24.200000,144247739,0,3,471042200,2245,13,0.78,39.8043248,32.3788129,732.47,3.932,79.98294,-0.7590001,0,1
11295,2023-01-20 10:50:24.400000,2023-01-20 10:50:24.400000,144447864,0,3,471042400,2245,13,0.78,39.8043262,32.3788228,732.6,4.827,78.64953,-0.443,0,1
11362,2023-01-20 10:50:24.600000,2023-01-20 10:50:24.600000,144647732,0,3,471042600,2245,13,0.78,39.8043288,32.3788336,732.69,5.043,73.50924,-0.558,0,1
11429,2023-01-20 10:50:24.800000,2023-01-20 10:50:24.800000,144847895,0,3,471042800,2245,13,0.78,39.8043312,32.378845,732.71,5.22,75.33983,-0.654,0,1
11493,2023-01-20 10:50:25.000000,2023-01-20 10:50:25.000000,145047894,0,3,471043000,2245,13,0.78,39.8043338,32.378857,732.83,5.543,73.6257,-0.528,0,1
11559,2023-01-20 10:50:25.200000,2023-01-20 10:50:25.200000,145247836,0,3,471043200,2245,13,0.78,39.8043366,32.3788693,732.8,5.538,73.77324,-0.33,0,1
11622,2023-01-20 10:50:25.400000,2023-01-20 10:50:25.400000,145447848,0,3,471043400,2245,13,0.78,39.8043375,32.3788811,732.58,4.677,79.08649,-0.451,0,1
11687,2023-01-20 10:50:25.600000,2023-01-20 10:50:25.600000,145647821,0,3,471043600,2245,13,0.78,39.8043388,32.3788915,732.63,4.631,77.04882,0.271,0,1
11753,2023-01-20 10:50:25.800000,2023-01-20 10:50:25.800000,145847846,0,3,471043800,2245,13,0.78,39.8043407,32.378901,732.52,4.009,76.9237,0.538,0,1
11818,2023-01-20 10:50:26.000000,2023-01-20 10:50:26.000000,146047894,0,3,471044000,2245,13,0.78,39.8043417,32.3789093,732.28,3.211,78.39487,0.5330001,0,1
11883,2023-01-20 10:50:26.200000,2023-01-20 10:50:26.200000,146247819,0,3,471044200,2245,13,0.78,39.8043428,32.3789156,732.14,2.497,76.28853,0.619,0,1
11946,2023-01-20 10:50:26.400000,2023-01-20 10:50:26.400000,146447891,0,3,471044400,2245,13,0.78,39.804344,32.3789205,732,1.986,74.79761,0.46,0,1
12011,2023-01-20 10:50:26.600000,2023-01-20 10:50:26.600000,146647831,0,3,471044600,2245,13,0.78,39.8043441,32.3789237,731.8,0.955,74.79761,0.562,0,1
12077,2023-01-20 10:50:26.800000,2023-01-20 10:50:26.800000,146847841,0,3,471044800,2245,13,0.78,39.8043435,32.378926,731.49,0.923,74.79761,0.333,0,1
12141,2023-01-20 10:50:27.000000,2023-01-20 10:50:27.000000,147047890,0,3,471045000,2245,13,0.78,39.8043442,32.3789275,731.48,0.8750001,74.79761,0.03,0,1
12206,2023-01-20 10:50:27.200000,2023-01-20 10:50:27.200000,147247871,0,3,471045200,2245,13,0.78,39.8043451,32.3789289,731.29,0.918,61.67918,-0.365,0,1
12269,2023-01-20 10:50:27.400000,2023-01-20 10:50:27.400000,147447842,0,3,471045400,2245,13,0.78,39.8043463,32.3789293,731.51,0.476,61.67918,-0.932,0,1
12341,2023-01-20 10:50:27.600000,2023-01-20 10:50:27.600000,147667551,0,3,471045600,2245,13,0.78,39.8043468,32.3789298,731.68,0.393,61.67918,-1.167,0,1
12406,2023-01-20 10:50:27.800000,2023-01-20 10:50:27.800000,147867566,0,3,471045800,2245,13,0.78,39.8043478,32.3789302,732.04,0.647,61.67918,-1.308,0,1
12471,2023-01-20 10:50:28.000000,2023-01-20 10:50:28.000000,148067694,0,3,471046000,2245,13,0.78,39.8043493,32.3789301,732.34,1.007,23.09943,-1.37,0,1
12536,2023-01-20 10:50:28.200000,2023-01-20 10:50:28.200000,148267644,0,3,471046200,2245,13,0.78,39.8043506,32.3789293,732.68,0.518,23.09943,-1.755,0,1
12600,2023-01-20 10:50:28.400000,2023-01-20 10:50:28.400000,148467594,0,3,471046400,2245,13,0.78,39.8043514,32.3789291,732.97,0.785,23.09943,-2.191,0,1
12659,2023-01-20 10:50:28.600000,2023-01-20 10:50:28.600000,148647834,0,3,471046600,2245,13,0.78,39.8043521,32.3789292,733.21,0.442,23.09943,-2.014,0,1
12731,2023-01-20 10:50:28.800000,2023-01-20 10:50:28.800000,148867614,0,3,471046800,2245,13,0.78,39.8043524,32.3789283,733.65,0.369,23.09943,-1.996,0,1
12797,2023-01-20 10:50:29.000000,2023-01-20 10:50:29.000000,149067842,0,3,471047000,2245,13,0.78,39.8043531,32.3789274,734.16,0.494,23.09943,-1.945,0,1
12863,2023-01-20 10:50:29.200000,2023-01-20 10:50:29.200000,149267734,0,3,471047200,2245,12,0.82,39.8043526,32.3789268,734.43,0.64,23.09943,-2.164,0,1
12926,2023-01-20 10:50:29.400000,2023-01-20 10:50:29.400000,149467864,0,3,471047400,2245,12,0.82,39.8043523,32.3789257,734.95,0.383,23.09943,-2.14,0,1
12991,2023-01-20 10:50:29.600000,2023-01-20 10:50:29.600000,149667825,0,3,471047600,2245,12,0.82,39.8043527,32.3789247,735.52,0.194,23.09943,-2.037,0,1
13057,2023-01-20 10:50:29.800000,2023-01-20 10:50:29.800000,149867843,0,3,471047800,2245,12,0.82,39.8043534,32.3789237,736.25,0.201,23.09943,-2.418,0,1
13121,2023-01-20 10:50:30.000000,2023-01-20 10:50:30.000000,150067888,0,3,471048000,2245,12,0.82,39.8043535,32.3789229,736.87,0.314,23.09943,-2.532,0,1
13186,2023-01-20 10:50:30.200000,2023-01-20 10:50:30.200000,150267820,0,3,471048200,2245,12,0.82,39.8043522,32.3789228,737.16,0.544,23.09943,-2.659,0,1
13249,2023-01-20 10:50:30.400000,2023-01-20 10:50:30.400000,150467818,0,3,471048400,2245,13,0.78,39.8043523,32.378922,737.89,0.259,23.09943,-2.468,0,1
13315,2023-01-20 10:50:30.600000,2023-01-20 10:50:30.600000,150667829,0,3,471048600,2245,13,0.78,39.8043533,32.378921,738.55,0.564,23.09943,-2.325,0,1
13381,2023-01-20 10:50:30.800000,2023-01-20 10:50:30.800000,150867833,0,3,471048800,2245,13,0.78,39.8043531,32.3789207,738.81,0.205,23.09943,-2.635,0,1
13445,2023-01-20 10:50:31.000000,2023-01-20 10:50:31.000000,151067900,0,3,471049000,2245,13,0.78,39.8043523,32.3789203,739.15,0.564,23.09943,-2.539,0,1
13510,2023-01-20 10:50:31.200000,2023-01-20 10:50:31.200000,151267724,0,3,471049200,2245,13,0.78,39.804351,32.3789199,739.41,0.6160001,23.09943,-2.465,0,1
13573,2023-01-20 10:50:31.400000,2023-01-20 10:50:31.400000,151467824,0,3,471049400,2245,13,0.78,39.8043496,32.3789196,739.82,0.8750001,98.82185,-2.539,0,1
13638,2023-01-20 10:50:31.600000,2023-01-20 10:50:31.600000,151667863,0,3,471049600,2245,13,0.78,39.8043493,32.3789191,740.47,0.153,98.82185,-2.278,0,1
13704,2023-01-20 10:50:31.800000,2023-01-20 10:50:31.800000,151867837,0,3,471049800,2245,13,0.78,39.8043488,32.3789193,740.82,0.194,98.82185,-2.255,0,1
13769,2023-01-20 10:50:32.000000,2023-01-20 10:50:32.000000,152067883,0,3,471050000,2245,13,0.78,39.8043485,32.3789192,741.36,0.382,98.82185,-2.204,0,1
13834,2023-01-20 10:50:32.200000,2023-01-20 10:50:32.200000,152267829,0,3,471050200,2245,13,0.78,39.8043484,32.3789188,741.87,0.114,98.82185,-1.903,0,1
13897,2023-01-20 10:50:32.400000,2023-01-20 10:50:32.400000,152467816,0,3,471050400,2245,13,0.78,39.8043475,32.3789187,742.12,0.688,98.82185,-1.443,0,1
13962,2023-01-20 10:50:32.600000,2023-01-20 10:50:32.600000,152667866,0,3,471050600,2245,13,0.78,39.8043466,32.3789188,742.33,0.316,98.82185,-0.9440001,0,1
14028,2023-01-20 10:50:32.800000,2023-01-20 10:50:32.800000,152867839,0,3,471050800,2245,13,0.78,39.8043461,32.3789187,742.52,0.426,98.82185,-0.837,0,1
14092,2023-01-20 10:50:33.000000,2023-01-20 10:50:33.000000,153067881,0,3,471051000,2245,13,0.78,39.804344,32.378919,742.47,1.11,143.8774,-0.9710001,0,1
14157,2023-01-20 10:50:33.200000,2023-01-20 10:50:33.200000,153267825,0,3,471051200,2245,13,0.78,39.8043425,32.3789193,742.53,0.528,143.8774,-0.387,0,1
14221,2023-01-20 10:50:33.400000,2023-01-20 10:50:33.400000,153467817,0,3,471051400,2245,13,0.78,39.8043411,32.3789196,742.48,0.634,143.8774,-0.378,0,1
14288,2023-01-20 10:50:33.600000,2023-01-20 10:50:33.600000,153667826,0,3,471051600,2245,13,0.78,39.8043394,32.3789199,742.44,0.788,158.1275,-0.7180001,0,1
14354,2023-01-20 10:50:33.800000,2023-01-20 10:50:33.800000,153867839,0,3,471051800,2245,13,0.78,39.8043375,32.3789201,742.44,0.887,171.2608,-0.608,0,1
14420,2023-01-20 10:50:34.000000,2023-01-20 10:50:34.000000,154067892,0,3,471052000,2245,13,0.78,39.8043356,32.3789203,742.43,0.9160001,175.0617,-0.296,0,1
14485,2023-01-20 10:50:34.200000,2023-01-20 10:50:34.200000,154267864,0,3,471052200,2245,13,0.78,39.8043342,32.3789203,742.54,0.717,175.0617,-0.44,0,1
14548,2023-01-20 10:50:34.400000,2023-01-20 10:50:34.400000,154467816,0,3,471052400,2245,13,0.78,39.8043331,32.3789203,742.65,0.591,175.0617,-0.434,0,1
14613,2023-01-20 10:50:34.600000,2023-01-20 10:50:34.600000,154667743,0,3,471052600,2245,13,0.78,39.804333,32.37892,742.88,0.141,175.0617,-0.29,0,1
14680,2023-01-20 10:50:34.800000,2023-01-20 10:50:34.800000,154867841,0,3,471052800,2245,13,0.78,39.8043325,32.3789201,742.75,0.142,175.0617,-0.119,0,1
14746,2023-01-20 10:50:35.000000,2023-01-20 10:50:35.000000,155067907,0,3,471053000,2245,13,0.78,39.8043325,32.37892,742.7,0.251,175.0617,-0.07300001,0,1
14811,2023-01-20 10:50:35.200000,2023-01-20 10:50:35.200000,155267736,0,3,471053200,2245,12,0.81,39.8043333,32.3789195,742.87,0.417,175.0617,-0.043,0,1
14874,2023-01-20 10:50:35.400000,2023-01-20 10:50:35.400000,155467741,0,3,471053400,2245,12,0.81,39.8043339,32.3789192,742.93,0.288,175.0617,-0.128,0,1
14939,2023-01-20 10:50:35.600000,2023-01-20 10:50:35.600000,155667739,0,3,471053600,2245,12,0.81,39.8043341,32.3789193,742.89,0.365,175.0617,-0.331,0,1
15005,2023-01-20 10:50:35.800000,2023-01-20 10:50:35.800000,155867780,0,3,471053800,2245,12,0.81,39.8043344,32.3789199,742.82,0.452,175.0617,-0.289,0,1
15069,2023-01-20 10:50:36.000000,2023-01-20 10:50:36.000000,156067862,0,3,471054000,2245,12,0.81,39.8043344,32.3789206,742.75,0.202,175.0617,-0.317,0,1
15134,2023-01-20 10:50:36.200000,2023-01-20 10:50:36.200000,156267746,0,3,471054200,2245,12,0.81,39.8043344,32.3789212,742.84,0.311,175.0617,-0.121,0,1
15197,2023-01-20 10:50:36.400000,2023-01-20 10:50:36.400000,156467843,0,3,471054400,2245,12,0.81,39.8043346,32.378922,742.91,0.369,175.0617,-0.072,0,1
15262,2023-01-20 10:50:36.600000,2023-01-20 10:50:36.600000,156667730,0,3,471054600,2245,13,0.78,39.8043349,32.3789233,742.9,0.744,175.0617,0.045,0,1
15328,2023-01-20 10:50:36.800000,2023-01-20 10:50:36.800000,156867722,0,3,471054800,2245,13,0.78,39.8043357,32.3789251,742.93,0.9070001,175.0617,0.232,0,1
15392,2023-01-20 10:50:37.000000,2023-01-20 10:50:37.000000,157067908,0,3,471055000,2245,12,0.81,39.8043366,32.3789273,742.96,1.187,131.7093,0.13,0,1
15457,2023-01-20 10:50:37.200000,2023-01-20 10:50:37.200000,157267748,0,3,471055200,2245,12,0.81,39.8043374,32.3789304,742.94,1.552,93.92422,0.06,0,1
15520,2023-01-20 10:50:37.400000,2023-01-20 10:50:37.400000,157467743,0,3,471055400,2245,12,0.81,39.8043384,32.3789346,742.85,2.018,78.23004,0.064,0,1
15585,2023-01-20 10:50:37.600000,2023-01-20 10:50:37.600000,157667712,0,3,471055600,2245,12,0.81,39.8043396,32.3789393,742.76,2.125,73.4899,0.013,0,1
15651,2023-01-20 10:50:37.800000,2023-01-20 10:50:37.800000,157867742,0,3,471055800,2245,12,0.81,39.8043406,32.3789445,742.73,2.392,76.50954,-0.105,0,1
15716,2023-01-20 10:50:38.000000,2023-01-20 10:50:38.000000,158067828,0,3,471056000,2245,12,0.81,39.8043408,32.378951,742.49,2.769,80.16146,-0.007,0,1
15803,2023-01-20 10:50:38.200000,2023-01-20 10:50:38.200000,158287589,0,3,471056200,2245,12,0.81,39.8043413,32.378958,742.47,3.168,82.24998,0.007,0,1
15867,2023-01-20 10:50:38.400000,2023-01-20 10:50:38.400000,158487585,0,3,471056400,2245,12,0.81,39.8043422,32.378966,742.45,3.617,81.08149,0.104,0,1
15935,2023-01-20 10:50:38.600000,2023-01-20 10:50:38.600000,158687648,0,3,471056600,2245,12,0.81,39.8043433,32.3789751,742.27,4.022,78.92107,0.036,0,1
15999,2023-01-20 10:50:38.800000,2023-01-20 10:50:38.800000,158887658,0,3,471056800,2245,12,0.81,39.8043459,32.3789845,742.39,4.451,74.48313,-0.04,0,1
16043,2023-01-20 10:50:39.000000,2023-01-20 10:50:39.000000,159067867,0,3,471057000,2245,12,0.81,39.804349,32.3789948,742.42,4.875,71.47663,0.13,0,1
16131,2023-01-20 10:50:39.200000,2023-01-20 10:50:39.200000,159287643,0,3,471057200,2245,12,0.81,39.804352,32.3790063,742.32,5.357,71.56687,0.07700001,0,1
16194,2023-01-20 10:50:39.400000,2023-01-20 10:50:39.400000,159487714,0,3,471057400,2245,12,0.81,39.8043558,32.3790184,742.42,5.643,70.04153,0.001,0,1
16261,2023-01-20 10:50:39.600000,2023-01-20 10:50:39.600000,159687746,0,3,471057600,2245,12,0.81,39.8043594,32.3790312,742.47,5.876,71.40977,-0.172,0,1
16325,2023-01-20 10:50:39.800000,2023-01-20 10:50:39.800000,159887862,0,3,471057800,2245,12,0.81,39.804363,32.3790447,742.45,6.283,70.07532,0.239,0,1
16390,2023-01-20 10:50:40.000000,2023-01-20 10:50:40.000000,160087852,0,3,471058000,2245,12,0.81,39.8043672,32.3790586,742.49,6.353,70.11954,0.061,0,1
16456,2023-01-20 10:50:40.200000,2023-01-20 10:50:40.200000,160287742,0,3,471058200,2245,12,0.81,39.8043714,32.3790728,742.54,6.546,70.02242,0.09500001,0,1
16519,2023-01-20 10:50:40.400000,2023-01-20 10:50:40.400000,160487845,0,3,471058400,2245,12,0.81,39.804375,32.3790878,742.46,6.784,71.40304,-0.081,0,1
16587,2023-01-20 10:50:40.600000,2023-01-20 10:50:40.600000,160687819,0,3,471058600,2245,12,0.81,39.8043784,32.3791028,742.52,6.589,73.2782,-0.153,0,1
16651,2023-01-20 10:50:40.800000,2023-01-20 10:50:40.800000,160887783,0,3,471058800,2245,12,0.81,39.8043811,32.3791176,742.66,6.523,75.71382,-0.432,0,1
16716,2023-01-20 10:50:41.000000,2023-01-20 10:50:41.000000,161087869,0,3,471059000,2245,12,0.81,39.8043833,32.3791323,742.73,6.366,76.93625,-0.5100001,0,1
16782,2023-01-20 10:50:41.200000,2023-01-20 10:50:41.200000,161287752,0,3,471059200,2245,13,0.78,39.804386,32.3791471,742.7,6.598001,75.3687,-0.052,0,1
16845,2023-01-20 10:50:41.400000,2023-01-20 10:50:41.400000,161487739,0,3,471059400,2245,13,0.78,39.8043897,32.3791618,742.86,6.68,74.31405,-0.144,0,1
16913,2023-01-20 10:50:41.600000,2023-01-20 10:50:41.600000,161687823,0,3,471059600,2245,13,0.78,39.8043934,32.3791768,743.08,6.898,74.70093,0.111,0,1
16977,2023-01-20 10:50:41.800000,2023-01-20 10:50:41.800000,161887744,0,3,471059800,2245,13,0.78,39.8043962,32.3791925,743,6.901,75.70579,0.027,0,1
17042,2023-01-20 10:50:42.000000,2023-01-20 10:50:42.000000,162087848,0,3,471060000,2245,13,0.78,39.8043997,32.379208,743.11,6.91,74.83208,-0.032,0,1
17108,2023-01-20 10:50:42.200000,2023-01-20 10:50:42.200000,162287750,0,3,471060200,2245,13,0.78,39.804403,32.3792235,743.07,6.934,74.93674,0.374,0,1
17171,2023-01-20 10:50:42.400000,2023-01-20 10:50:42.400000,162487847,0,3,471060400,2245,13,0.78,39.8044065,32.3792392,742.99,7.201,73.95515,0.163,0,1
17239,2023-01-20 10:50:42.600000,2023-01-20 10:50:42.600000,162687818,0,3,471060600,2245,13,0.78,39.8044099,32.379255,743,7.038,75.17254,0.232,0,1
17303,2023-01-20 10:50:42.800000,2023-01-20 10:50:42.800000,162887823,0,3,471060800,2245,13,0.78,39.8044134,32.3792709,742.93,7.111001,74.09534,0.6760001,0,1
17368,2023-01-20 10:50:43.000000,2023-01-20 10:50:43.000000,163087898,0,3,471061000,2245,13,0.78,39.8044171,32.3792865,742.92,6.985,74.92139,0.752,0,1
17434,2023-01-20 10:50:43.200000,2023-01-20 10:50:43.200000,163287742,0,3,471061200,2245,13,0.78,39.8044207,32.3793017,743.05,6.747,75.3199,0.302,0,1
17497,2023-01-20 10:50:43.400000,2023-01-20 10:50:43.400000,163487741,0,3,471061400,2245,13,0.78,39.8044236,32.3793172,743,6.919,76.28766,0.149,0,1
17566,2023-01-20 10:50:43.600000,2023-01-20 10:50:43.600000,163687829,0,3,471061600,2245,13,0.78,39.8044259,32.3793329,742.94,6.764,77.69624,0.025,0,1
17630,2023-01-20 10:50:43.800000,2023-01-20 10:50:43.800000,163887822,0,3,471061800,2245,13,0.78,39.8044286,32.3793482,742.96,6.831,77.02637,0.116,0,1
17697,2023-01-20 10:50:44.000000,2023-01-20 10:50:44.000000,164087857,0,3,471062000,2245,13,0.78,39.8044312,32.3793632,743.07,6.423,78.00651,-0.6210001,0,1
17763,2023-01-20 10:50:44.200000,2023-01-20 10:50:44.200000,164287747,0,3,471062200,2245,13,0.78,39.8044336,32.3793782,743.2,6.673,79.3069,-0.841,0,1
17826,2023-01-20 10:50:44.400000,2023-01-20 10:50:44.400000,164487748,0,3,471062400,2245,13,0.78,39.8044364,32.3793934,743.27,6.653,76.63383,-0.692,0,1
17895,2023-01-20 10:50:44.600000,2023-01-20 10:50:44.600000,164687749,0,3,471062600,2245,13,0.78,39.8044401,32.3794084,743.48,6.777,75.42822,-0.9760001,0,1
17959,2023-01-20 10:50:44.800000,2023-01-20 10:50:44.800000,164887782,0,3,471062800,2245,13,0.78,39.8044443,32.3794238,743.71,6.978,73.94241,-0.561,0,1
18024,2023-01-20 10:50:45.000000,2023-01-20 10:50:45.000000,165087896,0,3,471063000,2245,13,0.78,39.804448,32.3794396,743.78,6.923,74.46119,-0.807,0,1
18090,2023-01-20 10:50:45.200000,2023-01-20 10:50:45.200000,165287720,0,3,471063200,2245,13,0.78,39.8044514,32.3794554,743.85,6.894001,74.88095,-0.482,0,1
18153,2023-01-20 10:50:45.400000,2023-01-20 10:50:45.400000,165487750,0,3,471063400,2245,13,0.78,39.8044549,32.3794716,743.89,7.014,75.15083,-0.393,0,1
18221,2023-01-20 10:50:45.600000,2023-01-20 10:50:45.600000,165687841,0,3,471063600,2245,13,0.78,39.8044588,32.3794876,744.12,7.145,75.38208,-0.311,0,1
18285,2023-01-20 10:50:45.800000,2023-01-20 10:50:45.800000,165887747,0,3,471063800,2245,13,0.78,39.8044626,32.379504,744.33,7.299,75.5763,-0.62,0,1
18350,2023-01-20 10:50:46.000000,2023-01-20 10:50:46.000000,166087840,0,3,471064000,2245,13,0.78,39.804466,32.3795205,744.37,7.251,75.27173,-0.522,0,1
18416,2023-01-20 10:50:46.200000,2023-01-20 10:50:46.200000,166287816,0,3,471064200,2245,13,0.78,39.8044701,32.3795373,744.43,7.304,74.06024,-0.684,0,1
18479,2023-01-20 10:50:46.400000,2023-01-20 10:50:46.400000,166487714,0,3,471064400,2245,13,0.78,39.8044741,32.3795537,744.53,7.222,74.4218,-0.567,0,1
18547,2023-01-20 10:50:46.600000,2023-01-20 10:50:46.600000,166687747,0,3,471064600,2245,13,0.78,39.8044778,32.3795702,744.68,7.133,75.8814,-0.816,0,1
18611,2023-01-20 10:50:46.800000,2023-01-20 10:50:46.800000,166887821,0,3,471064800,2245,13,0.78,39.8044807,32.379587,744.62,7.267,76.54436,-0.521,0,1
18677,2023-01-20 10:50:47.000000,2023-01-20 10:50:47.000000,167107678,0,3,471065000,2245,13,0.78,39.8044848,32.3796035,744.81,7.455,74.94926,-0.401,0,1
18743,2023-01-20 10:50:47.200000,2023-01-20 10:50:47.200000,167307604,0,3,471065200,2245,13,0.78,39.8044889,32.3796202,744.98,7.442,74.69506,-0.598,0,1
18806,2023-01-20 10:50:47.400000,2023-01-20 10:50:47.400000,167507598,0,3,471065400,2245,13,0.78,39.8044925,32.379637,744.98,7.448,74.97248,-0.322,0,1
18874,2023-01-20 10:50:47.600000,2023-01-20 10:50:47.600000,167707603,0,3,471065600,2245,13,0.78,39.8044956,32.3796535,744.91,7.079,75.74032,-0.59,0,1
18939,2023-01-20 10:50:47.800000,2023-01-20 10:50:47.800000,167907560,0,3,471065800,2245,13,0.78,39.8044986,32.37967,744.77,7.358,75.31424,-0.497,0,1
19003,2023-01-20 10:50:48.000000,2023-01-20 10:50:48.000000,168107640,0,3,471066000,2245,13,0.78,39.8045026,32.3796866,744.7,7.542,73.4252,0.034,0,1
19069,2023-01-20 10:50:48.200000,2023-01-20 10:50:48.200000,168307640,0,3,471066200,2245,13,0.78,39.8045063,32.3797034,744.47,7.39,73.5086,-0.195,0,1
19132,2023-01-20 10:50:48.400000,2023-01-20 10:50:48.400000,168507706,0,3,471066400,2245,13,0.78,39.804509,32.3797198,744.3,6.977,76.01281,-0.413,0,1
19201,2023-01-20 10:50:48.600000,2023-01-20 10:50:48.600000,168707732,0,3,471066600,2245,13,0.78,39.8045101,32.379736,743.86,6.922,78.3596,0.619,0,1
19265,2023-01-20 10:50:48.800000,2023-01-20 10:50:48.800000,168907800,0,3,471066800,2245,13,0.78,39.8045128,32.3797515,743.71,6.751,78.16405,0.853,0,1
19331,2023-01-20 10:50:49.000000,2023-01-20 10:50:49.000000,169107896,0,3,471067000,2245,13,0.78,39.8045165,32.3797673,743.71,7.323,77.11872,0.791,0,1
19397,2023-01-20 10:50:49.200000,2023-01-20 10:50:49.200000,169307799,0,3,471067200,2245,13,0.78,39.8045202,32.3797832,743.79,6.802001,77.93336,0.511,0,1
19460,2023-01-20 10:50:49.400000,2023-01-20 10:50:49.400000,169507679,0,3,471067400,2245,13,0.78,39.8045231,32.3797988,743.72,6.982,76.64428,0.096,0,1
19528,2023-01-20 10:50:49.600000,2023-01-20 10:50:49.600000,169707843,0,3,471067600,2245,13,0.78,39.8045255,32.3798144,743.59,6.637,78.41964,-0.461,0,1
19593,2023-01-20 10:50:49.800000,2023-01-20 10:50:49.800000,169907742,0,3,471067800,2245,13,0.78,39.8045277,32.3798296,743.72,6.683,79.95499,-0.701,0,1
19657,2023-01-20 10:50:50.000000,2023-01-20 10:50:50.000000,170107845,0,3,471068000,2245,13,0.78,39.8045306,32.3798453,743.95,7.062,78.22909,-1.145,0,1
19765,2023-01-20 10:50:50.200000,2023-01-20 10:50:50.200000,170307862,0,3,471068200,2245,13,0.78,39.8045339,32.3798605,744.22,6.616,77.21339,-0.854,0,1
19828,2023-01-20 10:50:50.400000,2023-01-20 10:50:50.400000,170507776,0,3,471068400,2245,13,0.78,39.8045376,32.3798753,744.56,6.724,75.89934,-0.711,0,1
19896,2023-01-20 10:50:50.600000,2023-01-20 10:50:50.600000,170707741,0,3,471068600,2245,13,0.78,39.8045408,32.3798901,744.77,6.728,75.71789,-0.9670001,0,1
19961,2023-01-20 10:50:50.800000,2023-01-20 10:50:50.800000,170907745,0,3,471068800,2245,13,0.78,39.8045448,32.3799051,745.14,6.898,74.3343,-1.034,0,1
20025,2023-01-20 10:50:51.000000,2023-01-20 10:50:51.000000,171107890,0,3,471069000,2245,13,0.78,39.8045483,32.3799205,745.36,6.838,74.55916,-1.156,0,1
20091,2023-01-20 10:50:51.200000,2023-01-20 10:50:51.200000,171307744,0,3,471069200,2245,13,0.78,39.8045514,32.3799361,745.58,6.948,75.99376,-1.172,0,1
20154,2023-01-20 10:50:51.400000,2023-01-20 10:50:51.400000,171507751,0,3,471069400,2245,13,0.78,39.8045542,32.3799516,745.93,6.512,78.61626,-1.431,0,1
20222,2023-01-20 10:50:51.600000,2023-01-20 10:50:51.600000,171707845,0,3,471069600,2245,13,0.78,39.8045573,32.3799668,746.26,6.9,76.80219,-0.8570001,0,1
20287,2023-01-20 10:50:51.800000,2023-01-20 10:50:51.800000,171907728,0,3,471069800,2245,13,0.78,39.8045612,32.3799824,746.45,7.137001,73.68615,-0.892,0,1
20351,2023-01-20 10:50:52.000000,2023-01-20 10:50:52.000000,172107859,0,3,471070000,2245,13,0.78,39.804566,32.3799981,746.63,7.129,71.63446,-0.687,0,1
20417,2023-01-20 10:50:52.200000,2023-01-20 10:50:52.200000,172307864,0,3,471070200,2245,13,0.78,39.8045702,32.3800136,746.86,7,73.49496,-0.535,0,1
20480,2023-01-20 10:50:52.400000,2023-01-20 10:50:52.400000,172507777,0,3,471070400,2245,13,0.78,39.8045741,32.3800293,747.12,7.075,73.69699,-1.136,0,1
20548,2023-01-20 10:50:52.600000,2023-01-20 10:50:52.600000,172707743,0,3,471070600,2245,13,0.78,39.8045769,32.380045,747.17,6.837,75.37629,-0.947,0,1
20613,2023-01-20 10:50:52.800000,2023-01-20 10:50:52.800000,172907852,0,3,471070800,2245,13,0.78,39.8045797,32.3800608,747.22,7.08,74.79026,-0.788,0,1
20677,2023-01-20 10:50:53.000000,2023-01-20 10:50:53.000000,173107856,0,3,471071000,2245,13,0.78,39.8045824,32.3800764,747.28,6.748,76.35653,-0.476,0,1
20743,2023-01-20 10:50:53.200000,2023-01-20 10:50:53.200000,173307777,0,3,471071200,2245,13,0.78,39.8045849,32.3800921,747.32,7.102,77.17367,-0.347,0,1
20806,2023-01-20 10:50:53.400000,2023-01-20 10:50:53.400000,173507750,0,3,471071400,2245,13,0.78,39.8045874,32.3801088,747.07,7.34,76.16322,0.17,0,1
20874,2023-01-20 10:50:53.600000,2023-01-20 10:50:53.600000,173707847,0,3,471071600,2245,13,0.78,39.8045899,32.3801262,746.67,7.771,76.95951,0.8470001,0,1
20940,2023-01-20 10:50:53.800000,2023-01-20 10:50:53.800000,173907720,0,3,471071800,2245,13,0.78,39.8045924,32.3801446,746.01,8.254001,74.5331,1.644,0,1
21006,2023-01-20 10:50:54.000000,2023-01-20 10:50:54.000000,174107855,0,3,471072000,2245,13,0.78,39.8045958,32.3801619,745.77,7.121,75.40721,0.624,0,1
21072,2023-01-20 10:50:54.200000,2023-01-20 10:50:54.200000,174327894,0,3,471072200,2245,13,0.78,39.8045992,32.380178,745.74,7.373,74.91572,0.548,0,1
21135,2023-01-20 10:50:54.400000,2023-01-20 10:50:54.400000,174507744,0,3,471072400,2245,13,0.78,39.8046022,32.3801943,745.64,7.024,76.71444,0.402,0,1
21204,2023-01-20 10:50:54.600000,2023-01-20 10:50:54.600000,174707779,0,3,471072600,2245,13,0.78,39.8046055,32.3802102,745.75,7.181,76.53441,0.07700001,0,1
21269,2023-01-20 10:50:54.800000,2023-01-20 10:50:54.800000,174907848,0,3,471072800,2245,13,0.78,39.8046081,32.3802259,745.93,6.75,79.11874,-0.464,0,1
21333,2023-01-20 10:50:55.000000,2023-01-20 10:50:55.000000,175107865,0,3,471073000,2245,13,0.78,39.8046098,32.3802415,745.87,6.795001,79.69469,0.214,0,1
21399,2023-01-20 10:50:55.200000,2023-01-20 10:50:55.200000,175307776,0,3,471073200,2245,13,0.78,39.8046124,32.3802567,746,6.721,78.55344,-0.203,0,1
21462,2023-01-20 10:50:55.400000,2023-01-20 10:50:55.400000,175507876,0,3,471073400,2245,13,0.78,39.8046138,32.3802714,746.05,6.298,81.85954,-0.505,0,1
21530,2023-01-20 10:50:55.600000,2023-01-20 10:50:55.600000,175707751,0,3,471073600,2245,13,0.78,39.8046158,32.3802859,746.33,6.613,80.936,-0.435,0,1
21595,2023-01-20 10:50:55.800000,2023-01-20 10:50:55.800000,175907741,0,3,471073800,2245,13,0.78,39.8046187,32.3803007,746.7,6.75,78.60577,-0.8290001,0,1
21659,2023-01-20 10:50:56.000000,2023-01-20 10:50:56.000000,176107852,0,3,471074000,2245,13,0.78,39.8046211,32.3803159,746.97,6.804,79.53886,-0.936,0,1
21725,2023-01-20 10:50:56.200000,2023-01-20 10:50:56.200000,176307875,0,3,471074200,2245,13,0.78,39.8046236,32.3803311,747.2,6.727,76.93283,-1.089,0,1
21788,2023-01-20 10:50:56.400000,2023-01-20 10:50:56.400000,176527884,0,3,471074400,2245,13,0.78,39.8046264,32.3803459,747.47,6.626,77.13231,-0.717,0,1
21856,2023-01-20 10:50:56.600000,2023-01-20 10:50:56.600000,176727921,0,3,471074600,2245,13,0.78,39.8046297,32.3803608,747.73,6.849,75.23192,-0.597,0,1
21921,2023-01-20 10:50:56.800000,2023-01-20 10:50:56.800000,176927919,0,3,471074800,2245,13,0.78,39.8046329,32.3803762,747.91,7.057,75.0442,-0.665,0,1
21985,2023-01-20 10:50:57.000000,2023-01-20 10:50:57.000000,177128012,0,3,471075000,2245,13,0.78,39.8046364,32.3803919,748.13,7.082,73.8117,-0.817,0,1
22051,2023-01-20 10:50:57.200000,2023-01-20 10:50:57.200000,177307778,0,3,471075200,2245,13,0.78,39.80464,32.3804077,748.35,6.997,74.30708,-0.772,0,1
22114,2023-01-20 10:50:57.400000,2023-01-20 10:50:57.400000,177527925,0,3,471075400,2245,13,0.78,39.8046444,32.3804235,748.66,7.281,72.66247,-0.45,0,1
22182,2023-01-20 10:50:57.600000,2023-01-20 10:50:57.600000,177727987,0,3,471075600,2245,13,0.78,39.8046482,32.3804398,748.79,7.261,74.53461,-0.458,0,1
22247,2023-01-20 10:50:57.800000,2023-01-20 10:50:57.800000,177927951,0,3,471075800,2245,13,0.78,39.8046514,32.380456,748.82,6.854,74.90257,-0.528,0,1
22311,2023-01-20 10:50:58.000000,2023-01-20 10:50:58.000000,178128087,0,3,471076000,2245,13,0.78,39.8046558,32.3804719,749.1,7.27,73.75524,-0.331,0,1
22377,2023-01-20 10:50:58.200000,2023-01-20 10:50:58.200000,178328064,0,3,471076200,2245,13,0.78,39.8046593,32.3804886,749.07,7.374001,74.61017,0.036,0,1
22440,2023-01-20 10:50:58.400000,2023-01-20 10:50:58.400000,178528081,0,3,471076400,2245,13,0.78,39.804662,32.3805051,748.98,7.04,76.21077,-0.308,0,1
22508,2023-01-20 10:50:58.600000,2023-01-20 10:50:58.600000,178728019,0,3,471076600,2245,13,0.78,39.8046648,32.380522,748.93,7.314,77.08443,-0.266,0,1
22574,2023-01-20 10:50:58.800000,2023-01-20 10:50:58.800000,178928033,0,3,471076800,2245,13,0.78,39.8046679,32.3805387,748.92,7.343,76.0195,0.07600001,0,1
22640,2023-01-20 10:50:59.000000,2023-01-20 10:50:59.000000,179128133,0,3,471077000,2245,13,0.78,39.8046717,32.3805551,749.01,7.31,75.31344,0.028,0,1
22706,2023-01-20 10:50:59.200000,2023-01-20 10:50:59.200000,179328065,0,3,471077200,2245,13,0.78,39.804675,32.3805716,748.98,7.087,75.23304,-0.259,0,1
22769,2023-01-20 10:50:59.400000,2023-01-20 10:50:59.400000,179528071,0,3,471077400,2245,13,0.78,39.8046781,32.3805879,748.95,7.028,75.90238,-0.335,0,1
22837,2023-01-20 10:50:59.600000,2023-01-20 10:50:59.600000,179728117,0,3,471077600,2245,13,0.78,39.8046813,32.3806043,748.96,7.194,75.75799,-0.111,0,1
22902,2023-01-20 10:50:59.800000,2023-01-20 10:50:59.800000,179928008,0,3,471077800,2245,13,0.78,39.8046844,32.380621,748.87,7.304,75.80605,0.07700001,0,1
22966,2023-01-20 10:51:00.000000,2023-01-20 10:51:00.000000,180128110,0,3,471078000,2245,13,0.78,39.8046871,32.3806371,748.88,6.719,76.99998,-0.728,0,1
23032,2023-01-20 10:51:00.200000,2023-01-20 10:51:00.200000,180328127,0,3,471078200,2245,13,0.78,39.8046896,32.3806528,749.04,6.868001,78.57619,-0.7320001,0,1
23095,2023-01-20 10:51:00.400000,2023-01-20 10:51:00.400000,180528064,0,3,471078400,2245,13,0.78,39.8046921,32.3806685,749.25,6.777,78.50151,-0.771,0,1
23163,2023-01-20 10:51:00.600000,2023-01-20 10:51:00.600000,180728099,0,3,471078600,2245,13,0.78,39.8046938,32.3806843,749.22,6.584,79.90191,-0.95,0,1
23228,2023-01-20 10:51:00.800000,2023-01-20 10:51:00.800000,180928087,0,3,471078800,2245,13,0.78,39.8046957,32.3806994,749.39,6.511,79.89951,-0.8930001,0,1
23292,2023-01-20 10:51:01.000000,2023-01-20 10:51:01.000000,181128109,0,3,471079000,2245,13,0.78,39.8046979,32.3807147,749.45,6.753,78.8482,-0.7040001,0,1
23358,2023-01-20 10:51:01.200000,2023-01-20 10:51:01.200000,181328064,0,3,471079200,2245,13,0.78,39.8047002,32.3807305,749.38,6.962,77.59356,-0.664,0,1
23421,2023-01-20 10:51:01.400000,2023-01-20 10:51:01.400000,181528078,0,3,471079400,2245,13,0.78,39.8047037,32.380746,749.57,6.797,74.63428,-0.6440001,0,1
23489,2023-01-20 10:51:01.600000,2023-01-20 10:51:01.600000,181728070,0,3,471079600,2245,13,0.78,39.8047075,32.3807616,749.7,7.13,73.92461,-0.661,0,1
23554,2023-01-20 10:51:01.800000,2023-01-20 10:51:01.800000,181928075,0,3,471079800,2245,13,0.78,39.8047107,32.3807777,749.73,7.088,74.70521,-0.604,0,1
23618,2023-01-20 10:51:02.000000,2023-01-20 10:51:02.000000,182128136,0,3,471080000,2245,13,0.78,39.804714,32.380794,749.77,7.133,74.5021,-0.555,0,1
23684,2023-01-20 10:51:02.200000,2023-01-20 10:51:02.200000,182328108,0,3,471080200,2245,13,0.78,39.8047174,32.3808099,749.87,6.957,74.19673,-0.5560001,0,1
23747,2023-01-20 10:51:02.400000,2023-01-20 10:51:02.400000,182528061,0,3,471080400,2245,13,0.78,39.804721,32.3808258,750.02,7.157001,74.20672,-0.36,0,1
23815,2023-01-20 10:51:02.600000,2023-01-20 10:51:02.600000,182728101,0,3,471080600,2245,13,0.78,39.8047244,32.380842,750.08,7.05,74.40466,-0.292,0,1
23880,2023-01-20 10:51:02.800000,2023-01-20 10:51:02.800000,182928123,0,3,471080800,2245,13,0.78,39.8047287,32.3808578,750.34,7.285,72.71895,-0.234,0,1
23944,2023-01-20 10:51:03.000000,2023-01-20 10:51:03.000000,183128103,0,3,471081000,2245,13,0.78,39.8047324,32.3808739,750.42,7.074,74.05722,-0.347,0,1
24010,2023-01-20 10:51:03.200000,2023-01-20 10:51:03.200000,183328077,0,3,471081200,2245,13,0.78,39.8047357,32.3808901,750.47,7.245,73.87902,-0.307,0,1
24073,2023-01-20 10:51:03.400000,2023-01-20 10:51:03.400000,183528094,0,3,471081400,2245,13,0.78,39.8047389,32.3809057,750.55,6.799,74.66047,-0.56,0,1
24141,2023-01-20 10:51:03.600000,2023-01-20 10:51:03.600000,183728070,0,3,471081600,2245,13,0.78,39.8047412,32.3809211,750.61,6.659,77.18558,-0.5470001,0,1
24205,2023-01-20 10:51:03.800000,2023-01-20 10:51:03.800000,183928062,0,3,471081800,2245,13,0.78,39.8047442,32.3809365,750.87,7.032001,76.26477,-0.324,0,1
24272,2023-01-20 10:51:04.000000,2023-01-20 10:51:04.000000,184128130,0,3,471082000,2245,13,0.78,39.8047466,32.3809526,750.9,6.944,78.38165,-0.171,0,1
24338,2023-01-20 10:51:04.200000,2023-01-20 10:51:04.200000,184328062,0,3,471082200,2245,13,0.78,39.8047492,32.3809689,750.98,7.324,77.23844,-0.164,0,1
24401,2023-01-20 10:51:04.400000,2023-01-20 10:51:04.400000,184528066,0,3,471082400,2245,13,0.78,39.8047522,32.3809851,751.12,7.04,76.95169,-0.381,0,1
24472,2023-01-20 10:51:04.600000,2023-01-20 10:51:04.600000,184728112,0,3,471082600,2245,13,0.78,39.8047556,32.3810011,751.38,7.192,75.95993,-0.543,0,1
24537,2023-01-20 10:51:04.800000,2023-01-20 10:51:04.800000,184928109,0,3,471082800,2245,13,0.78,39.8047588,32.3810178,751.27,7.466001,74.27997,-0.148,0,1
24601,2023-01-20 10:51:05.000000,2023-01-20 10:51:05.000000,185128103,0,3,471083000,2245,13,0.78,39.8047621,32.3810342,751.42,7.042,75.53432,-0.702,0,1
24667,2023-01-20 10:51:05.200000,2023-01-20 10:51:05.200000,185328072,0,3,471083200,2245,13,0.78,39.8047652,32.3810505,751.56,7.167,75.06155,-0.592,0,1
24730,2023-01-20 10:51:05.400000,2023-01-20 10:51:05.400000,185528106,0,3,471083400,2245,13,0.78,39.8047688,32.3810666,751.72,7.13,73.9298,-0.574,0,1
24798,2023-01-20 10:51:05.600000,2023-01-20 10:51:05.600000,185728088,0,3,471083600,2245,13,0.78,39.8047727,32.3810828,751.91,7.296,73.01466,-0.572,0,1
24863,2023-01-20 10:51:05.800000,2023-01-20 10:51:05.800000,185928066,0,3,471083800,2245,13,0.78,39.8047766,32.381099,751.99,7.227,72.09975,-0.522,0,1
24927,2023-01-20 10:51:06.000000,2023-01-20 10:51:06.000000,186128095,0,3,471084000,2245,13,0.78,39.8047807,32.3811149,752.23,7.157001,72.70922,-0.301,0,1
24993,2023-01-20 10:51:06.200000,2023-01-20 10:51:06.200000,186328075,0,3,471084200,2245,13,0.78,39.8047841,32.381131,752.36,7.148,73.58266,-0.198,0,1
25056,2023-01-20 10:51:06.400000,2023-01-20 10:51:06.400000,186528105,0,3,471084400,2245,13,0.78,39.8047872,32.3811472,752.44,7.207,74.71723,0.034,0,1
25125,2023-01-20 10:51:06.600000,2023-01-20 10:51:06.600000,186747651,0,3,471084600,2245,13,0.78,39.8047899,32.3811631,752.69,6.975,77.64223,-0.365,0,1
25239,2023-01-20 10:51:06.800000,2023-01-20 10:51:06.800000,186947837,0,3,471084800,2245,13,0.78,39.8047922,32.3811787,752.87,6.813,77.42935,-0.559,0,1
25303,2023-01-20 10:51:07.000000,2023-01-20 10:51:07.000000,187147679,0,3,471085000,2245,13,0.78,39.8047954,32.3811942,753.06,6.938,75.71609,-0.145,0,1
25369,2023-01-20 10:51:07.200000,2023-01-20 10:51:07.200000,187347576,0,3,471085200,2245,13,0.78,39.8047985,32.3812096,753.22,6.839,75.57908,-0.404,0,1
25432,2023-01-20 10:51:07.400000,2023-01-20 10:51:07.400000,187547600,0,3,471085400,2245,13,0.78,39.8048014,32.3812254,753.48,7.153,76.57167,-0.515,0,1
25499,2023-01-20 10:51:07.600000,2023-01-20 10:51:07.600000,187728072,0,3,471085600,2245,13,0.78,39.8048044,32.381241,753.72,6.786,75.70338,-0.637,0,1
25565,2023-01-20 10:51:07.800000,2023-01-20 10:51:07.800000,187947624,0,3,471085800,2245,13,0.78,39.8048074,32.3812559,754.08,6.605,76.26797,-0.943,0,1
25629,2023-01-20 10:51:08.000000,2023-01-20 10:51:08.000000,188147710,0,3,471086000,2245,13,0.78,39.8048102,32.3812708,754.46,6.676,76.28121,-0.8150001,0,1
25695,2023-01-20 10:51:08.200000,2023-01-20 10:51:08.200000,188347737,0,3,471086200,2245,13,0.78,39.8048129,32.3812858,754.73,6.68,76.47946,-0.777,0,1
25758,2023-01-20 10:51:08.400000,2023-01-20 10:51:08.400000,188547733,0,3,471086400,2245,13,0.78,39.8048156,32.3813011,755.03,6.885,76.43176,-0.739,0,1
25826,2023-01-20 10:51:08.600000,2023-01-20 10:51:08.600000,188747853,0,3,471086600,2245,13,0.78,39.8048188,32.3813168,755.26,7.129,74.64894,-0.53,0,1
25891,2023-01-20 10:51:08.800000,2023-01-20 10:51:08.800000,188947846,0,3,471086800,2245,13,0.78,39.8048227,32.3813326,755.62,7.27,73.76701,-0.613,0,1
25958,2023-01-20 10:51:09.000000,2023-01-20 10:51:09.000000,189147844,0,3,471087000,2245,13,0.78,39.8048265,32.3813485,755.96,7.170001,73.69191,-0.848,0,1
26024,2023-01-20 10:51:09.200000,2023-01-20 10:51:09.200000,189347777,0,3,471087200,2245,13,0.78,39.80483,32.3813643,756.25,7.124001,73.98881,-0.657,0,1
26087,2023-01-20 10:51:09.400000,2023-01-20 10:51:09.400000,189547748,0,3,471087400,2245,13,0.78,39.8048335,32.3813802,756.46,7.167,73.90211,-0.8710001,0,1
26155,2023-01-20 10:51:09.600000,2023-01-20 10:51:09.600000,189747748,0,3,471087600,2245,13,0.78,39.8048365,32.3813964,756.58,7.131001,75.18996,-0.7690001,0,1
26220,2023-01-20 10:51:09.800000,2023-01-20 10:51:09.800000,189947737,0,3,471087800,2245,13,0.78,39.8048397,32.3814123,756.84,7.014,75.98527,-0.576,0,1
26284,2023-01-20 10:51:10.000000,2023-01-20 10:51:10.000000,190147857,0,3,471088000,2245,13,0.78,39.8048427,32.3814281,757.02,7.073,76.22173,-0.5420001,0,1
26350,2023-01-20 10:51:10.200000,2023-01-20 10:51:10.200000,190347820,0,3,471088200,2245,13,0.78,39.8048459,32.381444,757.25,7.182,76.43109,-0.35,0,1
26413,2023-01-20 10:51:10.400000,2023-01-20 10:51:10.400000,190547749,0,3,471088400,2245,13,0.78,39.8048488,32.3814601,757.43,7.129,77.65861,-0.239,0,1
26481,2023-01-20 10:51:10.600000,2023-01-20 10:51:10.600000,190747852,0,3,471088600,2245,13,0.78,39.804852,32.3814765,757.47,7.326,75.42467,0.08800001,0,1
26546,2023-01-20 10:51:10.800000,2023-01-20 10:51:10.800000,190947875,0,3,471088800,2245,13,0.78,39.8048555,32.3814926,757.59,7.11,76.2477,-0.231,0,1
26610,2023-01-20 10:51:11.000000,2023-01-20 10:51:11.000000,191147847,0,3,471089000,2245,13,0.78,39.8048586,32.3815085,757.69,7.021,76.47131,0.004,0,1
26676,2023-01-20 10:51:11.200000,2023-01-20 10:51:11.200000,191347823,0,3,471089200,2245,13,0.78,39.8048619,32.3815241,757.86,7.045001,76.06511,-0.285,0,1
26739,2023-01-20 10:51:11.400000,2023-01-20 10:51:11.400000,191547845,0,3,471089400,2245,13,0.78,39.8048658,32.3815399,758.17,7.224,75.88499,0.08800001,0,1
26807,2023-01-20 10:51:11.600000,2023-01-20 10:51:11.600000,191747744,0,3,471089600,2245,13,0.78,39.8048691,32.381556,758.19,7.001,75.77756,0.003,0,1
26872,2023-01-20 10:51:11.800000,2023-01-20 10:51:11.800000,191947744,0,3,471089800,2245,13,0.78,39.8048728,32.3815714,758.4,6.923,74.51101,-0.38,0,1
26936,2023-01-20 10:51:12.000000,2023-01-20 10:51:12.000000,192147863,0,3,471090000,2245,13,0.78,39.8048763,32.3815868,758.59,6.895,74.77648,-0.708,0,1
27002,2023-01-20 10:51:12.200000,2023-01-20 10:51:12.200000,192347823,0,3,471090200,2245,13,0.78,39.8048797,32.3816023,758.79,6.952,74.30945,-0.864,0,1
27065,2023-01-20 10:51:12.400000,2023-01-20 10:51:12.400000,192547746,0,3,471090400,2245,13,0.78,39.8048832,32.3816178,759.01,6.907001,74.59765,-0.979,0,1
27133,2023-01-20 10:51:12.600000,2023-01-20 10:51:12.600000,192747859,0,3,471090600,2245,13,0.78,39.8048868,32.3816335,759.26,7.073,73.89219,-0.978,0,1
27198,2023-01-20 10:51:12.800000,2023-01-20 10:51:12.800000,192947730,0,3,471090800,2245,13,0.78,39.8048901,32.3816493,759.4,6.986001,74.29726,-0.765,0,1
27262,2023-01-20 10:51:13.000000,2023-01-20 10:51:13.000000,193147851,0,3,471091000,2245,13,0.78,39.8048935,32.3816649,759.6,7.015,74.66559,-0.504,0,1
27328,2023-01-20 10:51:13.200000,2023-01-20 10:51:13.200000,193347831,0,3,471091200,2245,13,0.78,39.8048967,32.3816805,759.74,6.875,75.38309,-0.312,0,1
27391,2023-01-20 10:51:13.400000,2023-01-20 10:51:13.400000,193547844,0,3,471091400,2245,13,0.78,39.8048995,32.3816961,759.78,6.934,75.85876,-0.059,0,1
27459,2023-01-20 10:51:13.600000,2023-01-20 10:51:13.600000,193747722,0,3,471091600,2245,13,0.78,39.804903,32.3817116,760.08,7.05,76.42426,-0.352,0,1
27524,2023-01-20 10:51:13.800000,2023-01-20 10:51:13.800000,193947773,0,3,471091800,2245,13,0.78,39.8049061,32.3817271,760.33,6.862,76.50471,-0.473,0,1
27590,2023-01-20 10:51:14.000000,2023-01-20 10:51:14.000000,194147896,0,3,471092000,2245,13,0.78,39.8049093,32.3817426,760.44,6.947001,75.53072,-0.276,0,1
27657,2023-01-20 10:51:14.200000,2023-01-20 10:51:14.200000,194347784,0,3,471092200,2245,13,0.78,39.8049133,32.3817583,760.59,7.228,74.10636,-0.238,0,1
27720,2023-01-20 10:51:14.400000,2023-01-20 10:51:14.400000,194547745,0,3,471092400,2245,13,0.78,39.804917,32.3817742,760.81,6.994,75.10882,-0.6,0,1
27789,2023-01-20 10:51:14.600000,2023-01-20 10:51:14.600000,194747864,0,3,471092600,2245,13,0.78,39.8049206,32.38179,761.08,7.125,75.23906,-0.683,0,1
27854,2023-01-20 10:51:14.800000,2023-01-20 10:51:14.800000,194947726,0,3,471092800,2245,13,0.78,39.8049243,32.3818058,761.35,7.07,75.08793,-0.697,0,1
27918,2023-01-20 10:51:15.000000,2023-01-20 10:51:15.000000,195147844,0,3,471093000,2245,13,0.78,39.8049286,32.3818214,761.63,7.212,73.13295,-0.493,0,1
27984,2023-01-20 10:51:15.200000,2023-01-20 10:51:15.200000,195347825,0,3,471093200,2245,13,0.78,39.8049332,32.3818372,761.92,7.261,72.06505,-0.472,0,1
28047,2023-01-20 10:51:15.400000,2023-01-20 10:51:15.400000,195547744,0,3,471093400,2245,13,0.78,39.8049362,32.3818531,761.98,6.968,74.86213,-0.8100001,0,1
