LineNo,UTC_Approx,TimeUS,I,MagX,MagY,MagZ,OfsX,OfsY,OfsZ,MOX,MOY,MOZ,Health,S
323,2023-01-20 10:49:56.254729,116243292,0,-163,98,295,-236,6,-63,0,0,0,1,116243288
938,2023-01-20 10:49:56.345748,116343363,0,-161,98,296,-236,6,-63,0,0,0,1,116343359
1103,2023-01-20 10:49:56.445963,116448561,0,-162,98,293,-236,6,-63,0,0,0,1,116448558
1312,2023-01-20 10:49:56.559882,116561460,0,-163,98,295,-236,6,-63,0,0,0,1,116561457
1518,2023-01-20 10:49:56.660774,116662222,0,-162,97,295,-236,6,-63,0,0,0,1,116662218
1865,2023-01-20 10:49:56.760395,116762217,0,-162,98,295,-236,6,-63,0,0,0,1,116762213
1911,2023-01-20 10:49:56.860189,116862160,0,-163,99,295,-236,6,-63,0,0,0,1,116862156
1958,2023-01-20 10:49:56.960179,116962151,0,-163,98,295,-236,6,-63,0,0,0,1,116962147
2006,2023-01-20 10:49:57.060257,117062217,0,-162,98,295,-236,6,-63,0,0,0,1,117062213
2052,2023-01-20 10:49:57.160208,117162147,0,-163,97,296,-236,6,-63,0,0,0,1,117162143
2103,2023-01-20 10:49:57.266862,117262154,0,-163,98,296,-236,6,-63,0,0,0,1,117262150
2163,2023-01-20 10:49:57.378005,117362260,0,-163,97,295,-236,6,-63,0,0,0,1,117362256
2220,2023-01-20 10:49:57.472509,117461827,0,-164,97,295,-236,6,-63,0,0,0,1,117461824
2276,2023-01-20 10:49:57.563441,117561847,0,-163,97,296,-236,6,-63,0,0,0,1,117561844
2333,2023-01-20 10:49:57.659832,117661905,0,-164,99,294,-236,6,-63,0,0,0,1,117661901
2388,2023-01-20 10:49:57.759780,117761875,0,-163,97,294,-236,6,-63,0,0,0,1,117761872
2435,2023-01-20 10:49:57.859748,117861870,0,-164,98,296,-236,6,-63,0,0,0,1,117861866
2478,2023-01-20 10:49:57.959683,117961835,0,-163,98,294,-236,6,-63,0,0,0,1,117961832
2520,2023-01-20 10:49:58.059725,118061840,0,-163,98,294,-236,6,-63,0,0,0,1,118061837
2559,2023-01-20 10:49:58.159769,118161801,0,-164,98,295,-236,6,-63,0,0,0,1,118161777
2602,2023-01-20 10:49:58.259842,118261859,0,-164,98,295,-236,6,-63,0,0,0,1,118261855
2640,2023-01-20 10:49:58.359879,118361927,0,-169,98,298,-236,6,-63,0,0,0,1,118361924
2681,2023-01-20 10:49:58.459806,118461867,0,-168,99,298,-236,6,-63,0,0,0,1,118461863
2718,2023-01-20 10:49:58.559802,118561865,0,-164,99,297,-236,6,-63,0,0,0,1,118561861
2762,2023-01-20 10:49:58.659811,118661891,0,-163,98,296,-236,6,-63,0,0,0,1,118661887
2802,2023-01-20 10:49:58.759757,118761863,0,-163,97,296,-236,6,-63,0,0,0,1,118761859
2846,2023-01-20 10:49:58.860000,118862116,0,-163,97,295,-236,6,-63,0,0,0,1,118862112
2884,2023-01-20 10:49:58.959735,118961850,0,-163,98,295,-236,6,-63,0,0,0,1,118961846
2925,2023-01-20 10:49:59.059796,119061894,0,-164,100,297,-236,6,-63,0,0,0,1,119061890
2962,2023-01-20 10:49:59.159789,119161861,0,-174,104,299,-236,6,-63,0,0,0,1,119161858
3005,2023-01-20 10:49:59.259815,119261877,0,-169,101,299,-236,6,-63,0,0,0,1,119261873
3043,2023-01-20 10:49:59.359865,119361928,0,-167,101,298,-236,6,-63,0,0,0,1,119361925
3082,2023-01-20 10:49:59.459791,119461857,0,-167,100,297,-236,6,-63,0,0,0,1,119461853
3120,2023-01-20 10:49:59.559787,119561857,0,-168,99,295,-236,6,-63,0,0,0,1,119561853
3162,2023-01-20 10:49:59.659824,119661907,0,-167,102,297,-236,6,-63,0,0,0,1,119661904
3203,2023-01-20 10:49:59.759754,119761856,0,-162,102,296,-236,6,-63,0,0,0,1,119761852
3244,2023-01-20 10:49:59.859758,119861870,0,-169,101,297,-236,6,-63,0,0,0,1,119861866
3282,2023-01-20 10:49:59.959742,119961859,0,-168,102,298,-236,6,-63,0,0,0,1,119961855
3322,2023-01-20 10:50:00.059759,120061862,0,-168,101,298,-236,6,-63,0,0,0,1,120061850
3360,2023-01-20 10:50:00.159779,120161855,0,-169,99,297,-236,6,-63,0,0,0,1,120161851
3403,2023-01-20 10:50:00.259779,120261849,0,-165,101,297,-236,6,-63,0,0,0,1,120261845
3440,2023-01-20 10:50:00.359785,120361863,0,-164,101,296,-236,6,-63,0,0,0,1,120361857
3482,2023-01-20 10:50:00.459792,120461869,0,-166,99,299,-236,6,-63,0,0,0,1,120461865
3519,2023-01-20 10:50:00.559795,120561865,0,-166,102,295,-236,6,-63,0,0,0,1,120561861
3563,2023-01-20 10:50:00.659838,120661912,0,-167,100,298,-236,6,-63,0,0,0,1,120661904
3602,2023-01-20 10:50:00.759790,120761876,0,-170,102,297,-236,6,-63,0,0,0,1,120761873
3644,2023-01-20 10:50:00.859771,120861873,0,-165,103,297,-236,6,-63,0,0,0,1,120861869
3681,2023-01-20 10:50:00.959748,120961868,0,-165,100,298,-236,6,-63,0,0,0,1,120961865
3714,2023-01-20 10:50:01.059739,121061863,0,-166,101,298,-236,6,-63,0,0,0,1,121061860
3744,2023-01-20 10:50:01.159786,121161903,0,-166,101,297,-236,6,-63,0,0,0,1,121161900
3779,2023-01-20 10:50:01.259762,121261909,0,-174,103,299,-236,6,-63,0,0,0,1,121261906
3809,2023-01-20 10:50:01.359719,121361920,0,-187,112,307,-236,6,-63,0,0,0,1,121361916
3842,2023-01-20 10:50:01.459712,121461904,0,-202,117,322,-236,6,-63,0,0,0,1,121461900
3872,2023-01-20 10:50:01.559769,121561910,0,-212,126,317,-236,6,-63,0,0,0,1,121561906
3908,2023-01-20 10:50:01.659788,121661907,0,-236,131,334,-236,6,-63,0,0,0,1,121661903
3940,2023-01-20 10:50:01.759793,121761910,0,-256,134,342,-236,6,-63,0,0,0,1,121761906
3974,2023-01-20 10:50:01.859831,121861992,0,-246,149,338,-236,6,-63,0,0,0,1,121861988
4005,2023-01-20 10:50:01.959699,121961936,0,-272,162,348,-236,6,-63,0,0,0,1,121961932
4038,2023-01-20 10:50:02.059713,122061941,0,-279,169,345,-236,6,-63,0,0,0,1,122061938
4068,2023-01-20 10:50:02.159816,122161977,0,-247,166,339,-236,6,-63,0,0,0,1,122161973
4103,2023-01-20 10:50:02.259797,122261933,0,-248,165,329,-236,6,-63,0,0,0,1,122261929
4133,2023-01-20 10:50:02.359801,122361939,0,-253,153,330,-236,6,-63,0,0,0,1,122361935
4166,2023-01-20 10:50:02.459603,122461980,0,-237,160,332,-236,6,-63,0,0,0,1,122461976
4196,2023-01-20 10:50:02.559159,122561933,0,-230,159,329,-236,6,-63,0,0,0,1,122561930
4233,2023-01-20 10:50:02.659008,122661923,0,-230,156,335,-236,6,-63,0,0,0,1,122661919
4265,2023-01-20 10:50:02.759117,122761995,0,-229,167,332,-236,6,-63,0,0,0,1,122761991
4299,2023-01-20 10:50:02.859074,122861952,0,-233,172,328,-236,6,-63,0,0,0,1,122861949
4330,2023-01-20 10:50:02.959031,122961934,0,-246,172,338,-236,6,-63,0,0,0,1,122961930
4363,2023-01-20 10:50:03.059064,123061978,0,-248,173,338,-236,6,-63,0,0,0,1,123061975
4393,2023-01-20 10:50:03.159002,123161918,0,-242,174,335,-236,6,-63,0,0,0,1,123161914
4428,2023-01-20 10:50:03.259012,123261926,0,-244,179,322,-236,6,-63,0,0,0,1,123261922
4458,2023-01-20 10:50:03.359065,123361973,0,-244,185,322,-236,6,-63,0,0,0,1,123361969
4491,2023-01-20 10:50:03.459024,123461922,0,-262,180,329,-236,6,-63,0,0,0,1,123461918
4521,2023-01-20 10:50:03.559052,123561937,0,-256,188,327,-236,6,-63,0,0,0,1,123561934
4557,2023-01-20 10:50:03.659052,123661933,0,-258,199,321,-236,6,-63,0,0,0,1,123661929
4589,2023-01-20 10:50:03.759054,123761939,0,-262,200,335,-236,6,-63,0,0,0,1,123761935
4623,2023-01-20 10:50:03.859451,123862152,0,-248,210,325,-236,6,-63,0,0,0,1,123862145
4655,2023-01-20 10:50:03.959865,123962255,0,-265,200,321,-236,6,-63,0,0,0,1,123962251
4688,2023-01-20 10:50:04.060069,124062293,0,-253,197,328,-236,6,-63,0,0,0,1,124062289
4718,2023-01-20 10:50:04.160146,124162303,0,-252,180,329,-236,6,-63,0,0,0,1,124162300
4753,2023-01-20 10:50:04.260124,124262257,0,-245,162,332,-236,6,-63,0,0,0,1,124262254
4783,2023-01-20 10:50:04.360151,124362288,0,-247,148,346,-236,6,-63,0,0,0,1,124362284
4816,2023-01-20 10:50:04.460110,124462273,0,-240,135,339,-236,6,-63,0,0,0,1,124462269
4846,2023-01-20 10:50:04.560067,124562270,0,-245,143,346,-236,6,-63,0,0,0,1,124562267
4883,2023-01-20 10:50:04.660068,124662261,0,-245,149,341,-236,6,-63,0,0,0,1,124662257
4915,2023-01-20 10:50:04.760165,124762316,0,-249,166,348,-236,6,-63,0,0,0,1,124762312
4949,2023-01-20 10:50:04.859729,124861891,0,-253,153,350,-236,6,-63,0,0,0,1,124861887
4979,2023-01-20 10:50:04.959730,124961940,0,-249,163,334,-236,6,-63,0,0,0,1,124961936
5012,2023-01-20 10:50:05.059820,125062020,0,-250,159,335,-236,6,-63,0,0,0,1,125062016
5042,2023-01-20 10:50:05.159781,125161933,0,-248,152,331,-236,6,-63,0,0,0,1,125161930
5077,2023-01-20 10:50:05.259797,125261932,0,-249,160,337,-236,6,-63,0,0,0,1,125261928
5107,2023-01-20 10:50:05.359811,125361951,0,-246,157,336,-236,6,-63,0,0,0,1,125361947
5140,2023-01-20 10:50:05.459805,125461939,0,-255,163,330,-236,6,-63,0,0,0,1,125461935
5170,2023-01-20 10:50:05.559809,125561929,0,-243,170,324,-236,6,-63,0,0,0,1,125561925
5207,2023-01-20 10:50:05.659820,125661933,0,-242,174,327,-236,6,-63,0,0,0,1,125661929
5239,2023-01-20 10:50:05.759835,125761945,0,-251,164,340,-236,6,-63,0,0,0,1,125761941
5273,2023-01-20 10:50:05.854383,125861920,0,-234,161,343,-236,6,-63,0,0,0,1,125861916
5303,2023-01-20 10:50:05.945314,125961926,0,-234,156,344,-236,6,-63,0,0,0,1,125961923
5336,2023-01-20 10:50:06.039886,126061942,0,-230,157,343,-236,6,-63,0,0,0,1,126061938
5366,2023-01-20 10:50:06.139918,126161938,0,-243,153,348,-236,6,-63,0,0,0,1,126161935
5401,2023-01-20 10:50:06.239440,126261931,0,-245,144,347,-236,6,-63,0,0,0,1,126261927
5433,2023-01-20 10:50:06.338228,126361954,0,-244,142,361,-236,6,-63,0,0,0,1,126361950
5466,2023-01-20 10:50:06.437395,126461898,0,-238,133,350,-236,6,-63,0,0,0,1,126461894
5496,2023-01-20 10:50:06.537426,126561941,0,-235,133,340,-236,6,-63,0,0,0,1,126561937
5532,2023-01-20 10:50:06.637350,126661897,0,-229,135,352,-236,6,-63,0,0,0,1,126661894
5564,2023-01-20 10:50:06.737293,126761905,0,-214,132,349,-236,6,-63,0,0,0,1,126761901
5598,2023-01-20 10:50:06.837468,126862154,0,-215,135,352,-236,6,-63,0,0,0,1,126862150
5628,2023-01-20 10:50:06.937348,126962123,0,-217,145,351,-236,6,-63,0,0,0,1,126962119
5661,2023-01-20 10:50:07.037315,127062153,0,-233,141,355,-236,6,-63,0,0,0,1,127062150
5691,2023-01-20 10:50:07.137280,127162136,0,-236,135,355,-236,6,-63,0,0,0,1,127162132
5726,2023-01-20 10:50:07.237304,127262148,0,-238,142,352,-236,6,-63,0,0,0,1,127262144
5756,2023-01-20 10:50:07.337429,127362209,0,-235,142,362,-236,6,-63,0,0,0,1,127362205
5789,2023-01-20 10:50:07.437358,127462131,0,-227,144,352,-236,6,-63,0,0,0,1,127462128
5819,2023-01-20 10:50:07.537294,127562154,0,-245,137,355,-236,6,-63,0,0,0,1,127562151
5855,2023-01-20 10:50:07.641521,127662229,0,-237,151,349,-236,6,-63,0,0,0,1,127662225
5887,2023-01-20 10:50:07.752711,127762154,0,-254,146,352,-236,6,-63,0,0,0,1,127762151
5921,2023-01-20 10:50:07.852180,127862127,0,-244,146,354,-236,6,-63,0,0,0,1,127862123
5952,2023-01-20 10:50:07.942970,127962131,0,-235,151,352,-236,6,-63,0,0,0,1,127962127
5986,2023-01-20 10:50:08.037305,128062260,0,-235,149,354,-236,6,-63,0,0,0,1,128062256
6016,2023-01-20 10:50:08.137167,128162140,0,-237,146,356,-236,6,-63,0,0,0,1,128162136
6051,2023-01-20 10:50:08.237181,128262150,0,-247,163,358,-236,6,-63,0,0,0,1,128262147
6081,2023-01-20 10:50:08.337229,128362156,0,-248,167,344,-236,6,-63,0,0,0,1,128362152
6114,2023-01-20 10:50:08.437239,128462142,0,-257,161,344,-236,6,-63,0,0,0,1,128462138
6144,2023-01-20 10:50:08.537229,128562139,0,-257,175,336,-236,6,-63,0,0,0,1,128562136
6180,2023-01-20 10:50:08.637226,128662143,0,-248,174,344,-236,6,-63,0,0,0,1,128662140
6212,2023-01-20 10:50:08.737315,128762241,0,-248,172,345,-236,6,-63,0,0,0,1,128762238
6246,2023-01-20 10:50:08.836966,128861861,0,-249,171,355,-236,6,-63,0,0,0,1,128861857
6279,2023-01-20 10:50:08.937067,128961864,0,-238,166,347,-236,6,-63,0,0,0,1,128961858
6312,2023-01-20 10:50:09.037143,129061864,0,-230,157,341,-236,6,-63,0,0,0,1,129061860
6342,2023-01-20 10:50:09.137191,129161873,0,-234,150,352,-236,6,-63,0,0,0,1,129161869
6377,2023-01-20 10:50:09.237165,129261890,0,-248,156,349,-236,6,-63,0,0,0,1,129261886
6407,2023-01-20 10:50:09.336998,129361903,0,-245,151,343,-236,6,-63,0,0,0,1,129361899
6440,2023-01-20 10:50:09.436749,129462220,0,-245,153,333,-236,6,-63,0,0,0,1,129462216
6470,2023-01-20 10:50:09.535527,129562218,0,-258,160,317,-236,6,-63,0,0,0,1,129562214
6506,2023-01-20 10:50:09.634750,129662237,0,-264,170,318,-236,6,-63,0,0,0,1,129662234
6538,2023-01-20 10:50:09.734801,129762289,0,-259,176,301,-236,6,-63,0,0,0,1,129762285
6572,2023-01-20 10:50:09.834748,129862245,0,-259,178,309,-236,6,-63,0,0,0,1,129862241
6603,2023-01-20 10:50:09.934711,129962230,0,-246,181,309,-236,6,-63,0,0,0,1,129962226
6636,2023-01-20 10:50:10.034767,130062291,0,-253,183,312,-236,6,-63,0,0,0,1,130062288
6666,2023-01-20 10:50:10.134734,130162233,0,-251,183,315,-236,6,-63,0,0,0,1,130162229
6701,2023-01-20 10:50:10.234658,130262231,0,-242,181,319,-236,6,-63,0,0,0,1,130262228
6731,2023-01-20 10:50:10.334397,130362228,0,-229,185,317,-236,6,-63,0,0,0,1,130362225
6764,2023-01-20 10:50:10.434521,130462531,0,-239,183,322,-236,6,-63,0,0,0,1,130462527
6794,2023-01-20 10:50:10.534496,130562533,0,-246,180,325,-236,6,-63,0,0,0,1,130562530
6830,2023-01-20 10:50:10.634481,130662542,0,-255,189,316,-236,6,-63,0,0,0,1,130662538
6862,2023-01-20 10:50:10.734511,130762590,0,-273,184,309,-236,6,-63,0,0,0,1,130762586
6895,2023-01-20 10:50:10.834428,130862549,0,-300,185,289,-236,6,-63,0,0,0,1,130862545
6925,2023-01-20 10:50:10.934333,130962543,0,-307,182,292,-236,6,-63,0,0,0,1,130962539
6958,2023-01-20 10:50:11.034355,131062593,0,-307,177,292,-236,6,-63,0,0,0,1,131062587
6988,2023-01-20 10:50:11.134366,131162518,0,-291,171,298,-236,6,-63,0,0,0,1,131162514
7024,2023-01-20 10:50:11.234417,131262514,0,-288,167,307,-236,6,-63,0,0,0,1,131262510
7054,2023-01-20 10:50:11.334412,131362516,0,-282,164,311,-236,6,-63,0,0,0,1,131362512
7087,2023-01-20 10:50:11.434426,131462533,0,-282,163,311,-236,6,-63,0,0,0,1,131462529
7117,2023-01-20 10:50:11.534420,131562521,0,-289,152,313,-236,6,-63,0,0,0,1,131562518
7153,2023-01-20 10:50:11.634445,131662542,0,-275,159,314,-236,6,-63,0,0,0,1,131662538
7185,2023-01-20 10:50:11.734433,131762531,0,-280,146,317,-236,6,-63,0,0,0,1,131762527
7219,2023-01-20 10:50:11.834410,131862534,0,-266,152,315,-236,6,-63,0,0,0,1,131862530
7249,2023-01-20 10:50:11.934343,131962542,0,-264,152,312,-236,6,-63,0,0,0,1,131962539
7282,2023-01-20 10:50:12.034369,132062589,0,-268,156,310,-236,6,-63,0,0,0,1,132062586
7312,2023-01-20 10:50:12.134389,132162528,0,-264,158,305,-236,6,-63,0,0,0,1,132162524
7347,2023-01-20 10:50:12.234435,132262522,0,-264,162,312,-236,6,-63,0,0,0,1,132262518
7377,2023-01-20 10:50:12.334416,132362507,0,-260,162,310,-236,6,-63,0,0,0,1,132362500
7410,2023-01-20 10:50:12.434417,132462512,0,-266,160,315,-236,6,-63,0,0,0,1,132462509
7440,2023-01-20 10:50:12.534411,132562514,0,-265,161,316,-236,6,-63,0,0,0,1,132562511
7476,2023-01-20 10:50:12.634429,132662534,0,-259,165,312,-236,6,-63,0,0,0,1,132662530
7508,2023-01-20 10:50:12.734427,132762521,0,-270,168,324,-236,6,-63,0,0,0,1,132762517
7542,2023-01-20 10:50:12.834439,132862551,0,-260,165,315,-236,6,-63,0,0,0,1,132862548
7572,2023-01-20 10:50:12.934348,132962534,0,-263,164,327,-236,6,-63,0,0,0,1,132962531
7606,2023-01-20 10:50:13.034369,133062578,0,-265,169,320,-236,6,-63,0,0,0,1,133062574
7636,2023-01-20 10:50:13.134398,133162533,0,-260,163,319,-236,6,-63,0,0,0,1,133162530
7671,2023-01-20 10:50:13.234438,133262525,0,-254,160,313,-236,6,-63,0,0,0,1,133262521
7701,2023-01-20 10:50:13.334407,133362497,0,-258,156,326,-236,6,-63,0,0,0,1,133362493
7734,2023-01-20 10:50:13.434442,133462534,0,-270,136,330,-236,6,-63,0,0,0,1,133462531
7764,2023-01-20 10:50:13.534446,133562537,0,-270,135,338,-236,6,-63,0,0,0,1,133562533
7800,2023-01-20 10:50:13.634442,133662534,0,-284,132,335,-236,6,-63,0,0,0,1,133662531
7832,2023-01-20 10:50:13.734436,133762529,0,-278,139,326,-236,6,-63,0,0,0,1,133762525
7866,2023-01-20 10:50:13.834423,133862546,0,-276,131,334,-236,6,-63,0,0,0,1,133862542
7898,2023-01-20 10:50:13.934323,133962528,0,-279,133,342,-236,6,-63,0,0,0,1,133962524
7931,2023-01-20 10:50:14.034333,134062568,0,-268,141,335,-236,6,-63,0,0,0,1,134062564
7961,2023-01-20 10:50:14.134355,134162516,0,-266,139,336,-236,6,-63,0,0,0,1,134162513
7996,2023-01-20 10:50:14.234408,134262518,0,-276,148,336,-236,6,-63,0,0,0,1,134262514
8026,2023-01-20 10:50:14.334434,134362537,0,-286,161,335,-236,6,-63,0,0,0,1,134362529
8059,2023-01-20 10:50:14.434449,134462547,0,-293,156,328,-236,6,-63,0,0,0,1,134462543
8089,2023-01-20 10:50:14.534428,134562526,0,-301,155,330,-236,6,-63,0,0,0,1,134562522
8126,2023-01-20 10:50:14.634438,134662536,0,-291,154,327,-236,6,-63,0,0,0,1,134662532
8158,2023-01-20 10:50:14.734441,134762539,0,-302,155,336,-236,6,-63,0,0,0,1,134762535
8192,2023-01-20 10:50:14.834406,134862533,0,-285,174,325,-236,6,-63,0,0,0,1,134862529
8222,2023-01-20 10:50:14.934299,134962510,0,-288,164,326,-236,6,-63,0,0,0,1,134962506
8255,2023-01-20 10:50:15.034322,135062566,0,-289,156,327,-236,6,-63,0,0,0,1,135062562
8285,2023-01-20 10:50:15.134329,135162508,0,-294,149,324,-236,6,-63,0,0,0,1,135162505
8320,2023-01-20 10:50:15.234397,135262526,0,-285,155,313,-236,6,-63,0,0,0,1,135262522
8350,2023-01-20 10:50:15.334417,135362526,0,-290,158,331,-236,6,-63,0,0,0,1,135362522
8383,2023-01-20 10:50:15.434426,135462523,0,-289,154,323,-236,6,-63,0,0,0,1,135462519
8413,2023-01-20 10:50:15.534434,135562534,0,-287,149,323,-236,6,-63,0,0,0,1,135562531
8449,2023-01-20 10:50:15.634431,135662532,0,-292,151,329,-236,6,-63,0,0,0,1,135662528
8481,2023-01-20 10:50:15.734420,135762519,0,-282,145,313,-236,6,-63,0,0,0,1,135762515
8515,2023-01-20 10:50:15.834424,135862532,0,-280,141,325,-236,6,-63,0,0,0,1,135862528
8545,2023-01-20 10:50:15.934397,135962536,0,-286,139,312,-236,6,-63,0,0,0,1,135962532
8578,2023-01-20 10:50:16.034410,136062558,0,-288,120,321,-236,6,-63,0,0,0,1,136062554
8608,2023-01-20 10:50:16.134409,136162526,0,-297,115,315,-236,6,-63,0,0,0,1,136162522
8643,2023-01-20 10:50:16.234400,136262516,0,-306,103,317,-236,6,-63,0,0,0,1,136262513
8673,2023-01-20 10:50:16.334348,136362518,0,-296,88,318,-236,6,-63,0,0,0,1,136362515
8706,2023-01-20 10:50:16.434379,136462565,0,-314,69,327,-236,6,-63,0,0,0,1,136462561
8736,2023-01-20 10:50:16.534389,136562517,0,-317,45,324,-236,6,-63,0,0,0,1,136562514
8772,2023-01-20 10:50:16.634438,136662529,0,-317,28,335,-236,6,-63,0,0,0,1,136662525
8804,2023-01-20 10:50:16.734439,136762532,0,-326,10,324,-236,6,-63,0,0,0,1,136762528
8838,2023-01-20 10:50:16.834441,136862544,0,-310,-8,323,-236,6,-63,0,0,0,1,136862540
8868,2023-01-20 10:50:16.934393,136962520,0,-309,-19,324,-236,6,-63,0,0,0,1,136962516
8901,2023-01-20 10:50:17.034419,137062551,0,-301,-30,324,-236,6,-63,0,0,0,1,137062547
8931,2023-01-20 10:50:17.134475,137162579,0,-285,-44,318,-236,6,-63,0,0,0,1,137162575
8966,2023-01-20 10:50:17.234425,137262513,0,-276,-60,314,-236,6,-63,0,0,0,1,137262509
8996,2023-01-20 10:50:17.334434,137362530,0,-299,-80,326,-236,6,-63,0,0,0,1,137362523
9029,2023-01-20 10:50:17.434429,137462527,0,-278,-80,323,-236,6,-63,0,0,0,1,137462523
9059,2023-01-20 10:50:17.534467,137562554,0,-264,-98,315,-236,6,-63,0,0,0,1,137562550
9095,2023-01-20 10:50:17.634452,137662532,0,-256,-114,318,-236,6,-63,0,0,0,1,137662528
9127,2023-01-20 10:50:17.734459,137762540,0,-246,-123,331,-236,6,-63,0,0,0,1,137762536
9161,2023-01-20 10:50:17.831399,137862552,0,-222,-140,315,-236,6,-63,0,0,0,1,137862549
9191,2023-01-20 10:50:17.922480,137962539,0,-220,-156,324,-236,6,-63,0,0,0,1,137962534
9224,2023-01-20 10:50:18.016495,138062526,0,-208,-172,334,-236,6,-63,0,0,0,1,138062523
9255,2023-01-20 10:50:18.127288,138162521,0,-190,-175,319,-236,6,-63,0,0,0,1,138162517
9290,2023-01-20 10:50:18.234446,138262578,0,-184,-187,329,-236,6,-63,0,0,0,1,138262570
9320,2023-01-20 10:50:18.334443,138362534,0,-163,-189,326,-236,6,-63,0,0,0,1,138362530
9353,2023-01-20 10:50:18.431403,138462535,0,-162,-206,331,-236,6,-63,0,0,0,1,138462531
9383,2023-01-20 10:50:18.522503,138562532,0,-143,-193,328,-236,6,-63,0,0,0,1,138562528
9419,2023-01-20 10:50:18.614927,138662529,0,-142,-205,328,-236,6,-63,0,0,0,1,138662525
9451,2023-01-20 10:50:18.714879,138762515,0,-143,-206,332,-236,6,-63,0,0,0,1,138762511
9485,2023-01-20 10:50:18.814849,138862519,0,-138,-206,326,-236,6,-63,0,0,0,1,138862516
9517,2023-01-20 10:50:18.914836,138962542,0,-133,-208,321,-236,6,-63,0,0,0,1,138962538
9550,2023-01-20 10:50:19.014809,139062541,0,-119,-198,317,-236,6,-63,0,0,0,1,139062537
9580,2023-01-20 10:50:19.114836,139162532,0,-118,-201,322,-236,6,-63,0,0,0,1,139162528
9615,2023-01-20 10:50:19.214846,139262516,0,-112,-208,333,-236,6,-63,0,0,0,1,139262512
9645,2023-01-20 10:50:19.314851,139362546,0,-113,-204,333,-236,6,-63,0,0,0,1,139362543
9678,2023-01-20 10:50:19.414806,139462531,0,-108,-199,334,-236,6,-63,0,0,0,1,139462527
9708,2023-01-20 10:50:19.514725,139562503,0,-110,-201,333,-236,6,-63,0,0,0,1,139562499
9744,2023-01-20 10:50:19.614694,139662517,0,-114,-207,340,-236,6,-63,0,0,0,1,139662513
9776,2023-01-20 10:50:19.714692,139762518,0,-122,-214,334,-236,6,-63,0,0,0,1,139762514
9810,2023-01-20 10:50:19.814685,139862516,0,-124,-205,342,-236,6,-63,0,0,0,1,139862513
9840,2023-01-20 10:50:19.914711,139962558,0,-131,-196,334,-236,6,-63,0,0,0,1,139962554
9873,2023-01-20 10:50:20.014668,140062528,0,-127,-201,332,-236,6,-63,0,0,0,1,140062524
9903,2023-01-20 10:50:20.114673,140162524,0,-126,-194,335,-236,6,-63,0,0,0,1,140162520
9938,2023-01-20 10:50:20.214712,140262545,0,-122,-196,328,-236,6,-63,0,0,0,1,140262541
9971,2023-01-20 10:50:20.314764,140362532,0,-117,-199,335,-236,6,-63,0,0,0,1,140362528
10004,2023-01-20 10:50:20.414845,140462560,0,-128,-192,330,-236,6,-63,0,0,0,1,140462556
10034,2023-01-20 10:50:20.514794,140562513,0,-138,-188,328,-236,6,-63,0,0,0,1,140562509
10070,2023-01-20 10:50:20.614793,140662510,0,-122,-184,335,-236,6,-63,0,0,0,1,140662506
10102,2023-01-20 10:50:20.714836,140762515,0,-128,-195,343,-236,6,-63,0,0,0,1,140762511
10136,2023-01-20 10:50:20.814850,140862515,0,-118,-195,334,-236,6,-63,0,0,0,1,140862511
10166,2023-01-20 10:50:20.914711,140962494,0,-119,-204,331,-236,6,-63,0,0,0,1,140962490
10199,2023-01-20 10:50:21.014664,141062541,0,-110,-209,325,-236,6,-63,0,0,0,1,141062537
10229,2023-01-20 10:50:21.114671,141162492,0,-109,-215,326,-236,6,-63,0,0,0,1,141162488
10264,2023-01-20 10:50:21.214722,141262500,0,-114,-216,318,-236,6,-63,0,0,0,1,141262496
10294,2023-01-20 10:50:21.314694,141362496,0,-110,-217,315,-236,6,-63,0,0,0,1,141362492
10327,2023-01-20 10:50:21.414683,141462501,0,-117,-212,319,-236,6,-63,0,0,0,1,141462497
10357,2023-01-20 10:50:21.514711,141562493,0,-104,-209,308,-236,6,-63,0,0,0,1,141562489
10393,2023-01-20 10:50:21.614730,141662490,0,-107,-213,303,-236,6,-63,0,0,0,1,141662486
10425,2023-01-20 10:50:21.714731,141762553,0,-88,-207,304,-236,6,-63,0,0,0,1,141762550
10459,2023-01-20 10:50:21.814646,141862522,0,-76,-216,301,-236,6,-63,0,0,0,1,141862518
10489,2023-01-20 10:50:21.914613,141962502,0,-54,-216,304,-236,6,-63,0,0,0,1,141962499
10522,2023-01-20 10:50:22.014624,142062518,0,-21,-218,307,-236,6,-63,0,0,0,1,142062514
10552,2023-01-20 10:50:22.114670,142162513,0,21,-212,299,-236,6,-63,0,0,0,1,142162510
10587,2023-01-20 10:50:22.214685,142262490,0,53,-212,316,-236,6,-63,0,0,0,1,142262486
10616,2023-01-20 10:50:22.314666,142362506,0,77,-190,329,-236,6,-63,0,0,0,1,142362502
10649,2023-01-20 10:50:22.414684,142462547,0,108,-176,320,-236,6,-63,0,0,0,1,142462543
10679,2023-01-20 10:50:22.514691,142562508,0,134,-166,310,-236,6,-63,0,0,0,1,142562504
10715,2023-01-20 10:50:22.614738,142662517,0,144,-160,306,-236,6,-63,0,0,0,1,142662513
10747,2023-01-20 10:50:22.714710,142762507,0,150,-159,300,-236,6,-63,0,0,0,1,142762503
10780,2023-01-20 10:50:22.814708,142862524,0,151,-163,296,-236,6,-63,0,0,0,1,142862521
10811,2023-01-20 10:50:22.914668,142962515,0,163,-160,288,-236,6,-63,0,0,0,1,142962512
10844,2023-01-20 10:50:23.014683,143062550,0,156,-167,289,-236,6,-63,0,0,0,1,143062546
10874,2023-01-20 10:50:23.114672,143162488,0,161,-169,285,-236,6,-63,0,0,0,1,143162485
10911,2023-01-20 10:50:23.214729,143262505,0,152,-169,284,-236,6,-63,0,0,0,1,143262501
10941,2023-01-20 10:50:23.314710,143362515,0,148,-170,273,-236,6,-63,0,0,0,1,143362511
10974,2023-01-20 10:50:23.414693,143462521,0,157,-170,268,-236,6,-63,0,0,0,1,143462518
11004,2023-01-20 10:50:23.514693,143562507,0,153,-174,270,-236,6,-63,0,0,0,1,143562504
11040,2023-01-20 10:50:23.614717,143662520,0,162,-169,279,-236,6,-63,0,0,0,1,143662516
11072,2023-01-20 10:50:23.714736,143762553,0,158,-168,274,-236,6,-63,0,0,0,1,143762549
11105,2023-01-20 10:50:23.814699,143862531,0,162,-162,270,-236,6,-63,0,0,0,1,143862528
11139,2023-01-20 10:50:23.914649,143962497,0,157,-169,274,-236,6,-63,0,0,0,1,143962494
11172,2023-01-20 10:50:24.014640,144062493,0,153,-184,264,-236,6,-63,0,0,0,1,144062489
11202,2023-01-20 10:50:24.114707,144162499,0,161,-190,253,-236,6,-63,0,0,0,1,144162495
11237,2023-01-20 10:50:24.214746,144262494,0,153,-186,269,-236,6,-63,0,0,0,1,144262491
11267,2023-01-20 10:50:24.314711,144362522,0,176,-189,258,-236,6,-63,0,0,0,1,144362519
11300,2023-01-20 10:50:24.414651,144462505,0,147,-197,265,-236,6,-63,0,0,0,1,144462501
11330,2023-01-20 10:50:24.514725,144562513,0,155,-201,252,-236,6,-63,0,0,0,1,144562509
11368,2023-01-20 10:50:24.614762,144662506,0,169,-201,251,-236,6,-63,0,0,0,1,144662502
11400,2023-01-20 10:50:24.714689,144762515,0,178,-198,250,-236,6,-63,0,0,0,1,144762511
11434,2023-01-20 10:50:24.814645,144862540,0,178,-195,249,-236,6,-63,0,0,0,1,144862536
11465,2023-01-20 10:50:24.914614,144962509,0,178,-201,256,-236,6,-63,0,0,0,1,144962506
11498,2023-01-20 10:50:25.014644,145062534,0,184,-202,253,-236,6,-63,0,0,0,1,145062528
11528,2023-01-20 10:50:25.114676,145162537,0,167,-206,262,-236,6,-63,0,0,0,1,145162533
11564,2023-01-20 10:50:25.214689,145262526,0,130,-209,292,-236,6,-63,0,0,0,1,145262522
11594,2023-01-20 10:50:25.314704,145362547,0,81,-210,297,-236,6,-63,0,0,0,1,145362543
11627,2023-01-20 10:50:25.414727,145462573,0,44,-208,295,-236,6,-63,0,0,0,1,145462569
11657,2023-01-20 10:50:25.514703,145562535,0,4,-209,312,-236,6,-63,0,0,0,1,145562531
11693,2023-01-20 10:50:25.614700,145662523,0,5,-201,309,-236,6,-63,0,0,0,1,145662520
11725,2023-01-20 10:50:25.714668,145762503,0,10,-212,302,-236,6,-63,0,0,0,1,145762499
11758,2023-01-20 10:50:25.814682,145862532,0,-16,-218,315,-236,6,-63,0,0,0,1,145862528
11790,2023-01-20 10:50:25.914639,145962512,0,-39,-208,318,-236,6,-63,0,0,0,1,145962508
11823,2023-01-20 10:50:26.014643,146062532,0,-56,-205,330,-236,6,-63,0,0,0,1,146062528
11853,2023-01-20 10:50:26.114668,146162519,0,-44,-196,319,-236,6,-63,0,0,0,1,146162516
11888,2023-01-20 10:50:26.214710,146262534,0,-32,-196,333,-236,6,-63,0,0,0,1,146262531
11918,2023-01-20 10:50:26.314680,146362540,0,-44,-190,330,-236,6,-63,0,0,0,1,146362536
11951,2023-01-20 10:50:26.414644,146462531,0,-28,-192,330,-236,6,-63,0,0,0,1,146462527
11981,2023-01-20 10:50:26.514663,146562520,0,-11,-198,324,-236,6,-63,0,0,0,1,146562517
12017,2023-01-20 10:50:26.614679,146662511,0,-8,-191,332,-236,6,-63,0,0,0,1,146662507
12049,2023-01-20 10:50:26.714682,146762519,0,-15,-185,344,-236,6,-63,0,0,0,1,146762516
12082,2023-01-20 10:50:26.814686,146862531,0,-10,-190,353,-236,6,-63,0,0,0,1,146862528
12113,2023-01-20 10:50:26.914641,146962510,0,4,-182,349,-236,6,-63,0,0,0,1,146962506
12146,2023-01-20 10:50:27.014658,147062547,0,27,-185,340,-236,6,-63,0,0,0,1,147062543
12176,2023-01-20 10:50:27.114663,147162542,0,37,-187,333,-236,6,-63,0,0,0,1,147162538
12211,2023-01-20 10:50:27.214666,147262535,0,48,-183,328,-236,6,-63,0,0,0,1,147262531
12241,2023-01-20 10:50:27.314689,147362543,0,40,-176,341,-236,6,-63,0,0,0,1,147362539
12274,2023-01-20 10:50:27.413359,147462517,0,41,-175,328,-236,6,-63,0,0,0,1,147462513
12304,2023-01-20 10:50:27.504384,147562512,0,8,-184,345,-236,6,-63,0,0,0,1,147562508
12337,2023-01-20 10:50:27.595415,147662514,0,19,-181,348,-236,6,-63,0,0,0,1,147662510
12372,2023-01-20 10:50:27.694976,147762534,0,40,-165,330,-236,6,-63,0,0,0,1,147762531
12403,2023-01-20 10:50:27.794974,147862540,0,44,-157,323,-236,6,-63,0,0,0,1,147862536
12437,2023-01-20 10:50:27.894950,147962577,0,31,-173,330,-236,6,-63,0,0,0,1,147962574
12468,2023-01-20 10:50:27.994847,148062538,0,35,-182,342,-236,6,-63,0,0,0,1,148062535
12500,2023-01-20 10:50:28.094865,148162535,0,26,-170,333,-236,6,-63,0,0,0,1,148162531
12533,2023-01-20 10:50:28.194886,148262531,0,22,-174,349,-236,6,-63,0,0,0,1,148262528
12566,2023-01-20 10:50:28.294914,148362534,0,41,-157,346,-236,6,-63,0,0,0,1,148362530
12597,2023-01-20 10:50:28.394963,148462558,0,44,-154,347,-236,6,-63,0,0,0,1,148462554
12629,2023-01-20 10:50:28.505322,148562510,0,40,-159,346,-236,6,-63,0,0,0,1,148562506
12664,2023-01-20 10:50:28.613364,148662520,0,37,-161,337,-236,6,-63,0,0,0,1,148662516
12697,2023-01-20 10:50:28.704366,148762522,0,49,-161,342,-236,6,-63,0,0,0,1,148762518
12728,2023-01-20 10:50:28.795387,148862545,0,42,-162,339,-236,6,-63,0,0,0,1,148862541
12763,2023-01-20 10:50:28.894810,148962532,0,44,-161,339,-236,6,-63,0,0,0,1,148962529
12794,2023-01-20 10:50:28.994703,149062539,0,44,-162,356,-236,6,-63,0,0,0,1,149062535
12826,2023-01-20 10:50:29.094770,149162561,0,53,-157,344,-236,6,-63,0,0,0,1,149162557
12860,2023-01-20 10:50:29.194781,149262518,0,69,-156,345,-236,6,-63,0,0,0,1,149262514
12892,2023-01-20 10:50:29.294725,149362521,0,47,-170,348,-236,6,-63,0,0,0,1,149362518
12923,2023-01-20 10:50:29.394660,149462520,0,40,-171,351,-236,6,-63,0,0,0,1,149462516
12955,2023-01-20 10:50:29.494668,149562514,0,52,-164,344,-236,6,-63,0,0,0,1,149562511
12988,2023-01-20 10:50:29.594681,149662507,0,59,-169,330,-236,6,-63,0,0,0,1,149662503
13023,2023-01-20 10:50:29.694687,149762521,0,62,-167,331,-236,6,-63,0,0,0,1,149762517
13054,2023-01-20 10:50:29.794708,149862551,0,54,-179,328,-236,6,-63,0,0,0,1,149862544
13087,2023-01-20 10:50:29.894656,149962520,0,58,-164,331,-236,6,-63,0,0,0,1,149962516
13118,2023-01-20 10:50:29.994659,150062546,0,67,-172,338,-236,6,-63,0,0,0,1,150062543
13150,2023-01-20 10:50:30.094677,150162533,0,63,-159,339,-236,6,-63,0,0,0,1,150162529
13183,2023-01-20 10:50:30.194715,150262537,0,51,-162,343,-236,6,-63,0,0,0,1,150262533
13215,2023-01-20 10:50:30.294751,150362570,0,65,-156,338,-236,6,-63,0,0,0,1,150362566
13246,2023-01-20 10:50:30.394695,150462513,0,72,-154,331,-236,6,-63,0,0,0,1,150462509
13278,2023-01-20 10:50:30.494681,150562504,0,54,-166,327,-236,6,-63,0,0,0,1,150562500
13312,2023-01-20 10:50:30.594696,150662525,0,51,-162,329,-236,6,-63,0,0,0,1,150662521
13347,2023-01-20 10:50:30.694704,150762535,0,54,-171,330,-236,6,-63,0,0,0,1,150762531
13378,2023-01-20 10:50:30.794744,150862577,0,58,-160,333,-236,6,-63,0,0,0,1,150862573
13411,2023-01-20 10:50:30.894663,150962528,0,50,-157,335,-236,6,-63,0,0,0,1,150962524
13442,2023-01-20 10:50:30.994659,151062557,0,55,-154,342,-236,6,-63,0,0,0,1,151062553
13474,2023-01-20 10:50:31.094692,151162509,0,69,-154,341,-236,6,-63,0,0,0,1,151162505
13507,2023-01-20 10:50:31.194800,151262529,0,68,-155,340,-236,6,-63,0,0,0,1,151262525
13539,2023-01-20 10:50:31.294819,151362590,0,63,-155,339,-236,6,-63,0,0,0,1,151362586
13570,2023-01-20 10:50:31.394700,151462521,0,77,-146,341,-236,6,-63,0,0,0,1,151462517
13602,2023-01-20 10:50:31.494669,151562512,0,75,-157,337,-236,6,-63,0,0,0,1,151562508
13635,2023-01-20 10:50:31.594653,151662515,0,73,-159,334,-236,6,-63,0,0,0,1,151662511
13670,2023-01-20 10:50:31.694662,151762513,0,83,-174,327,-236,6,-63,0,0,0,1,151762509
13701,2023-01-20 10:50:31.794759,151862597,0,81,-174,311,-236,6,-63,0,0,0,1,151862593
13735,2023-01-20 10:50:31.894668,151962527,0,99,-189,302,-236,6,-63,0,0,0,1,151962524
13766,2023-01-20 10:50:31.994651,152062533,0,95,-198,304,-236,6,-63,0,0,0,1,152062530
13798,2023-01-20 10:50:32.094674,152162531,0,94,-202,305,-236,6,-63,0,0,0,1,152162528
13831,2023-01-20 10:50:32.194699,152262529,0,84,-200,305,-236,6,-63,0,0,0,1,152262525
13863,2023-01-20 10:50:32.294708,152362531,0,88,-195,305,-236,6,-63,0,0,0,1,152362528
13894,2023-01-20 10:50:32.394693,152462509,0,86,-195,307,-236,6,-63,0,0,0,1,152462505
13926,2023-01-20 10:50:32.494711,152562551,0,86,-194,316,-236,6,-63,0,0,0,1,152562547
13959,2023-01-20 10:50:32.594644,152662509,0,81,-186,325,-236,6,-63,0,0,0,1,152662505
13994,2023-01-20 10:50:32.694676,152762529,0,79,-187,326,-236,6,-63,0,0,0,1,152762507
14025,2023-01-20 10:50:32.794745,152862585,0,74,-187,320,-236,6,-63,0,0,0,1,152862582
14058,2023-01-20 10:50:32.894661,152962520,0,68,-191,329,-236,6,-63,0,0,0,1,152962516
14089,2023-01-20 10:50:32.994668,153062548,0,68,-184,318,-236,6,-63,0,0,0,1,153062544
14121,2023-01-20 10:50:33.094677,153162532,0,63,-186,325,-236,6,-63,0,0,0,1,153162529
14154,2023-01-20 10:50:33.194702,153262528,0,62,-189,318,-236,6,-63,0,0,0,1,153262524
14186,2023-01-20 10:50:33.294725,153362546,0,56,-197,320,-236,6,-63,0,0,0,1,153362542
14218,2023-01-20 10:50:33.394708,153462525,0,65,-194,313,-236,6,-63,0,0,0,1,153462522
14250,2023-01-20 10:50:33.494693,153562514,0,61,-199,313,-236,6,-63,0,0,0,1,153562502
14285,2023-01-20 10:50:33.594690,153662516,0,58,-197,310,-236,6,-63,0,0,0,1,153662512
14320,2023-01-20 10:50:33.694678,153762510,0,55,-201,315,-236,6,-63,0,0,0,1,153762506
14351,2023-01-20 10:50:33.794742,153862581,0,64,-193,315,-236,6,-63,0,0,0,1,153862577
14385,2023-01-20 10:50:33.894675,153962539,0,51,-202,318,-236,6,-63,0,0,0,1,153962535
14416,2023-01-20 10:50:33.994645,154062536,0,59,-201,319,-236,6,-63,0,0,0,1,154062532
14448,2023-01-20 10:50:34.094648,154162527,0,58,-200,312,-236,6,-63,0,0,0,1,154162523
14481,2023-01-20 10:50:34.194671,154262536,0,58,-200,307,-236,6,-63,0,0,0,1,154262533
14513,2023-01-20 10:50:34.294696,154362537,0,49,-210,310,-236,6,-63,0,0,0,1,154362534
14544,2023-01-20 10:50:34.394728,154462545,0,53,-212,310,-236,6,-63,0,0,0,1,154462541
14576,2023-01-20 10:50:34.494738,154562519,0,58,-214,305,-236,6,-63,0,0,0,1,154562515
14610,2023-01-20 10:50:34.594780,154662525,0,55,-211,312,-236,6,-63,0,0,0,1,154662521
14645,2023-01-20 10:50:34.694731,154762520,0,60,-203,311,-236,6,-63,0,0,0,1,154762516
14676,2023-01-20 10:50:34.794708,154862547,0,61,-199,310,-236,6,-63,0,0,0,1,154862543
14712,2023-01-20 10:50:34.894657,154962529,0,64,-195,318,-236,6,-63,0,0,0,1,154962525
14743,2023-01-20 10:50:34.994668,155062573,0,72,-198,307,-236,6,-63,0,0,0,1,155062569
14775,2023-01-20 10:50:35.094685,155162511,0,70,-192,317,-236,6,-63,0,0,0,1,155162507
14808,2023-01-20 10:50:35.194766,155262506,0,59,-194,323,-236,6,-63,0,0,0,1,155262502
14840,2023-01-20 10:50:35.294779,155362517,0,74,-183,324,-236,6,-63,0,0,0,1,155362513
14871,2023-01-20 10:50:35.394797,155462538,0,72,-186,325,-236,6,-63,0,0,0,1,155462534
14903,2023-01-20 10:50:35.494788,155562528,0,80,-175,317,-236,6,-63,0,0,0,1,155562524
14936,2023-01-20 10:50:35.594809,155662548,0,75,-181,314,-236,6,-63,0,0,0,1,155662544
14971,2023-01-20 10:50:35.694734,155762492,0,86,-181,312,-236,6,-63,0,0,0,1,155762489
15002,2023-01-20 10:50:35.794746,155862525,0,100,-181,314,-236,6,-63,0,0,0,1,155862522
15035,2023-01-20 10:50:35.894677,155962496,0,109,-176,315,-236,6,-63,0,0,0,1,155962492
15066,2023-01-20 10:50:35.994731,156062591,0,105,-173,321,-236,6,-63,0,0,0,1,156062587
15098,2023-01-20 10:50:36.094700,156162507,0,121,-169,312,-236,6,-63,0,0,0,1,156162503
15131,2023-01-20 10:50:36.194858,156262607,0,107,-175,312,-236,6,-63,0,0,0,1,156262603
15163,2023-01-20 10:50:36.294731,156362523,0,109,-183,305,-236,6,-63,0,0,0,1,156362519
15194,2023-01-20 10:50:36.394696,156462536,0,109,-179,298,-236,6,-63,0,0,0,1,156462532
15226,2023-01-20 10:50:36.494709,156562498,0,110,-193,300,-236,6,-63,0,0,0,1,156562494
15259,2023-01-20 10:50:36.594820,156662553,0,118,-191,295,-236,6,-63,0,0,0,1,156662546
15294,2023-01-20 10:50:36.694746,156762472,0,128,-186,289,-236,6,-63,0,0,0,1,156762468
15325,2023-01-20 10:50:36.794887,156862609,0,129,-191,291,-236,6,-63,0,0,0,1,156862602
15358,2023-01-20 10:50:36.894683,156962493,0,114,-184,292,-236,6,-63,0,0,0,1,156962489
15389,2023-01-20 10:50:36.994674,157062577,0,132,-176,287,-236,6,-63,0,0,0,1,157062573
15421,2023-01-20 10:50:37.094676,157162508,0,154,-177,283,-236,6,-63,0,0,0,1,157162505
15454,2023-01-20 10:50:37.194802,157262554,0,140,-178,287,-236,6,-63,0,0,0,1,157262550
15486,2023-01-20 10:50:37.294775,157362520,0,138,-184,288,-236,6,-63,0,0,0,1,157362516
15517,2023-01-20 10:50:37.394807,157462550,0,141,-184,291,-236,6,-63,0,0,0,1,157462546
15549,2023-01-20 10:50:37.494802,157562530,0,139,-188,284,-236,6,-63,0,0,0,1,157562527
15582,2023-01-20 10:50:37.594831,157662544,0,147,-191,276,-236,6,-63,0,0,0,1,157662540
15617,2023-01-20 10:50:37.694767,157762493,0,149,-193,269,-236,6,-63,0,0,0,1,157762489
15648,2023-01-20 10:50:37.794828,157862569,0,143,-180,278,-236,6,-63,0,0,0,1,157862565
15682,2023-01-20 10:50:37.894733,157962516,0,157,-181,268,-236,6,-63,0,0,0,1,157962512
15713,2023-01-20 10:50:37.994729,158062555,0,160,-185,265,-236,6,-63,0,0,0,1,158062551
15745,2023-01-20 10:50:38.086171,158162513,0,158,-194,265,-236,6,-63,0,0,0,1,158162509
15778,2023-01-20 10:50:38.177178,158262512,0,157,-202,260,-236,6,-63,0,0,0,1,158262509
15810,2023-01-20 10:50:38.274951,158362538,0,140,-201,252,-236,6,-63,0,0,0,1,158362534
15841,2023-01-20 10:50:38.374930,158462515,0,150,-211,251,-236,6,-63,0,0,0,1,158462512
15874,2023-01-20 10:50:38.474891,158562500,0,169,-210,247,-236,6,-63,0,0,0,1,158562492
15908,2023-01-20 10:50:38.574853,158662493,0,142,-219,236,-236,6,-63,0,0,0,1,158662490
15943,2023-01-20 10:50:38.674831,158762483,0,152,-216,231,-236,6,-63,0,0,0,1,158762479
15974,2023-01-20 10:50:38.774889,158862546,0,170,-211,229,-236,6,-63,0,0,0,1,158862543
16009,2023-01-20 10:50:38.883060,158962499,0,145,-216,235,-236,6,-63,0,0,0,1,158962495
16040,2023-01-20 10:50:38.994108,159062558,0,153,-207,240,-236,6,-63,0,0,0,1,159062554
16072,2023-01-20 10:50:39.086128,159162511,0,140,-210,258,-236,6,-63,0,0,0,1,159162507
16106,2023-01-20 10:50:39.177131,159262513,0,143,-204,248,-236,6,-63,0,0,0,1,159262509
16138,2023-01-20 10:50:39.274843,159362512,0,140,-204,265,-236,6,-63,0,0,0,1,159362509
16169,2023-01-20 10:50:39.374822,159462527,0,158,-188,268,-236,6,-63,0,0,0,1,159462523
16201,2023-01-20 10:50:39.474807,159562533,0,157,-194,255,-236,6,-63,0,0,0,1,159562529
16234,2023-01-20 10:50:39.574751,159662493,0,130,-205,267,-236,6,-63,0,0,0,1,159662489
16269,2023-01-20 10:50:39.674730,159762519,0,160,-205,261,-236,6,-63,0,0,0,1,159762515
16300,2023-01-20 10:50:39.774682,159862529,0,141,-204,269,-236,6,-63,0,0,0,1,159862525
16334,2023-01-20 10:50:39.874641,159962499,0,142,-198,272,-236,6,-63,0,0,0,1,159962496
16365,2023-01-20 10:50:39.974668,160062521,0,148,-195,273,-236,6,-63,0,0,0,1,160062517
16397,2023-01-20 10:50:40.074746,160162557,0,152,-184,282,-236,6,-63,0,0,0,1,160162553
16431,2023-01-20 10:50:40.174736,160262492,0,146,-191,289,-236,6,-63,0,0,0,1,160262488
16463,2023-01-20 10:50:40.274733,160362513,0,150,-183,283,-236,6,-63,0,0,0,1,160362509
16494,2023-01-20 10:50:40.374679,160462511,0,128,-187,284,-236,6,-63,0,0,0,1,160462507
16526,2023-01-20 10:50:40.474654,160562489,0,143,-186,296,-236,6,-63,0,0,0,1,160562485
16560,2023-01-20 10:50:40.574686,160662508,0,136,-190,294,-236,6,-63,0,0,0,1,160662504
16595,2023-01-20 10:50:40.674712,160762518,0,147,-186,287,-236,6,-63,0,0,0,1,160762515
16626,2023-01-20 10:50:40.774778,160862566,0,137,-192,287,-236,6,-63,0,0,0,1,160862562
16660,2023-01-20 10:50:40.874704,160962519,0,163,-194,284,-236,6,-63,0,0,0,1,160962515
16691,2023-01-20 10:50:40.974675,161062533,0,141,-199,284,-236,6,-63,0,0,0,1,161062529
16723,2023-01-20 10:50:41.074675,161162500,0,157,-199,279,-236,6,-63,0,0,0,1,161162496
16757,2023-01-20 10:50:41.174750,161262517,0,155,-204,279,-236,6,-63,0,0,0,1,161262513
16789,2023-01-20 10:50:41.274762,161362509,0,154,-208,274,-236,6,-63,0,0,0,1,161362505
16820,2023-01-20 10:50:41.374805,161462546,0,147,-208,279,-236,6,-63,0,0,0,1,161462542
16852,2023-01-20 10:50:41.474727,161562497,0,158,-209,275,-236,6,-63,0,0,0,1,161562494
16886,2023-01-20 10:50:41.574677,161662489,0,163,-209,277,-236,6,-63,0,0,0,1,161662485
16921,2023-01-20 10:50:41.674701,161762495,0,175,-209,273,-236,6,-63,0,0,0,1,161762491
16952,2023-01-20 10:50:41.774779,161862533,0,146,-212,279,-236,6,-63,0,0,0,1,161862530
16986,2023-01-20 10:50:41.874720,161962503,0,155,-217,274,-236,6,-63,0,0,0,1,161962500
17017,2023-01-20 10:50:41.974687,162062522,0,158,-221,276,-236,6,-63,0,0,0,1,162062519
17049,2023-01-20 10:50:42.074742,162162553,0,151,-229,278,-236,6,-63,0,0,0,1,162162549
17083,2023-01-20 10:50:42.174730,162262492,0,160,-231,280,-236,6,-63,0,0,0,1,162262488
17115,2023-01-20 10:50:42.274727,162362513,0,153,-223,282,-236,6,-63,0,0,0,1,162362509
17146,2023-01-20 10:50:42.374669,162462504,0,171,-222,281,-236,6,-63,0,0,0,1,162462500
17178,2023-01-20 10:50:42.474653,162562489,0,155,-234,275,-236,6,-63,0,0,0,1,162562486
17212,2023-01-20 10:50:42.574675,162662497,0,142,-232,286,-236,6,-63,0,0,0,1,162662494
17247,2023-01-20 10:50:42.674723,162762543,0,151,-225,287,-236,6,-63,0,0,0,1,162762539
17278,2023-01-20 10:50:42.774678,162862501,0,141,-226,296,-236,6,-63,0,0,0,1,162862497
17312,2023-01-20 10:50:42.874656,162962507,0,155,-229,291,-236,6,-63,0,0,0,1,162962503
17343,2023-01-20 10:50:42.974627,163062515,0,134,-236,296,-236,6,-63,0,0,0,1,163062512
17375,2023-01-20 10:50:43.074663,163162503,0,127,-227,305,-236,6,-63,0,0,0,1,163162500
17409,2023-01-20 10:50:43.174750,163262512,0,127,-229,308,-236,6,-63,0,0,0,1,163262509
17441,2023-01-20 10:50:43.274782,163362524,0,131,-219,299,-236,6,-63,0,0,0,1,163362520
17472,2023-01-20 10:50:43.374819,163462560,0,131,-221,303,-236,6,-63,0,0,0,1,163462556
17504,2023-01-20 10:50:43.474716,163562490,0,125,-217,309,-236,6,-63,0,0,0,1,163562487
17539,2023-01-20 10:50:43.574679,163662497,0,116,-210,301,-236,6,-63,0,0,0,1,163662494
17574,2023-01-20 10:50:43.674657,163762483,0,114,-210,310,-236,6,-63,0,0,0,1,163762479
17605,2023-01-20 10:50:43.774700,163862523,0,106,-199,305,-236,6,-63,0,0,0,1,163862505
17641,2023-01-20 10:50:43.874680,163962515,0,127,-210,292,-236,6,-63,0,0,0,1,163962512
17672,2023-01-20 10:50:43.974694,164062546,0,104,-220,299,-236,6,-63,0,0,0,1,164062543
17704,2023-01-20 10:50:44.074696,164162512,0,123,-217,286,-236,6,-63,0,0,0,1,164162508
17738,2023-01-20 10:50:44.174746,164262507,0,142,-217,286,-236,6,-63,0,0,0,1,164262504
17770,2023-01-20 10:50:44.274762,164362509,0,155,-216,279,-236,6,-63,0,0,0,1,164362505
17801,2023-01-20 10:50:44.374783,164462531,0,166,-217,278,-236,6,-63,0,0,0,1,164462527
17833,2023-01-20 10:50:44.474750,164562498,0,157,-220,272,-236,6,-63,0,0,0,1,164562494
17868,2023-01-20 10:50:44.574727,164662476,0,164,-215,262,-236,6,-63,0,0,0,1,164662472
17903,2023-01-20 10:50:44.674783,164762544,0,173,-217,265,-236,6,-63,0,0,0,1,164762540
17934,2023-01-20 10:50:44.774726,164862504,0,157,-221,274,-236,6,-63,0,0,0,1,164862500
17968,2023-01-20 10:50:44.874662,164962487,0,148,-213,276,-236,6,-63,0,0,0,1,164962483
17999,2023-01-20 10:50:44.974608,165062490,0,168,-205,263,-236,6,-63,0,0,0,1,165062486
18031,2023-01-20 10:50:45.074684,165162514,0,175,-213,256,-236,6,-63,0,0,0,1,165162510
18065,2023-01-20 10:50:45.174767,165262509,0,169,-211,256,-236,6,-63,0,0,0,1,165262505
18097,2023-01-20 10:50:45.274837,165362568,0,173,-217,257,-236,6,-63,0,0,0,1,165362565
18128,2023-01-20 10:50:45.374774,165462520,0,173,-210,252,-236,6,-63,0,0,0,1,165462516
18160,2023-01-20 10:50:45.474718,165562502,0,161,-201,265,-236,6,-63,0,0,0,1,165562499
18194,2023-01-20 10:50:45.574657,165662487,0,147,-194,270,-236,6,-63,0,0,0,1,165662480
18229,2023-01-20 10:50:45.674687,165762493,0,141,-196,279,-236,6,-63,0,0,0,1,165762490
18260,2023-01-20 10:50:45.774740,165862499,0,145,-193,275,-236,6,-63,0,0,0,1,165862496
18294,2023-01-20 10:50:45.874717,165962499,0,142,-191,276,-236,6,-63,0,0,0,1,165962495
18325,2023-01-20 10:50:45.974710,166062538,0,143,-192,281,-236,6,-63,0,0,0,1,166062534
18357,2023-01-20 10:50:46.074655,166162486,0,143,-198,269,-236,6,-63,0,0,0,1,166162482
18391,2023-01-20 10:50:46.174677,166262496,0,145,-200,276,-236,6,-63,0,0,0,1,166262492
18423,2023-01-20 10:50:46.274742,166362520,0,142,-199,276,-236,6,-63,0,0,0,1,166362516
18454,2023-01-20 10:50:46.374774,166462501,0,140,-193,279,-236,6,-63,0,0,0,1,166462497
18486,2023-01-20 10:50:46.474778,166562504,0,117,-192,294,-236,6,-63,0,0,0,1,166562501
18520,2023-01-20 10:50:46.574827,166662570,0,123,-195,294,-236,6,-63,0,0,0,1,166662566
18554,2023-01-20 10:50:46.674726,166762501,0,133,-199,282,-236,6,-63,0,0,0,1,166762497
18585,2023-01-20 10:50:46.774707,166862519,0,128,-203,285,-236,6,-63,0,0,0,1,166862515
18619,2023-01-20 10:50:46.867929,166962495,0,137,-200,277,-236,6,-63,0,0,0,1,166962492
18650,2023-01-20 10:50:46.958890,167062486,0,128,-206,284,-236,6,-63,0,0,0,1,167062482
18682,2023-01-20 10:50:47.054838,167162496,0,142,-213,271,-236,6,-63,0,0,0,1,167162492
18716,2023-01-20 10:50:47.154881,167262502,0,143,-212,279,-236,6,-63,0,0,0,1,167262498
18748,2023-01-20 10:50:47.254959,167362561,0,142,-203,276,-236,6,-63,0,0,0,1,167362557
18779,2023-01-20 10:50:47.354918,167462517,0,139,-201,277,-236,6,-63,0,0,0,1,167462496
18811,2023-01-20 10:50:47.454907,167562506,0,144,-210,282,-236,6,-63,0,0,0,1,167562503
18845,2023-01-20 10:50:47.554934,167662536,0,151,-215,281,-236,6,-63,0,0,0,1,167662532
18880,2023-01-20 10:50:47.654921,167762512,0,128,-196,291,-236,6,-63,0,0,0,1,167762508
18911,2023-01-20 10:50:47.754933,167862503,0,129,-194,303,-236,6,-63,0,0,0,1,167862500
18945,2023-01-20 10:50:47.854960,167962542,0,127,-192,297,-236,6,-63,0,0,0,1,167962538
18976,2023-01-20 10:50:47.954871,168062493,0,120,-195,301,-236,6,-63,0,0,0,1,168062489
19008,2023-01-20 10:50:48.054852,168162492,0,117,-199,297,-236,6,-63,0,0,0,1,168162489
19042,2023-01-20 10:50:48.154861,168262501,0,118,-200,292,-236,6,-63,0,0,0,1,168262497
19074,2023-01-20 10:50:48.254847,168362505,0,103,-202,308,-236,6,-63,0,0,0,1,168362501
19105,2023-01-20 10:50:48.354815,168462506,0,93,-202,305,-236,6,-63,0,0,0,1,168462503
19137,2023-01-20 10:50:48.454784,168562497,0,109,-194,307,-236,6,-63,0,0,0,1,168562493
19171,2023-01-20 10:50:48.554868,168662594,0,98,-201,297,-236,6,-63,0,0,0,1,168662591
19207,2023-01-20 10:50:48.654747,168762498,0,112,-206,293,-236,6,-63,0,0,0,1,168762494
19238,2023-01-20 10:50:48.754742,168862527,0,108,-205,280,-236,6,-63,0,0,0,1,168862523
19272,2023-01-20 10:50:48.854683,168962509,0,110,-205,279,-236,6,-63,0,0,0,1,168962506
19305,2023-01-20 10:50:48.954611,169062485,0,87,-205,282,-236,6,-63,0,0,0,1,169062481
19337,2023-01-20 10:50:49.054626,169162496,0,100,-211,288,-236,6,-63,0,0,0,1,169162493
19371,2023-01-20 10:50:49.154714,169262535,0,104,-205,273,-236,6,-63,0,0,0,1,169262531
19403,2023-01-20 10:50:49.254748,169362514,0,84,-211,285,-236,6,-63,0,0,0,1,169362510
19434,2023-01-20 10:50:49.354793,169462499,0,93,-206,288,-236,6,-63,0,0,0,1,169462495
19466,2023-01-20 10:50:49.454774,169562498,0,94,-202,271,-236,6,-63,0,0,0,1,169562494
19500,2023-01-20 10:50:49.554699,169662505,0,104,-205,273,-236,6,-63,0,0,0,1,169662501
19535,2023-01-20 10:50:49.654691,169762506,0,116,-206,267,-236,6,-63,0,0,0,1,169762503
19566,2023-01-20 10:50:49.754763,169862528,0,110,-213,277,-236,6,-63,0,0,0,1,169862524
19600,2023-01-20 10:50:49.854767,169962537,0,110,-205,265,-236,6,-63,0,0,0,1,169962533
19631,2023-01-20 10:50:49.954672,170062494,0,121,-208,265,-236,6,-63,0,0,0,1,170062490
19663,2023-01-20 10:50:50.054646,170162496,0,136,-214,250,-236,6,-63,0,0,0,1,170162493
19739,2023-01-20 10:50:50.154622,170262480,0,137,-217,249,-236,6,-63,0,0,0,1,170262477
19771,2023-01-20 10:50:50.254665,170362503,0,134,-217,261,-236,6,-63,0,0,0,1,170362500
19802,2023-01-20 10:50:50.354710,170462505,0,129,-212,251,-236,6,-63,0,0,0,1,170462502
19834,2023-01-20 10:50:50.454761,170562527,0,124,-212,262,-236,6,-63,0,0,0,1,170562523
19868,2023-01-20 10:50:50.554794,170662543,0,128,-212,264,-236,6,-63,0,0,0,1,170662539
19903,2023-01-20 10:50:50.654776,170762518,0,127,-217,270,-236,6,-63,0,0,0,1,170762514
19934,2023-01-20 10:50:50.754766,170862510,0,133,-213,266,-236,6,-63,0,0,0,1,170862507
19968,2023-01-20 10:50:50.854726,170962511,0,134,-205,260,-236,6,-63,0,0,0,1,170962507
19999,2023-01-20 10:50:50.954651,171062508,0,133,-212,263,-236,6,-63,0,0,0,1,171062504
20031,2023-01-20 10:50:51.054660,171162510,0,122,-208,271,-236,6,-63,0,0,0,1,171162506
20065,2023-01-20 10:50:51.154778,171262555,0,127,-207,262,-236,6,-63,0,0,0,1,171262551
20097,2023-01-20 10:50:51.254764,171362510,0,123,-208,273,-236,6,-63,0,0,0,1,171362501
20128,2023-01-20 10:50:51.354749,171462498,0,132,-209,265,-236,6,-63,0,0,0,1,171462494
20160,2023-01-20 10:50:51.454729,171562506,0,116,-199,270,-236,6,-63,0,0,0,1,171562502
20194,2023-01-20 10:50:51.554703,171662527,0,117,-202,269,-236,6,-63,0,0,0,1,171662523
20229,2023-01-20 10:50:51.654690,171762503,0,118,-204,266,-236,6,-63,0,0,0,1,171762499
20260,2023-01-20 10:50:51.754763,171862518,0,127,-208,268,-236,6,-63,0,0,0,1,171862514
20294,2023-01-20 10:50:51.854737,171962501,0,127,-210,259,-236,6,-63,0,0,0,1,171962497
20325,2023-01-20 10:50:51.954662,172062491,0,126,-207,261,-236,6,-63,0,0,0,1,172062487
20357,2023-01-20 10:50:52.054632,172162492,0,122,-199,267,-236,6,-63,0,0,0,1,172162489
20391,2023-01-20 10:50:52.154649,172262512,0,121,-201,271,-236,6,-63,0,0,0,1,172262508
20423,2023-01-20 10:50:52.254681,172362521,0,128,-202,273,-236,6,-63,0,0,0,1,172362517
20454,2023-01-20 10:50:52.354724,172462521,0,129,-191,274,-236,6,-63,0,0,0,1,172462517
20486,2023-01-20 10:50:52.454783,172562551,0,131,-187,277,-236,6,-63,0,0,0,1,172562548
20520,2023-01-20 10:50:52.554763,172662514,0,132,-192,271,-236,6,-63,0,0,0,1,172662510
20555,2023-01-20 10:50:52.654741,172762514,0,156,-188,264,-236,6,-63,0,0,0,1,172762511
20586,2023-01-20 10:50:52.754682,172862509,0,134,-194,270,-236,6,-63,0,0,0,1,172862505
20620,2023-01-20 10:50:52.854640,172962493,0,135,-199,270,-236,6,-63,0,0,0,1,172962489
20651,2023-01-20 10:50:52.954645,173062500,0,145,-199,254,-236,6,-63,0,0,0,1,173062496
20683,2023-01-20 10:50:53.054656,173162490,0,141,-199,267,-236,6,-63,0,0,0,1,173162486
20717,2023-01-20 10:50:53.154740,173262535,0,145,-201,264,-236,6,-63,0,0,0,1,173262532
20749,2023-01-20 10:50:53.254751,173362521,0,155,-206,260,-236,6,-63,0,0,0,1,173362518
20780,2023-01-20 10:50:53.354767,173462523,0,154,-201,259,-236,6,-63,0,0,0,1,173462520
20812,2023-01-20 10:50:53.454725,173562501,0,138,-206,262,-236,6,-63,0,0,0,1,173562497
20846,2023-01-20 10:50:53.554706,173662531,0,136,-200,262,-236,6,-63,0,0,0,1,173662528
20881,2023-01-20 10:50:53.654693,173762505,0,125,-199,279,-236,6,-63,0,0,0,1,173762501
20913,2023-01-20 10:50:53.754810,173862559,0,122,-197,277,-236,6,-63,0,0,0,1,173862555
20947,2023-01-20 10:50:53.854792,173962549,0,122,-202,274,-236,6,-63,0,0,0,1,173962545
20980,2023-01-20 10:50:53.954667,174062491,0,112,-202,276,-236,6,-63,0,0,0,1,174062487
21012,2023-01-20 10:50:54.049660,174162491,0,106,-199,281,-236,6,-63,0,0,0,1,174162488
21046,2023-01-20 10:50:54.140561,174262499,0,107,-206,282,-236,6,-63,0,0,0,1,174262496
21078,2023-01-20 10:50:54.238482,174362499,0,107,-203,283,-236,6,-63,0,0,0,1,174362495
21109,2023-01-20 10:50:54.349715,174462525,0,116,-207,284,-236,6,-63,0,0,0,1,174462521
21141,2023-01-20 10:50:54.454799,174562553,0,122,-197,278,-236,6,-63,0,0,0,1,174562549
21176,2023-01-20 10:50:54.554747,174662518,0,127,-203,275,-236,6,-63,0,0,0,1,174662514
21211,2023-01-20 10:50:54.654716,174762514,0,131,-205,279,-236,6,-63,0,0,0,1,174762506
21242,2023-01-20 10:50:54.754675,174862507,0,130,-206,272,-236,6,-63,0,0,0,1,174862503
21276,2023-01-20 10:50:54.854636,174962489,0,132,-210,272,-236,6,-63,0,0,0,1,174962486
21307,2023-01-20 10:50:54.954643,175062504,0,125,-206,285,-236,6,-63,0,0,0,1,175062500
21339,2023-01-20 10:50:55.054711,175162552,0,114,-215,280,-236,6,-63,0,0,0,1,175162548
21373,2023-01-20 10:50:55.154714,175262510,0,119,-214,268,-236,6,-63,0,0,0,1,175262506
21405,2023-01-20 10:50:55.254720,175362523,0,125,-216,260,-236,6,-63,0,0,0,1,175362519
21436,2023-01-20 10:50:55.354683,175462536,0,125,-212,258,-236,6,-63,0,0,0,1,175462533
21468,2023-01-20 10:50:55.454661,175562503,0,104,-223,270,-236,6,-63,0,0,0,1,175562499
21502,2023-01-20 10:50:55.554740,175662519,0,135,-207,262,-236,6,-63,0,0,0,1,175662516
21537,2023-01-20 10:50:55.654762,175762510,0,126,-213,258,-236,6,-63,0,0,0,1,175762506
21568,2023-01-20 10:50:55.754796,175862539,0,136,-225,242,-236,6,-63,0,0,0,1,175862535
21602,2023-01-20 10:50:55.854729,175962500,0,140,-231,253,-236,6,-63,0,0,0,1,175962496
21633,2023-01-20 10:50:55.954671,176062498,0,155,-231,247,-236,6,-63,0,0,0,1,176062495
21665,2023-01-20 10:50:56.054627,176162485,0,155,-236,252,-236,6,-63,0,0,0,1,176162481
21699,2023-01-20 10:50:56.154629,176262499,0,142,-224,240,-236,6,-63,0,0,0,1,176262496
21731,2023-01-20 10:50:56.249682,176362527,0,137,-224,251,-236,6,-63,0,0,0,1,176362523
21762,2023-01-20 10:50:56.340622,176462565,0,124,-228,257,-236,6,-63,0,0,0,1,176462561
21793,2023-01-20 10:50:56.434630,176562520,0,140,-215,251,-236,6,-63,0,0,0,1,176562516
21827,2023-01-20 10:50:56.534611,176662520,0,120,-212,265,-236,6,-63,0,0,0,1,176662516
21862,2023-01-20 10:50:56.634592,176762513,0,147,-217,264,-236,6,-63,0,0,0,1,176762510
21893,2023-01-20 10:50:56.734591,176862511,0,155,-220,262,-236,6,-63,0,0,0,1,176862508
21927,2023-01-20 10:50:56.834556,176962491,0,168,-213,255,-236,6,-63,0,0,0,1,176962488
21958,2023-01-20 10:50:56.934511,177062493,0,162,-216,247,-236,6,-63,0,0,0,1,177062489
21990,2023-01-20 10:50:57.038431,177162555,0,170,-227,249,-236,6,-63,0,0,0,1,177162551
22024,2023-01-20 10:50:57.149627,177262501,0,151,-227,253,-236,6,-63,0,0,0,1,177262497
22056,2023-01-20 10:50:57.249728,177362515,0,137,-218,258,-236,6,-63,0,0,0,1,177362511
22087,2023-01-20 10:50:57.340581,177462520,0,143,-216,262,-236,6,-63,0,0,0,1,177462517
22119,2023-01-20 10:50:57.434568,177562504,0,145,-209,261,-236,6,-63,0,0,0,1,177562500
22153,2023-01-20 10:50:57.534564,177662531,0,135,-216,272,-236,6,-63,0,0,0,1,177662528
22188,2023-01-20 10:50:57.634574,177762555,0,134,-206,274,-236,6,-63,0,0,0,1,177762552
22219,2023-01-20 10:50:57.734541,177862504,0,145,-206,263,-236,6,-63,0,0,0,1,177862500
22253,2023-01-20 10:50:57.834526,177962500,0,130,-210,280,-236,6,-63,0,0,0,1,177962496
22284,2023-01-20 10:50:57.934452,178062494,0,140,-211,274,-236,6,-63,0,0,0,1,178062490
22316,2023-01-20 10:50:58.034399,178162482,0,134,-216,274,-236,6,-63,0,0,0,1,178162478
22350,2023-01-20 10:50:58.134440,178262512,0,125,-215,271,-236,6,-63,0,0,0,1,178262508
22382,2023-01-20 10:50:58.234456,178362523,0,131,-209,278,-236,6,-63,0,0,0,1,178362520
22413,2023-01-20 10:50:58.334482,178462557,0,120,-207,270,-236,6,-63,0,0,0,1,178462553
22445,2023-01-20 10:50:58.434441,178562511,0,137,-201,271,-236,6,-63,0,0,0,1,178562507
22479,2023-01-20 10:50:58.534494,178662533,0,129,-206,274,-236,6,-63,0,0,0,1,178662529
22514,2023-01-20 10:50:58.634465,178762487,0,135,-217,270,-236,6,-63,0,0,0,1,178762483
22545,2023-01-20 10:50:58.734483,178862512,0,132,-219,268,-236,6,-63,0,0,0,1,178862508
22580,2023-01-20 10:50:58.834446,178962496,0,127,-210,272,-236,6,-63,0,0,0,1,178962493
22613,2023-01-20 10:50:58.934443,179062543,0,132,-222,270,-236,6,-63,0,0,0,1,179062539
22645,2023-01-20 10:50:59.034383,179162504,0,121,-216,272,-236,6,-63,0,0,0,1,179162500
22679,2023-01-20 10:50:59.134425,179262512,0,126,-214,274,-236,6,-63,0,0,0,1,179262508
22711,2023-01-20 10:50:59.234446,179362512,0,121,-212,275,-236,6,-63,0,0,0,1,179362508
22742,2023-01-20 10:50:59.334432,179462501,0,123,-207,281,-236,6,-63,0,0,0,1,179462497
22774,2023-01-20 10:50:59.434424,179562503,0,121,-209,288,-236,6,-63,0,0,0,1,179562499
22808,2023-01-20 10:50:59.534398,179662500,0,106,-205,283,-236,6,-63,0,0,0,1,179662496
22843,2023-01-20 10:50:59.634462,179762560,0,127,-197,280,-236,6,-63,0,0,0,1,179762556
22874,2023-01-20 10:50:59.734479,179862523,0,112,-211,279,-236,6,-63,0,0,0,1,179862520
22908,2023-01-20 10:50:59.834471,179962497,0,119,-204,277,-236,6,-63,0,0,0,1,179962493
22939,2023-01-20 10:50:59.934426,180062503,0,104,-209,281,-236,6,-63,0,0,0,1,180062499
22971,2023-01-20 10:51:00.034398,180162511,0,117,-214,284,-236,6,-63,0,0,0,1,180162507
23005,2023-01-20 10:51:00.134401,180262522,0,109,-214,287,-236,6,-63,0,0,0,1,180262518
23037,2023-01-20 10:51:00.234453,180362569,0,120,-212,280,-236,6,-63,0,0,0,1,180362565
23068,2023-01-20 10:51:00.334414,180462499,0,115,-211,273,-236,6,-63,0,0,0,1,180462496
23100,2023-01-20 10:51:00.434420,180562490,0,123,-219,270,-236,6,-63,0,0,0,1,180562482
23134,2023-01-20 10:51:00.534413,180662501,0,113,-228,263,-236,6,-63,0,0,0,1,180662498
23169,2023-01-20 10:51:00.634396,180762493,0,124,-225,268,-236,6,-63,0,0,0,1,180762490
23200,2023-01-20 10:51:00.734410,180862501,0,130,-225,258,-236,6,-63,0,0,0,1,180862498
23234,2023-01-20 10:51:00.834405,180962496,0,132,-226,254,-236,6,-63,0,0,0,1,180962492
23265,2023-01-20 10:51:00.934446,181062548,0,129,-224,253,-236,6,-63,0,0,0,1,181062544
23297,2023-01-20 10:51:01.034389,181162490,0,139,-224,247,-236,6,-63,0,0,0,1,181162486
23331,2023-01-20 10:51:01.134434,181262513,0,139,-232,241,-236,6,-63,0,0,0,1,181262509
23363,2023-01-20 10:51:01.234448,181362514,0,142,-229,250,-236,6,-63,0,0,0,1,181362510
23394,2023-01-20 10:51:01.334452,181462525,0,150,-222,247,-236,6,-63,0,0,0,1,181462521
23426,2023-01-20 10:51:01.434432,181562508,0,154,-218,249,-236,6,-63,0,0,0,1,181562504
23460,2023-01-20 10:51:01.534486,181662559,0,136,-226,247,-236,6,-63,0,0,0,1,181662556
23495,2023-01-20 10:51:01.634427,181762498,0,132,-223,260,-236,6,-63,0,0,0,1,181762494
23526,2023-01-20 10:51:01.734437,181862510,0,145,-214,259,-236,6,-63,0,0,0,1,181862507
23559,2023-01-20 10:51:01.834399,181962485,0,143,-218,258,-236,6,-63,0,0,0,1,181962481
23591,2023-01-20 10:51:01.934391,182062507,0,125,-219,263,-236,6,-63,0,0,0,1,182062504
23623,2023-01-20 10:51:02.034387,182162518,0,137,-214,262,-236,6,-63,0,0,0,1,182162514
23657,2023-01-20 10:51:02.134387,182262504,0,147,-211,264,-236,6,-63,0,0,0,1,182262501
23689,2023-01-20 10:51:02.234475,182362575,0,113,-214,265,-236,6,-63,0,0,0,1,182362571
23720,2023-01-20 10:51:02.334433,182462509,0,132,-217,264,-236,6,-63,0,0,0,1,182462505
23752,2023-01-20 10:51:02.434419,182562487,0,128,-210,269,-236,6,-63,0,0,0,1,182562483
23786,2023-01-20 10:51:02.534416,182662504,0,125,-212,266,-236,6,-63,0,0,0,1,182662500
23821,2023-01-20 10:51:02.634393,182762498,0,147,-201,258,-236,6,-63,0,0,0,1,182762494
23852,2023-01-20 10:51:02.734387,182862503,0,127,-205,264,-236,6,-63,0,0,0,1,182862499
23885,2023-01-20 10:51:02.834421,182962541,0,113,-214,273,-236,6,-63,0,0,0,1,182962537
23917,2023-01-20 10:51:02.934400,183062510,0,129,-207,264,-236,6,-63,0,0,0,1,183062506
23949,2023-01-20 10:51:03.034406,183162505,0,125,-211,277,-236,6,-63,0,0,0,1,183162501
23983,2023-01-20 10:51:03.134420,183262506,0,126,-211,277,-236,6,-63,0,0,0,1,183262502
24015,2023-01-20 10:51:03.234427,183362507,0,128,-209,264,-236,6,-63,0,0,0,1,183362503
24046,2023-01-20 10:51:03.334409,183462497,0,127,-210,266,-236,6,-63,0,0,0,1,183462493
24078,2023-01-20 10:51:03.434406,183562496,0,139,-205,268,-236,6,-63,0,0,0,1,183562492
24112,2023-01-20 10:51:03.534462,183662540,0,142,-206,267,-236,6,-63,0,0,0,1,183662537
24147,2023-01-20 10:51:03.634429,183762498,0,130,-211,263,-236,6,-63,0,0,0,1,183762494
24178,2023-01-20 10:51:03.734452,183862517,0,134,-210,264,-236,6,-63,0,0,0,1,183862513
24211,2023-01-20 10:51:03.834442,183962516,0,131,-210,265,-236,6,-63,0,0,0,1,183962513
24246,2023-01-20 10:51:03.934395,184062503,0,126,-216,258,-236,6,-63,0,0,0,1,184062500
24278,2023-01-20 10:51:04.034388,184162506,0,132,-216,252,-236,6,-63,0,0,0,1,184162503
24312,2023-01-20 10:51:04.134425,184262509,0,141,-215,259,-236,6,-63,0,0,0,1,184262505
24344,2023-01-20 10:51:04.234446,184362509,0,133,-217,251,-236,6,-63,0,0,0,1,184362505
24375,2023-01-20 10:51:04.334467,184462532,0,122,-222,254,-236,6,-63,0,0,0,1,184462528
24407,2023-01-20 10:51:04.434419,184562493,0,113,-220,259,-236,6,-63,0,0,0,1,184562490
24444,2023-01-20 10:51:04.534397,184662494,0,121,-224,253,-236,6,-63,0,0,0,1,184662490
24479,2023-01-20 10:51:04.634387,184762498,0,85,-229,271,-236,6,-63,0,0,0,1,184762494
24510,2023-01-20 10:51:04.734390,184862500,0,113,-220,259,-236,6,-63,0,0,0,1,184862497
24543,2023-01-20 10:51:04.834431,184962539,0,113,-222,258,-236,6,-63,0,0,0,1,184962535
24575,2023-01-20 10:51:04.934412,185062517,0,120,-223,263,-236,6,-63,0,0,0,1,185062513
24607,2023-01-20 10:51:05.034408,185162506,0,132,-210,264,-236,6,-63,0,0,0,1,185162503
24641,2023-01-20 10:51:05.134418,185262500,0,117,-217,265,-236,6,-63,0,0,0,1,185262496
24673,2023-01-20 10:51:05.234454,185362532,0,121,-217,265,-236,6,-63,0,0,0,1,185362528
