LineNo,UTC_Approx,TimeUS,chan,txp,rxp,rxdp,flags,ss,tf
1391,2023-01-20 10:49:56.585032,116586385,2,6682,201,0,6,0,7
2306,2023-01-20 10:49:57.588430,117589334,2,6763,202,0,6,0,7
2748,2023-01-20 10:49:58.589799,118591863,2,6845,203,0,6,0,7
3152,2023-01-20 10:49:59.592536,119594608,2,6926,204,0,6,0,7
3551,2023-01-20 10:50:00.594676,120596744,2,7008,205,0,6,0,7
3901,2023-01-20 10:50:01.597279,121599400,2,7089,206,0,6,0,7
4228,2023-01-20 10:50:02.600070,122603007,2,7171,207,0,6,0,7
4552,2023-01-20 10:50:03.601524,123604403,2,7252,208,0,6,0,7
4877,2023-01-20 10:50:04.604637,124606854,2,7333,209,0,6,0,7
5201,2023-01-20 10:50:05.606365,125608479,2,7414,210,0,6,0,7
5525,2023-01-20 10:50:06.584842,126609363,2,7496,211,0,6,0,7
5848,2023-01-20 10:50:07.589499,127614404,2,7577,212,0,6,0,7
6173,2023-01-20 10:50:08.591962,128616876,2,7658,213,0,6,0,7
6499,2023-01-20 10:50:09.590241,129617607,2,7739,214,0,6,0,7
6823,2023-01-20 10:50:10.591975,130620028,2,7821,215,0,6,0,7
7147,2023-01-20 10:50:11.594465,131622562,2,7905,216,0,6,0,7
7470,2023-01-20 10:50:12.596966,132625074,2,7986,217,0,6,0,7
7796,2023-01-20 10:50:13.600142,133628233,2,8067,218,0,6,0,7
8122,2023-01-20 10:50:14.601939,134630037,2,8148,219,0,6,0,7
8445,2023-01-20 10:50:15.604843,135632945,2,8229,220,0,6,0,7
8768,2023-01-20 10:50:16.606933,136635023,2,8310,221,0,6,0,7
9091,2023-01-20 10:50:17.609463,137637543,2,8391,222,0,6,0,7
9413,2023-01-20 10:50:18.593383,138640334,2,8472,223,0,6,0,7
9737,2023-01-20 10:50:19.594693,139642513,2,8553,224,0,6,0,7
10063,2023-01-20 10:50:20.597301,140645024,2,8637,225,0,6,0,7
10388,2023-01-20 10:50:21.600145,141647896,2,8720,226,0,6,0,7
10711,2023-01-20 10:50:22.602180,142649957,2,8803,227,0,6,0,7
11037,2023-01-20 10:50:23.605851,143653653,2,8886,228,0,6,0,7
11365,2023-01-20 10:50:24.607300,144655038,2,8969,229,0,6,0,7
11690,2023-01-20 10:50:25.609676,145657498,2,9051,230,0,6,0,7
12014,2023-01-20 10:50:26.612234,146660066,2,9132,231,0,6,0,7
12338,2023-01-20 10:50:27.595469,147662573,2,9213,232,0,6,0,7
12667,2023-01-20 10:50:28.616022,148665441,2,9294,233,0,6,0,7
12993,2023-01-20 10:50:29.600085,149667910,2,9375,234,0,6,0,7
13341,2023-01-20 10:50:30.602211,150670040,2,9457,235,0,6,0,7
13664,2023-01-20 10:50:31.604624,151672486,2,9538,236,0,6,0,7
13988,2023-01-20 10:50:32.607158,152675023,2,9624,237,0,6,0,7
14314,2023-01-20 10:50:33.610869,153678696,2,9711,238,0,6,0,7
14640,2023-01-20 10:50:34.612263,154680012,2,9792,239,0,6,0,7
14966,2023-01-20 10:50:35.614760,155682502,2,9876,240,0,6,0,7
15288,2023-01-20 10:50:36.617256,156684985,2,9959,241,0,6,0,7
15611,2023-01-20 10:50:37.619830,157687545,2,10042,242,0,6,0,7
15937,2023-01-20 10:50:38.603606,158691254,2,10125,243,0,6,0,7
16264,2023-01-20 10:50:39.604745,159692494,2,10208,244,0,6,0,7
16590,2023-01-20 10:50:40.607183,160695001,2,10292,245,0,6,0,7
16916,2023-01-20 10:50:41.609688,161697507,2,10375,246,0,6,0,7
17242,2023-01-20 10:50:42.612190,162700009,2,10458,247,0,6,0,7
17569,2023-01-20 10:50:43.617297,163705126,2,10541,248,0,6,0,7
17898,2023-01-20 10:50:44.619790,164707542,2,10624,249,0,6,0,7
18224,2023-01-20 10:50:45.622184,165710015,2,10707,250,0,6,0,7
18550,2023-01-20 10:50:46.624773,166712529,2,10790,251,0,6,0,7
18876,2023-01-20 10:50:47.608748,167716349,2,10873,252,0,6,0,7
19203,2023-01-20 10:50:48.609749,168717484,2,10956,253,0,6,0,7
19531,2023-01-20 10:50:49.612151,169719988,2,11039,254,0,6,0,7
19898,2023-01-20 10:50:50.614735,170722476,2,11126,255,0,6,0,7
20224,2023-01-20 10:50:51.617203,171725038,2,11209,256,0,6,0,7
20550,2023-01-20 10:50:52.620113,172727867,2,11292,257,0,6,0,7
20876,2023-01-20 10:50:53.622137,173729970,2,11375,258,0,6,0,7
21207,2023-01-20 10:50:54.625137,174732925,2,11458,259,0,6,0,7
21533,2023-01-20 10:50:55.627255,175735005,2,11541,260,0,6,0,7
21859,2023-01-20 10:50:56.609586,176737507,2,11624,261,0,6,0,7
22185,2023-01-20 10:50:57.613284,177741269,2,11707,262,0,6,0,7
22511,2023-01-20 10:50:58.614491,178742511,2,11790,263,0,6,0,7
22840,2023-01-20 10:50:59.616934,179745042,2,11873,264,0,6,0,7
23166,2023-01-20 10:51:00.619494,180747592,2,11957,265,0,6,0,7
23492,2023-01-20 10:51:01.621930,181750001,2,12040,266,0,6,0,7
23818,2023-01-20 10:51:02.621907,182750011,2,12123,267,0,6,0,7
24144,2023-01-20 10:51:03.624676,183752745,2,12206,268,0,6,0,7
24476,2023-01-20 10:51:04.626872,184754984,2,12291,269,0,6,0,7
24802,2023-01-20 10:51:05.629397,185757482,2,12374,270,0,6,0,7
25128,2023-01-20 10:51:06.612329,186759992,2,12457,271,0,6,0,7
25506,2023-01-20 10:51:07.631425,187762569,2,12540,272,0,6,0,7
25833,2023-01-20 10:51:08.617583,188765435,2,12623,273,0,6,0,7
26162,2023-01-20 10:51:09.619791,189767538,2,12706,274,0,6,0,8
26510,2023-01-20 10:51:10.622120,190769975,2,12790,275,0,6,0,8
26836,2023-01-20 10:51:11.622285,191770029,2,12873,276,0,6,0,8
27163,2023-01-20 10:51:12.624610,192772453,2,12956,277,0,6,0,8
27489,2023-01-20 10:51:13.627248,193774977,2,13039,278,0,6,0,8
27819,2023-01-20 10:51:14.629933,194777776,2,13122,279,0,6,0,8
28145,2023-01-20 10:51:15.632226,195779975,2,13205,280,0,6,0,8
28471,2023-01-20 10:51:16.612463,196780040,2,13288,281,0,6,0,8
28797,2023-01-20 10:51:17.614790,197782467,2,13371,282,0,6,0,8
29123,2023-01-20 10:51:18.617237,198784989,2,13454,283,0,6,0,8
29452,2023-01-20 10:51:19.619800,199787540,2,13537,284,0,6,0,8
29778,2023-01-20 10:51:20.622555,200790301,2,13621,284,0,6,0,8
30104,2023-01-20 10:51:21.624767,201792497,2,13704,284,0,6,0,8
30401,2023-01-20 10:51:22.627203,202794887,2,13786,284,0,6,0,8
30695,2023-01-20 10:51:23.629762,203797389,2,13867,284,0,6,0,8
31059,2023-01-20 10:51:24.632211,204799986,2,13951,289,0,6,0,8
31383,2023-01-20 10:51:25.637249,205804997,2,14034,289,0,6,0,8
31707,2023-01-20 10:51:26.617349,206805059,2,14117,289,0,6,0,8
32031,2023-01-20 10:51:27.619855,207807538,2,14200,289,0,6,0,8
32355,2023-01-20 10:51:28.622236,208809992,2,14283,289,0,6,0,8
32685,2023-01-20 10:51:29.624761,209812497,2,14366,290,0,6,0,8
33011,2023-01-20 10:51:30.627696,210815474,2,14456,290,0,6,0,8
33323,2023-01-20 10:51:31.629749,211817399,2,14545,290,0,6,0,8
33618,2023-01-20 10:51:32.632255,212819896,2,14626,290,0,6,0,8
33912,2023-01-20 10:51:33.634700,213822406,2,14707,290,0,6,0,8
34241,2023-01-20 10:51:34.637217,214824986,2,14795,293,0,6,0,8
34566,2023-01-20 10:51:35.617458,215825047,2,14880,293,0,6,0,8
34890,2023-01-20 10:51:36.620143,216827868,2,14963,293,0,6,0,8
35198,2023-01-20 10:51:37.622204,217829984,2,15048,293,0,6,0,8
35511,2023-01-20 10:51:38.625170,218832817,2,15131,293,0,6,0,8
35817,2023-01-20 10:51:39.627231,219834994,2,15215,294,0,6,0,8
36140,2023-01-20 10:51:40.627279,220835033,2,15299,305,0,6,0,8
36463,2023-01-20 10:51:41.629732,221837575,2,15382,305,0,6,0,8
36787,2023-01-20 10:51:42.632583,222840335,2,15465,307,0,6,0,8
37111,2023-01-20 10:51:43.634662,223842507,2,15548,307,0,6,0,8
37440,2023-01-20 10:51:44.637185,224844912,2,15632,307,0,6,0,8
37756,2023-01-20 10:51:45.617185,225845060,2,15717,309,0,6,0,8
38080,2023-01-20 10:51:46.636073,226847548,2,15800,311,0,6,0,8
38404,2023-01-20 10:51:47.621897,227849999,2,15883,312,0,6,0,8
38728,2023-01-20 10:51:48.621907,228850007,2,15966,313,0,6,0,8
39056,2023-01-20 10:51:49.624720,229852824,2,16049,314,0,6,0,8
39381,2023-01-20 10:51:50.626909,230855016,2,16133,315,0,6,0,8
39705,2023-01-20 10:51:51.629398,231857496,2,16216,316,0,6,0,8
40032,2023-01-20 10:51:52.631900,232859995,2,16304,317,0,6,0,8
40356,2023-01-20 10:51:53.631930,233860023,2,16387,318,0,6,0,8
40687,2023-01-20 10:51:54.614949,234862581,2,16470,319,0,6,0,8
41016,2023-01-20 10:51:55.615483,235863140,2,16553,320,0,6,0,8
41342,2023-01-20 10:51:56.617641,236865464,2,16641,321,0,6,0,8
41666,2023-01-20 10:51:57.619733,237867547,2,16724,322,0,6,0,8
42014,2023-01-20 10:51:58.622184,238870013,2,16807,323,0,6,0,8
42344,2023-01-20 10:51:59.624676,239872484,2,16891,324,0,6,0,8
42670,2023-01-20 10:52:00.627176,240874992,2,16975,325,0,6,0,8
43039,2023-01-20 10:52:01.627196,241875011,2,17059,326,0,6,0,8
43365,2023-01-20 10:52:02.629977,242877831,2,17142,327,0,6,0,8
43692,2023-01-20 10:52:03.632238,243879990,2,17226,328,0,6,0,8
44022,2023-01-20 10:52:04.613814,244880005,2,17309,329,0,6,0,8
44349,2023-01-20 10:52:05.614829,245882511,2,17393,330,0,6,0,8
44677,2023-01-20 10:52:06.617147,246885001,2,17478,331,0,6,0,8
45002,2023-01-20 10:52:07.619784,247887565,2,17561,332,0,6,0,8
45329,2023-01-20 10:52:08.622479,248890329,2,17645,333,0,6,0,8
45658,2023-01-20 10:52:09.624713,249892528,2,17728,334,0,6,0,8
45986,2023-01-20 10:52:10.627150,250895005,2,17813,335,0,6,0,8
46312,2023-01-20 10:52:11.629669,251897488,2,17896,336,0,6,0,8
46639,2023-01-20 10:52:12.632176,252899988,2,17980,337,0,6,0,8
46965,2023-01-20 10:52:13.637256,253905032,2,18063,338,0,6,0,8
47295,2023-01-20 10:52:14.636206,254907613,2,18151,339,0,6,0,8
47622,2023-01-20 10:52:15.622319,255909986,2,18236,340,0,6,0,8
47949,2023-01-20 10:52:16.624685,256912499,2,18323,341,0,6,0,8
48324,2023-01-20 10:52:17.627727,257915549,2,18406,342,0,6,0,8
48651,2023-01-20 10:52:18.629724,258917470,2,18490,343,0,6,0,8
48979,2023-01-20 10:52:19.632199,259920028,2,18573,344,0,6,0,8
49307,2023-01-20 10:52:20.634660,260922481,2,18661,345,0,6,0,8
49633,2023-01-20 10:52:21.637170,261924992,2,18744,346,0,6,0,8
49959,2023-01-20 10:52:22.637208,262925012,2,18827,347,0,6,0,8
50286,2023-01-20 10:52:23.620275,263927871,2,18911,348,0,6,0,8
50615,2023-01-20 10:52:24.622280,264929954,2,18994,349,0,6,0,8
50944,2023-01-20 10:52:25.625256,265932932,2,19078,350,0,6,0,8
51269,2023-01-20 10:52:26.627198,266935009,2,19161,351,0,6,0,8
51596,2023-01-20 10:52:27.629727,267937573,2,19245,352,0,6,0,8
51922,2023-01-20 10:52:28.632545,268940355,2,19328,353,0,6,0,8
52251,2023-01-20 10:52:29.634641,269942485,2,19412,354,0,6,0,8
52578,2023-01-20 10:52:30.637208,270945016,2,19496,355,0,6,0,8
52905,2023-01-20 10:52:31.639695,271947556,2,19580,356,0,6,0,8
53231,2023-01-20 10:52:32.642246,272950060,2,19663,357,0,6,0,8
53558,2023-01-20 10:52:33.624887,273952821,2,19747,358,0,6,0,8
53936,2023-01-20 10:52:34.626954,274954981,2,19830,359,0,6,0,8
54264,2023-01-20 10:52:35.629404,275957502,2,19914,360,0,6,0,8
54590,2023-01-20 10:52:36.631925,276960006,2,19997,361,0,6,0,8
54921,2023-01-20 10:52:37.634520,277962630,2,20082,362,0,6,0,8
55250,2023-01-20 10:52:38.637350,278965430,2,20166,363,0,6,0,8
55578,2023-01-20 10:52:39.639381,279967507,2,20249,364,0,6,0,8
55928,2023-01-20 10:52:40.641914,280969998,2,20334,365,0,6,0,8
56255,2023-01-20 10:52:41.644356,281972450,2,20417,366,0,6,0,8
56581,2023-01-20 10:52:42.627404,282974993,2,20501,367,0,6,0,8
56907,2023-01-20 10:52:43.630129,283977830,2,20584,368,0,6,0,8
57237,2023-01-20 10:52:44.632168,284979981,2,20668,369,0,6,0,8
57564,2023-01-20 10:52:45.634711,285982525,2,20751,370,0,6,0,8
57891,2023-01-20 10:52:46.637226,286985005,2,20835,371,0,6,0,8
58217,2023-01-20 10:52:47.639786,287987537,2,20918,372,0,6,0,8
58544,2023-01-20 10:52:48.642541,288990313,2,21002,373,0,6,0,8
58872,2023-01-20 10:52:49.644692,289992496,2,21085,374,0,6,0,8
59249,2023-01-20 10:52:50.647204,290995029,2,21170,375,0,6,0,8
59575,2023-01-20 10:52:51.645219,291997497,2,21253,376,0,6,0,8
59901,2023-01-20 10:52:52.632372,293000007,2,21336,377,0,6,0,8
60228,2023-01-20 10:52:53.637303,294005012,2,21420,378,0,6,0,8
60557,2023-01-20 10:52:54.639771,295007539,2,21503,379,0,6,0,8
60885,2023-01-20 10:52:55.642236,296010002,2,21587,380,0,6,0,8
61212,2023-01-20 10:52:56.644715,297012488,2,21670,381,0,6,0,8
61539,2023-01-20 10:52:57.647701,298015467,2,21754,382,0,6,0,8
61865,2023-01-20 10:52:58.649724,299017469,2,21837,383,0,6,0,8
62194,2023-01-20 10:52:59.652269,300020007,2,21921,384,0,6,0,8
62520,2023-01-20 10:53:00.654759,301022503,2,22008,385,0,6,0,8
62847,2023-01-20 10:53:01.657256,302024999,2,22092,386,0,6,0,8
63173,2023-01-20 10:53:02.640199,303027880,2,22175,387,0,6,0,8
63500,2023-01-20 10:53:03.642300,304029985,2,22259,388,0,6,0,8
63829,2023-01-20 10:53:04.645204,305032943,2,22342,389,0,6,0,8
64157,2023-01-20 10:53:05.647249,306035014,2,22426,390,0,6,0,8
64483,2023-01-20 10:53:06.649727,307037556,2,22509,391,0,6,0,8
64858,2023-01-20 10:53:07.652572,308040338,2,22592,392,0,6,0,8
65187,2023-01-20 10:53:08.654654,309042495,2,22678,393,0,6,0,8
65515,2023-01-20 10:53:09.657234,310045007,2,22761,394,0,6,0,8
65843,2023-01-20 10:53:10.659770,311047544,2,22846,395,0,6,0,8
66169,2023-01-20 10:53:11.642454,312050055,2,22929,396,0,6,0,8
66497,2023-01-20 10:53:12.644924,313052742,2,23013,397,0,6,0,8
66823,2023-01-20 10:53:13.647212,314054986,2,23096,398,0,6,0,8
67153,2023-01-20 10:53:14.647147,315055005,2,23180,399,0,6,0,8
67480,2023-01-20 10:53:15.649716,316057491,2,23263,400,0,6,0,8
67807,2023-01-20 10:53:16.652286,317060054,2,23347,401,0,6,0,8
68136,2023-01-20 10:53:17.654781,318062578,2,23430,402,0,6,0,8
68465,2023-01-20 10:53:18.657680,319065449,2,23514,403,0,6,0,8
68792,2023-01-20 10:53:19.659705,320067509,2,23597,404,0,6,0,8
69142,2023-01-20 10:53:20.662221,321069971,2,23682,405,0,6,0,8
69468,2023-01-20 10:53:21.644564,322072516,2,23765,406,0,6,0,8
69794,2023-01-20 10:53:22.646951,323074994,2,23848,407,0,6,0,8
70121,2023-01-20 10:53:23.649645,324077747,2,23932,408,0,6,0,8
70499,2023-01-20 10:53:24.651871,325079953,2,24015,409,0,6,0,8
70827,2023-01-20 10:53:25.654390,326082490,2,24099,410,0,6,0,8
71153,2023-01-20 10:53:26.656954,327085040,2,24182,411,0,6,0,8
71480,2023-01-20 10:53:27.659478,328087566,2,24266,412,0,6,0,8
71806,2023-01-20 10:53:28.662215,329090303,2,24349,413,0,6,0,8
72136,2023-01-20 10:53:29.664343,330092433,2,24434,414,0,6,0,8
72463,2023-01-20 10:53:30.660954,331095014,2,24517,415,0,6,0,8
72790,2023-01-20 10:53:31.649831,332097491,2,24601,416,0,6,0,8
73116,2023-01-20 10:53:32.652239,333100000,2,24684,417,0,6,0,8
73443,2023-01-20 10:53:33.652214,334100025,2,24768,418,0,6,0,8
73769,2023-01-20 10:53:34.657252,335105041,2,24851,419,0,6,0,8
74094,2023-01-20 10:53:35.659710,336107545,2,24934,420,0,6,0,8
74422,2023-01-20 10:53:36.662211,337109985,2,25020,421,0,6,0,8
74746,2023-01-20 10:53:37.664659,338112505,2,25103,422,0,6,0,8
75071,2023-01-20 10:53:38.667682,339115473,2,25187,423,0,6,0,8
75402,2023-01-20 10:53:39.669698,340117497,2,25276,424,0,6,0,8
75726,2023-01-20 10:53:40.652367,341119987,2,25359,425,0,6,0,8
76051,2023-01-20 10:53:41.654758,342122500,2,25445,426,0,6,0,8
76376,2023-01-20 10:53:42.657256,343125018,2,25528,427,0,6,0,8
76702,2023-01-20 10:53:43.660022,344127863,2,25612,428,0,6,0,8
77030,2023-01-20 10:53:44.662205,345129991,2,25695,429,0,6,0,8
77355,2023-01-20 10:53:45.665208,346132948,2,25778,430,0,6,0,8
77684,2023-01-20 10:53:46.667212,347134996,2,25865,431,0,6,0,8
78008,2023-01-20 10:53:47.667272,348135017,2,25948,432,0,6,0,8
78332,2023-01-20 10:53:48.669719,349137526,2,26031,433,0,6,0,8
78658,2023-01-20 10:53:49.658585,350140363,2,26115,434,0,6,0,8
78987,2023-01-20 10:53:50.654855,351142522,2,26208,435,0,6,0,8
79359,2023-01-20 10:53:51.657294,352145035,2,26294,436,0,6,0,8
79683,2023-01-20 10:53:52.659785,353147559,2,26378,437,0,6,0,8
80010,2023-01-20 10:53:53.662253,354149999,2,26462,438,0,6,0,8
80339,2023-01-20 10:53:54.662234,355150014,2,26545,439,0,6,0,8
80666,2023-01-20 10:53:55.664993,356152737,2,26629,440,0,6,0,8
80993,2023-01-20 10:53:56.667248,357155013,2,26712,441,0,6,0,8
81320,2023-01-20 10:53:57.669749,358157488,2,26796,442,0,6,0,8
81646,2023-01-20 10:53:58.658193,359160012,2,26879,443,0,6,0,8
81978,2023-01-20 10:53:59.654955,360162595,2,26964,444,0,6,0,8
82306,2023-01-20 10:54:00.657602,361165435,2,27047,445,0,6,0,8
82633,2023-01-20 10:54:01.659794,362167532,2,27130,446,0,6,0,8
82984,2023-01-20 10:54:02.662151,363169992,2,27214,447,0,6,0,8
83311,2023-01-20 10:54:03.664731,364172507,2,27297,448,0,6,0,8
83641,2023-01-20 10:54:04.667223,365175061,2,27381,449,0,6,0,8
83967,2023-01-20 10:54:05.669971,366177719,2,27464,450,0,6,0,8
84295,2023-01-20 10:54:06.672151,367179977,2,27548,451,0,6,0,8
84621,2023-01-20 10:54:07.672229,368180013,2,27631,452,0,6,0,8
84996,2023-01-20 10:54:08.654583,369182505,2,27715,453,0,6,0,8
85324,2023-01-20 10:54:09.657132,370185050,2,27799,454,0,6,0,8
85653,2023-01-20 10:54:10.659441,371187554,2,27885,455,0,6,0,8
85980,2023-01-20 10:54:11.662224,372190283,2,27968,456,0,6,0,8
86307,2023-01-20 10:54:12.664383,373192463,2,28052,457,0,6,0,8
86633,2023-01-20 10:54:13.666939,374195008,2,28135,458,0,6,0,8
86963,2023-01-20 10:54:14.669433,375197519,2,28219,459,0,6,0,8
87289,2023-01-20 10:54:15.671937,376199994,2,28302,460,0,6,0,8
87617,2023-01-20 10:54:16.676954,377205015,2,28385,461,0,6,0,8
87944,2023-01-20 10:54:17.672456,378207578,2,28469,462,0,6,0,8
88270,2023-01-20 10:54:18.662335,379209980,2,28552,463,0,6,0,8
88599,2023-01-20 10:54:19.662259,380210030,2,28637,464,0,6,0,8
88926,2023-01-20 10:54:20.664670,381212484,2,28720,465,0,6,0,8
89254,2023-01-20 10:54:21.667596,382215450,2,28804,466,0,6,0,8
89580,2023-01-20 10:54:22.669721,383217517,2,28887,467,0,6,0,8
89907,2023-01-20 10:54:23.672159,384219999,2,28971,468,0,6,0,8
90236,2023-01-20 10:54:24.672236,385220033,2,29054,469,0,6,0,8
90612,2023-01-20 10:54:25.674681,386222483,2,29141,470,0,6,0,8
90938,2023-01-20 10:54:26.677205,387224986,2,29224,471,0,6,0,8
91265,2023-01-20 10:54:27.666919,388227848,2,29308,472,0,6,0,8
91591,2023-01-20 10:54:28.662326,389229969,2,29391,473,0,6,0,8
91920,2023-01-20 10:54:29.665167,390232969,2,29476,474,0,6,0,8
92246,2023-01-20 10:54:30.667225,391234996,2,29559,475,0,6,0,8
92573,2023-01-20 10:54:31.669787,392237525,2,29642,476,0,6,0,8
92900,2023-01-20 10:54:32.672542,393240318,2,29726,477,0,6,0,8
93226,2023-01-20 10:54:33.674749,394242493,2,29809,478,0,6,0,8
93556,2023-01-20 10:54:34.677277,395245021,2,29893,479,0,6,0,8
93882,2023-01-20 10:54:35.679700,396247535,2,29976,480,0,6,0,8
94210,2023-01-20 10:54:36.662416,397249993,2,30060,481,0,6,0,8
94537,2023-01-20 10:54:37.665139,398252829,2,30143,482,0,6,0,8
94864,2023-01-20 10:54:38.667207,399254952,2,30227,483,0,6,0,8
95192,2023-01-20 10:54:39.667275,400255019,2,30311,484,0,6,0,8
95519,2023-01-20 10:54:40.669693,401257467,2,30395,485,0,6,0,8
95897,2023-01-20 10:54:41.672156,402259993,2,30480,486,0,6,0,8
96224,2023-01-20 10:54:42.672238,403260011,2,30564,487,0,6,0,8
96553,2023-01-20 10:54:43.674749,404262569,2,30647,488,0,6,0,8
96884,2023-01-20 10:54:44.677663,405265458,2,30730,489,0,6,0,8
97210,2023-01-20 10:54:45.659947,406267553,2,30814,490,0,6,0,8
97559,2023-01-20 10:54:46.674772,407269972,2,30897,491,0,6,0,8
97886,2023-01-20 10:54:47.664807,408272501,2,30981,492,0,6,0,8
98212,2023-01-20 10:54:48.667302,409274981,2,31064,493,0,6,0,8
98541,2023-01-20 10:54:49.670078,410277828,2,31149,494,0,6,0,8
98867,2023-01-20 10:54:50.672199,411279983,2,31232,495,0,6,0,8
99195,2023-01-20 10:54:51.674744,412282491,2,31316,496,0,6,0,8
99521,2023-01-20 10:54:52.677217,413285003,2,31399,497,0,6,0,8
99848,2023-01-20 10:54:53.679818,414287549,2,31483,498,0,6,0,8
100177,2023-01-20 10:54:54.682539,415290323,2,31566,499,0,6,0,8
100505,2023-01-20 10:54:55.684724,416292463,2,31650,500,0,6,0,8
100832,2023-01-20 10:54:56.667040,417294994,2,31733,501,0,6,0,8
101159,2023-01-20 10:54:57.666946,418295005,2,31817,502,0,6,0,8
101534,2023-01-20 10:54:58.669425,419297505,2,31900,503,0,6,0,8
101862,2023-01-20 10:54:59.671960,420300020,2,31984,504,0,6,0,8
102189,2023-01-20 10:55:00.676915,421304980,2,32068,505,0,6,0,8
102516,2023-01-20 10:55:01.676947,422305005,2,32151,506,0,6,0,8
102843,2023-01-20 10:55:02.679494,423307555,2,32236,507,0,6,0,8
103169,2023-01-20 10:55:03.681942,424310005,2,32319,508,0,6,0,8
103498,2023-01-20 10:55:04.676914,425312516,2,32403,509,0,6,0,8
103824,2023-01-20 10:55:05.687415,426315457,2,32492,510,0,6,0,8
104151,2023-01-20 10:55:06.669844,427317509,2,32580,511,0,6,0,8
104478,2023-01-20 10:55:07.672254,428320008,2,32665,512,0,6,0,8
104805,2023-01-20 10:55:08.674696,429322487,2,32752,513,0,6,0,8
105133,2023-01-20 10:55:09.677264,430325025,2,32836,514,0,6,0,8
105460,2023-01-20 10:55:10.680011,431327848,2,32920,515,0,6,0,8
105786,2023-01-20 10:55:11.682213,432329970,2,33003,516,0,6,0,8
106117,2023-01-20 10:55:12.685164,433332984,2,33089,517,0,6,0,8
106443,2023-01-20 10:55:13.687250,434334987,2,33172,518,0,6,0,8
106772,2023-01-20 10:55:14.687203,435335033,2,33255,519,0,6,0,8
107148,2023-01-20 10:55:15.669845,436337504,2,33339,520,0,6,0,8
107474,2023-01-20 10:55:16.672529,437340318,2,33422,521,0,6,0,8
107802,2023-01-20 10:55:17.674747,438342489,2,33506,522,0,6,0,8
108127,2023-01-20 10:55:18.677234,439345034,2,33589,523,0,6,0,8
108456,2023-01-20 10:55:19.679825,440347572,2,33674,524,0,6,0,8
108782,2023-01-20 10:55:20.682187,441350002,2,33757,525,0,6,0,8
109109,2023-01-20 10:55:21.682273,442350016,2,33841,526,0,6,0,8
109436,2023-01-20 10:55:22.684981,443352731,2,33924,527,0,6,0,8
109763,2023-01-20 10:55:23.687188,444354977,2,34008,528,0,6,0,8
110092,2023-01-20 10:55:24.679369,445355027,2,34091,529,0,6,0,8
110419,2023-01-20 10:55:25.669790,446357508,2,34175,530,0,6,0,8
110745,2023-01-20 10:55:26.672290,447360004,2,34258,531,0,6,0,8
111074,2023-01-20 10:55:27.674860,448362591,2,34341,532,0,6,0,8
111402,2023-01-20 10:55:28.677691,449365453,2,34425,533,0,6,0,8
111731,2023-01-20 10:55:29.679787,450367571,2,34512,534,0,6,0,8
112077,2023-01-20 10:55:30.682223,451369989,2,34595,535,0,6,0,8
112401,2023-01-20 10:55:31.682304,452370049,2,34678,536,0,6,0,8
112727,2023-01-20 10:55:32.684732,453372500,2,34761,537,0,6,0,8
113053,2023-01-20 10:55:33.687298,454375036,2,34854,538,0,6,0,8
113381,2023-01-20 10:55:34.670220,455377801,2,34940,539,0,6,0,8
113705,2023-01-20 10:55:35.672324,456380004,2,35023,540,0,6,0,8
114030,2023-01-20 10:55:36.674726,457382523,2,35106,541,0,6,0,8
114356,2023-01-20 10:55:37.677158,458384996,2,35190,542,0,6,0,8
114728,2023-01-20 10:55:38.677218,459385010,2,35273,543,0,6,0,8
115054,2023-01-20 10:55:39.679740,460387569,2,35357,544,0,6,0,8
115381,2023-01-20 10:55:40.682494,461390323,2,35443,545,0,6,0,8
115706,2023-01-20 10:55:41.684682,462392540,2,35527,546,0,6,0,8
116031,2023-01-20 10:55:42.687215,463395002,2,35610,547,0,6,0,8
116362,2023-01-20 10:55:43.679382,464395442,2,35700,548,0,6,0,8
116690,2023-01-20 10:55:44.669910,465397882,2,35783,549,0,6,0,8
117014,2023-01-20 10:55:45.670272,466398343,2,35866,550,0,6,0,8
117341,2023-01-20 10:55:46.669733,467400398,2,35950,551,0,6,0,8
117668,2023-01-20 10:55:47.670189,468401160,2,36033,552,0,6,0,8
117994,2023-01-20 10:55:48.672177,469403150,2,36116,553,0,6,0,8
118323,2023-01-20 10:55:49.674668,470406016,2,36201,554,0,6,0,8
118648,2023-01-20 10:55:50.677192,471408541,2,36284,555,0,6,0,8
118975,2023-01-20 10:55:51.676955,472411411,2,36368,556,0,6,0,8
119302,2023-01-20 10:55:52.679801,473413936,2,36451,557,0,6,0,8
119629,2023-01-20 10:55:53.679774,474416487,2,36535,558,0,6,0,8
119959,2023-01-20 10:55:54.682174,475418867,2,36618,559,0,6,0,8
120286,2023-01-20 10:55:55.684725,476421428,2,36702,560,0,6,0,8
120612,2023-01-20 10:55:56.687320,477424141,2,36788,561,0,6,0,8
120940,2023-01-20 10:55:57.681528,478426417,2,36872,562,0,6,0,8
121266,2023-01-20 10:55:58.672020,479428855,2,36955,563,0,6,0,8
121642,2023-01-20 10:55:59.674752,480431376,2,37040,564,0,6,0,8
121968,2023-01-20 10:56:00.677451,481434103,2,37123,565,0,6,0,8
122294,2023-01-20 10:56:01.679802,482436497,2,37206,566,0,6,0,8
122622,2023-01-20 10:56:02.682231,483438883,2,37290,567,0,6,0,8
122948,2023-01-20 10:56:03.682578,484439231,2,37373,568,0,6,0,8
123278,2023-01-20 10:56:04.685175,485441827,2,37457,569,0,6,0,8
123604,2023-01-20 10:56:05.687182,486443869,2,37540,570,0,6,0,8
123931,2023-01-20 10:56:06.679512,487444229,2,37624,571,0,6,0,8
124258,2023-01-20 10:56:07.669590,488446449,2,37707,572,0,6,0,8
124585,2023-01-20 10:56:08.671967,489448942,2,37791,573,0,6,0,8
124913,2023-01-20 10:56:09.674781,490451432,2,37875,574,0,6,0,8
125240,2023-01-20 10:56:10.677513,491454157,2,37959,575,0,6,0,8
125565,2023-01-20 10:56:11.679416,492456429,2,38042,576,0,6,0,8
125894,2023-01-20 10:56:12.681893,493458883,2,38126,577,0,6,0,8
126222,2023-01-20 10:56:13.682410,494459127,2,38211,578,0,6,0,8
126552,2023-01-20 10:56:14.684697,495461380,2,38295,579,0,6,0,8
126882,2023-01-20 10:56:15.687294,496464284,2,38378,580,0,6,0,8
127259,2023-01-20 10:56:16.689701,497466517,2,38461,581,0,6,0,8
127586,2023-01-20 10:56:17.672199,498468735,2,38545,582,0,6,0,8
127935,2023-01-20 10:56:18.674760,499471735,2,38628,583,0,6,0,8
128264,2023-01-20 10:56:19.677020,500473839,2,38713,584,0,6,0,8
128590,2023-01-20 10:56:20.680037,501476696,2,38796,585,0,6,0,8
128917,2023-01-20 10:56:21.682158,502478851,2,38880,586,0,6,0,8
129243,2023-01-20 10:56:22.684741,503481414,2,38963,587,0,6,0,8
129571,2023-01-20 10:56:23.687191,504483857,2,39047,588,0,6,0,8
129900,2023-01-20 10:56:24.689684,505486375,2,39130,589,0,6,0,8
130227,2023-01-20 10:56:25.692447,506489111,2,39214,590,0,6,0,8
130553,2023-01-20 10:56:26.694447,507491432,2,39297,591,0,6,0,8
130879,2023-01-20 10:56:27.676775,508493774,2,39381,592,0,6,0,8
131206,2023-01-20 10:56:28.679856,509496516,2,39464,593,0,6,0,8
131536,2023-01-20 10:56:29.682189,510498844,2,39549,594,0,6,0,8
131862,2023-01-20 10:56:30.684698,511501380,2,39632,595,0,6,0,8
132188,2023-01-20 10:56:31.687061,512503852,2,39715,596,0,6,0,8
132564,2023-01-20 10:56:32.687242,513504234,2,39799,597,0,6,0,8
132891,2023-01-20 10:56:33.689305,514507004,2,39882,598,0,6,0,8
133221,2023-01-20 10:56:34.691761,515509473,2,39966,599,0,6,0,8
133547,2023-01-20 10:56:35.694270,516511978,2,40049,600,0,6,0,8
133874,2023-01-20 10:56:36.677292,517514467,2,40133,601,0,6,0,9
134200,2023-01-20 10:56:37.680293,518517499,2,40216,602,0,6,0,10
134528,2023-01-20 10:56:38.682154,519519490,2,40300,603,0,6,0,11
134856,2023-01-20 10:56:39.684677,520521987,2,40384,604,0,6,0,12
135182,2023-01-20 10:56:40.687189,521524506,2,40471,605,0,6,0,13
135508,2023-01-20 10:56:41.689688,522527001,2,40554,606,0,6,0,13
135835,2023-01-20 10:56:42.692423,523529740,2,40638,607,0,6,0,13
136162,2023-01-20 10:56:43.694656,524531973,2,40721,608,0,6,0,13
136494,2023-01-20 10:56:44.697164,525534496,2,40807,609,0,6,0,13
136820,2023-01-20 10:56:45.699737,526537056,2,40890,610,0,6,0,13
137147,2023-01-20 10:56:46.682387,527539531,2,40973,611,0,6,0,13
137474,2023-01-20 10:56:47.685059,528542293,2,41057,612,0,6,0,13
137801,2023-01-20 10:56:48.687610,529544937,2,41140,613,0,6,0,13
138179,2023-01-20 10:56:49.689648,530546982,2,41225,614,0,6,0,13
138505,2023-01-20 10:56:50.692151,531549510,2,41308,615,0,6,0,13
138832,2023-01-20 10:56:51.694718,532552064,2,41392,616,0,6,0,13
139158,2023-01-20 10:56:52.697471,533554827,2,41475,617,0,6,0,13
139486,2023-01-20 10:56:53.699737,534557078,2,41559,618,0,6,0,13
139815,2023-01-20 10:56:54.702129,535559466,2,41642,619,0,6,0,13
140142,2023-01-20 10:56:55.694190,536561984,2,41726,620,0,6,0,13
140468,2023-01-20 10:56:56.684847,537562029,2,41809,621,0,6,0,13
140799,2023-01-20 10:56:57.687424,538564724,2,41893,622,0,6,0,13
141128,2023-01-20 10:56:58.690139,539567417,2,41976,623,0,6,0,13
141457,2023-01-20 10:56:59.692135,540569443,2,42061,624,0,6,0,13
141805,2023-01-20 10:57:00.694650,541571965,2,42144,625,0,6,0,13
142131,2023-01-20 10:57:01.697213,542574529,2,42227,626,0,6,0,13
142458,2023-01-20 10:57:02.699744,543577049,2,42311,627,0,6,0,13
142787,2023-01-20 10:57:03.702402,544579731,2,42394,628,0,6,0,13
143116,2023-01-20 10:57:04.695271,545581997,2,42478,629,0,6,0,13
143491,2023-01-20 10:57:05.687401,546584487,2,42561,630,0,6,0,13
143818,2023-01-20 10:57:06.689760,547586987,2,42645,631,0,6,0,13
144144,2023-01-20 10:57:07.692149,548589464,2,42728,632,0,6,0,13
144472,2023-01-20 10:57:08.695024,549592321,2,42813,633,0,6,0,13
144800,2023-01-20 10:57:09.697209,550594506,2,42897,634,0,6,0,13
145127,2023-01-20 10:57:10.699730,551597033,2,42981,635,0,6,0,13
145453,2023-01-20 10:57:11.702174,552599469,2,43064,636,0,6,0,13
145780,2023-01-20 10:57:12.704701,553601998,2,43148,637,0,6,0,13
146108,2023-01-20 10:57:13.709693,554606998,2,43231,638,0,6,0,13
146438,2023-01-20 10:57:14.689533,555607066,2,43320,639,0,6,0,13
146765,2023-01-20 10:57:15.691838,556609446,2,43407,640,0,6,0,13
147090,2023-01-20 10:57:16.694339,557611979,2,43492,641,0,6,0,13
147417,2023-01-20 10:57:17.694304,558612020,2,43576,642,0,6,0,13
147744,2023-01-20 10:57:18.696779,559614501,2,43659,643,0,6,0,13
148073,2023-01-20 10:57:19.699750,560617530,2,43744,644,0,6,0,13
148399,2023-01-20 10:57:20.701743,561619464,2,43827,645,0,6,0,13
148725,2023-01-20 10:57:21.704223,562621996,2,43911,646,0,6,0,13
149052,2023-01-20 10:57:22.706788,563624507,2,44000,647,0,6,0,13
149378,2023-01-20 10:57:23.709316,564627013,2,44083,648,0,6,0,13
149704,2023-01-20 10:57:24.702189,565629843,2,44166,649,0,6,0,13
150077,2023-01-20 10:57:25.694772,566632003,2,44249,650,0,6,0,13
150404,2023-01-20 10:57:26.697201,567634512,2,44335,651,0,6,0,13
150728,2023-01-20 10:57:27.699716,568637048,2,44418,652,0,6,0,13
151054,2023-01-20 10:57:28.702185,569639494,2,44502,653,0,6,0,13
151381,2023-01-20 10:57:29.705026,570642349,2,44586,654,0,6,0,13
151705,2023-01-20 10:57:30.707616,571644961,2,44669,655,0,6,0,13
152030,2023-01-20 10:57:31.709683,572646993,2,44753,656,0,6,0,13
152355,2023-01-20 10:57:32.712179,573649519,2,44836,657,0,6,0,13
152682,2023-01-20 10:57:33.714729,574652021,2,44922,658,0,6,0,13
153009,2023-01-20 10:57:34.697616,575654746,2,45005,659,0,6,0,13
153333,2023-01-20 10:57:35.699799,576657058,2,45088,660,0,6,0,13
153658,2023-01-20 10:57:36.702111,577659473,2,45171,661,0,6,0,13
153988,2023-01-20 10:57:37.704667,578661997,2,45259,662,0,6,0,13
154315,2023-01-20 10:57:38.707233,579664587,2,45342,663,0,6,0,13
154645,2023-01-20 10:57:39.710078,580667409,2,45426,664,0,6,0,13
154972,2023-01-20 10:57:40.712095,581669429,2,45510,665,0,6,0,13
155322,2023-01-20 10:57:41.714626,582671959,2,45593,666,0,6,0,13
155649,2023-01-20 10:57:42.717176,583674494,2,45677,667,0,6,0,13
155976,2023-01-20 10:57:43.699975,584677049,2,45760,668,0,6,0,13
156306,2023-01-20 10:57:44.702489,585679725,2,45844,669,0,6,0,13
156634,2023-01-20 10:57:45.704690,586681954,2,45929,670,0,6,0,13
156961,2023-01-20 10:57:46.707181,587684483,2,46013,671,0,6,0,13
157287,2023-01-20 10:57:47.709730,588687030,2,46096,672,0,6,0,13
157613,2023-01-20 10:57:48.712168,589689475,2,46180,673,0,6,0,13
157942,2023-01-20 10:57:49.714978,590692275,2,46264,674,0,6,0,13
158313,2023-01-20 10:57:50.717128,591694447,2,46347,675,0,6,0,13
158640,2023-01-20 10:57:51.719726,592697027,2,46431,676,0,6,0,13
158967,2023-01-20 10:57:52.722159,593699463,2,46514,677,0,6,0,13
159295,2023-01-20 10:57:53.704916,594702002,2,46598,678,0,6,0,13
159624,2023-01-20 10:57:54.709732,595706980,2,46681,679,0,6,0,13
159951,2023-01-20 10:57:55.712306,596709511,2,46765,680,0,6,0,13
160277,2023-01-20 10:57:56.714678,597711990,2,46848,681,0,6,0,13
160604,2023-01-20 10:57:57.717189,598714482,2,46932,682,0,6,0,13
160930,2023-01-20 10:57:58.720230,599717523,2,47015,683,0,6,0,13
161260,2023-01-20 10:57:59.722143,600719439,2,47100,684,0,6,0,13
161586,2023-01-20 10:58:00.724684,601721982,2,47183,685,0,6,0,13
161913,2023-01-20 10:58:01.727174,602724509,2,47270,686,0,6,0,13
162239,2023-01-20 10:58:02.709413,603726988,2,47353,687,0,6,0,13
162567,2023-01-20 10:58:03.720325,604729819,2,47437,688,0,6,0,13
162895,2023-01-20 10:58:04.714288,605731973,2,47520,689,0,6,0,13
163221,2023-01-20 10:58:05.716748,606734486,2,47603,690,0,6,0,13
163548,2023-01-20 10:58:06.719351,607737039,2,47687,691,0,6,0,13
163925,2023-01-20 10:58:07.721776,608739515,2,47770,692,0,6,0,13
164252,2023-01-20 10:58:08.724606,609742302,2,47854,693,0,6,0,13
164581,2023-01-20 10:58:09.727202,610744923,2,47938,694,0,6,0,13
164908,2023-01-20 10:58:10.729275,611746968,2,48022,695,0,6,0,13
165234,2023-01-20 10:58:11.731791,612749481,2,48105,696,0,6,0,13
165561,2023-01-20 10:58:12.714833,613751996,2,48189,697,0,6,0,13
165888,2023-01-20 10:58:13.714878,614752064,2,48272,698,0,6,0,13
166218,2023-01-20 10:58:14.717428,615754735,2,48356,699,0,6,0,13
166544,2023-01-20 10:58:15.719726,616757031,2,48439,700,0,6,0,13
166873,2023-01-20 10:58:16.722166,617759474,2,48525,701,0,6,0,13
167199,2023-01-20 10:58:17.724672,618761979,2,48608,702,0,6,0,13
167529,2023-01-20 10:58:18.727297,619764603,2,48692,703,0,6,0,13
167859,2023-01-20 10:58:19.730088,620767400,2,48776,704,0,6,0,13
168185,2023-01-20 10:58:20.732141,621769446,2,48859,705,0,6,0,13
168534,2023-01-20 10:58:21.734653,622771966,2,48943,706,0,6,0,13
168860,2023-01-20 10:58:22.717263,623774458,2,49026,707,0,6,0,13
169237,2023-01-20 10:58:23.719784,624777040,2,49110,708,0,6,0,13
169567,2023-01-20 10:58:24.722368,625779697,2,49193,709,0,6,0,13
169894,2023-01-20 10:58:25.724619,626781974,2,49277,710,0,6,0,13
170220,2023-01-20 10:58:26.727192,627784525,2,49360,711,0,6,0,13
170547,2023-01-20 10:58:27.729637,628786984,2,49444,712,0,6,0,13
170873,2023-01-20 10:58:28.729676,629787007,2,49527,713,0,6,0,13
171203,2023-01-20 10:58:29.732140,630789473,2,49612,714,0,6,0,13
171529,2023-01-20 10:58:30.734907,631792269,2,49695,715,0,6,0,13
171856,2023-01-20 10:58:31.717380,632794473,2,49779,716,0,6,0,13
172182,2023-01-20 10:58:32.719754,633797020,2,49862,717,0,6,0,13
172510,2023-01-20 10:58:33.722209,634799480,2,49946,718,0,6,0,13
172839,2023-01-20 10:58:34.724721,635801974,2,50029,719,0,6,0,13
173164,2023-01-20 10:58:35.729675,636806978,2,50112,720,0,6,0,13
173491,2023-01-20 10:58:36.732177,637809507,2,50196,721,0,6,0,13
173817,2023-01-20 10:58:37.734677,638811972,2,50279,722,0,6,0,13
174144,2023-01-20 10:58:38.737146,639814477,2,50368,723,0,6,0,13
174473,2023-01-20 10:58:39.740236,640817542,2,50457,724,0,6,0,13
174850,2023-01-20 10:58:40.742193,641819477,2,50543,725,0,6,0,13
175176,2023-01-20 10:58:41.724866,642821976,2,50626,726,0,6,0,13
175503,2023-01-20 10:58:42.727242,643824506,2,50713,727,0,6,0,13
175830,2023-01-20 10:58:43.729702,644827008,2,50796,728,0,6,0,13
176159,2023-01-20 10:58:44.732505,645829832,2,50880,729,0,6,0,13
176486,2023-01-20 10:58:45.734699,646832003,2,50963,730,0,6,0,13
176813,2023-01-20 10:58:46.737148,647834476,2,51047,731,0,6,0,13
177141,2023-01-20 10:58:47.739753,648837052,2,51132,732,0,6,0,13
177467,2023-01-20 10:58:48.742165,649839466,2,51215,733,0,6,0,13
177796,2023-01-20 10:58:49.745017,650842323,2,51300,734,0,6,0,13
178123,2023-01-20 10:58:50.727427,651844943,2,51392,735,0,6,0,13
178450,2023-01-20 10:58:51.729386,652846978,2,51476,736,0,6,0,13
178776,2023-01-20 10:58:52.731802,653849511,2,51559,737,0,6,0,13
179103,2023-01-20 10:58:53.734298,654852005,2,51643,738,0,6,0,13
179431,2023-01-20 10:58:54.737122,655854823,2,51726,739,0,6,0,13
179759,2023-01-20 10:58:55.739357,656857047,2,51810,740,0,6,0,13
180135,2023-01-20 10:58:56.741758,657859472,2,51893,741,0,6,0,13
180462,2023-01-20 10:58:57.744322,658862021,2,51977,742,0,6,0,13
180791,2023-01-20 10:58:58.746874,659864593,2,52060,743,0,6,0,13
181122,2023-01-20 10:58:59.749722,660867425,2,52145,744,0,6,0,13
181449,2023-01-20 10:59:00.746549,661869473,2,52228,745,0,6,0,13
181798,2023-01-20 10:59:01.734691,662871971,2,52312,746,0,6,0,13
182124,2023-01-20 10:59:02.737196,663874510,2,52395,747,0,6,0,13
182451,2023-01-20 10:59:03.739734,664877053,2,52478,748,0,6,0,13
182780,2023-01-20 10:59:04.742415,665879735,2,52562,749,0,6,0,13
183107,2023-01-20 10:59:05.744646,666881970,2,52645,750,0,6,0,13
183434,2023-01-20 10:59:06.747212,667884511,2,52729,751,0,6,0,13
183760,2023-01-20 10:59:07.749647,668887002,2,52812,752,0,6,0,13
184086,2023-01-20 10:59:08.752173,669889479,2,52896,753,0,6,0,13
184414,2023-01-20 10:59:09.750040,670892312,2,52980,754,0,6,0,13
184742,2023-01-20 10:59:10.737322,671894521,2,53064,755,0,6,0,13
185068,2023-01-20 10:59:11.739684,672897069,2,53147,756,0,6,0,13
185396,2023-01-20 10:59:12.742145,673899486,2,53231,757,0,6,0,13
185771,2023-01-20 10:59:13.744623,674902018,2,53314,758,0,6,0,13
186098,2023-01-20 10:59:14.749687,675907022,2,53397,759,0,6,0,13
186427,2023-01-20 10:59:15.752160,676909538,2,53484,760,0,6,0,13
186751,2023-01-20 10:59:16.754650,677911994,2,53567,761,0,6,0,13
187075,2023-01-20 10:59:17.757138,678914476,2,53650,762,0,6,0,13
187401,2023-01-20 10:59:18.760223,679917557,2,53735,763,0,6,0,13
187730,2023-01-20 10:59:19.762153,680919473,2,53822,764,0,6,0,13
188055,2023-01-20 10:59:20.744816,681922007,2,53905,765,0,6,0,13
188380,2023-01-20 10:59:21.747266,682924504,2,53991,766,0,6,0,13
188705,2023-01-20 10:59:22.749687,683926994,2,54075,767,0,6,0,13
189031,2023-01-20 10:59:23.752538,684929851,2,54158,768,0,6,0,13
189357,2023-01-20 10:59:24.754698,685932009,2,54241,769,0,6,0,13
189686,2023-01-20 10:59:25.757173,686934485,2,54328,770,0,6,0,13
190009,2023-01-20 10:59:26.759746,687937047,2,54411,771,0,6,0,13
190334,2023-01-20 10:59:27.762180,688939496,2,54494,772,0,6,0,13
190658,2023-01-20 10:59:28.765021,689942318,2,54577,773,0,6,0,13
190989,2023-01-20 10:59:29.747866,690944943,2,54666,774,0,6,0,13
191315,2023-01-20 10:59:30.749768,691946990,2,54749,775,0,6,0,13
191639,2023-01-20 10:59:31.752225,692949524,2,54832,776,0,6,0,13
191966,2023-01-20 10:59:32.754715,693952009,2,54916,777,0,6,0,13
192293,2023-01-20 10:59:33.757500,694954803,2,54999,778,0,6,0,13
192621,2023-01-20 10:59:34.759773,695957070,2,55082,779,0,6,0,13
192949,2023-01-20 10:59:35.762162,696959468,2,55166,780,0,6,0,13
193275,2023-01-20 10:59:36.764723,697962024,2,55249,781,0,6,0,13
193605,2023-01-20 10:59:37.767270,698964569,2,55333,782,0,6,0,13
193933,2023-01-20 10:59:38.770080,699967437,2,55416,783,0,6,0,13
194262,2023-01-20 10:59:39.768988,700969436,2,55501,784,0,6,0,13
194611,2023-01-20 10:59:40.754294,701971951,2,55584,785,0,6,0,13
194983,2023-01-20 10:59:41.754312,702972031,2,55668,786,0,6,0,13
195309,2023-01-20 10:59:42.756738,703974469,2,55751,787,0,6,0,13
195636,2023-01-20 10:59:43.759332,704977038,2,55835,788,0,6,0,13
195965,2023-01-20 10:59:44.761998,705979731,2,55918,789,0,6,0,13
196292,2023-01-20 10:59:45.762016,706980126,2,56002,790,0,6,0,13
196619,2023-01-20 10:59:46.764241,707982433,2,56085,791,0,6,0,13
196946,2023-01-20 10:59:47.767264,708984896,2,56169,792,0,6,0,13
197274,2023-01-20 10:59:48.752250,709985237,2,56254,793,0,6,0,13
197602,2023-01-20 10:59:49.749789,710987610,2,56338,794,0,6,0,13
197929,2023-01-20 10:59:50.752155,711990117,2,56422,795,0,6,0,13
198256,2023-01-20 10:59:51.754654,712992629,2,56505,796,0,6,0,13
198583,2023-01-20 10:59:52.757450,713995449,2,56589,797,0,6,0,13
198910,2023-01-20 10:59:53.759760,714997732,2,56672,798,0,6,0,13
199239,2023-01-20 10:59:54.762176,716000141,2,56756,799,0,6,0,13
199565,2023-01-20 10:59:55.764647,717002623,2,56839,800,0,6,0,13
199893,2023-01-20 10:59:56.767190,718005148,2,56923,801,0,6,0,13
200268,2023-01-20 10:59:57.772136,719010125,2,57006,802,0,6,0,13
200595,2023-01-20 10:59:58.754527,720012627,2,57090,803,0,6,0,13
200923,2023-01-20 10:59:59.756917,721015128,2,57174,804,0,6,0,13
201249,2023-01-20 11:00:00.759450,722017701,2,57258,805,0,6,0,13
201577,2023-01-20 11:00:01.762265,723020615,2,57341,806,0,6,0,13
201904,2023-01-20 11:00:02.764297,724022614,2,57428,807,0,6,0,13
202231,2023-01-20 11:00:03.766842,725025153,2,57511,808,0,6,0,13
202559,2023-01-20 11:00:04.769384,726027686,2,57594,809,0,6,0,13
202886,2023-01-20 11:00:05.771845,727030150,2,57678,810,0,6,0,13
203213,2023-01-20 11:00:06.774650,728032959,2,57761,811,0,6,0,13
203540,2023-01-20 11:00:07.776735,729035120,2,57845,812,0,6,0,13
203866,2023-01-20 11:00:08.759874,730037695,2,57928,813,0,6,0,13
204195,2023-01-20 11:00:09.762352,731040269,2,58013,814,0,6,0,13
204522,2023-01-20 11:00:10.764695,732042652,2,58096,815,0,6,0,13
204850,2023-01-20 11:00:11.767510,733045461,2,58180,816,0,6,0,13
205176,2023-01-20 11:00:12.770112,734048064,2,58263,817,0,6,0,13
205504,2023-01-20 11:00:13.772181,735050135,2,58347,818,0,6,0,13
205881,2023-01-20 11:00:14.774683,736052637,2,58430,819,0,6,0,13
206208,2023-01-20 11:00:15.777226,737055219,2,58514,820,0,6,0,13
206535,2023-01-20 11:00:16.780094,738058042,2,58597,821,0,6,0,13
206863,2023-01-20 11:00:17.765886,739060236,2,58681,822,0,6,0,13
207189,2023-01-20 11:00:18.782995,740062613,2,58764,823,0,6,0,13
207522,2023-01-20 11:00:19.767325,741065285,2,58850,824,0,6,0,13
207851,2023-01-20 11:00:20.769877,742067823,2,58934,825,0,6,0,13
208177,2023-01-20 11:00:21.772446,743070453,2,59017,826,0,6,0,13
208526,2023-01-20 11:00:22.774712,744072678,2,59101,827,0,6,0,13
208853,2023-01-20 11:00:23.777114,745075121,2,59184,828,0,6,0,13
209182,2023-01-20 11:00:24.779717,746077686,2,59268,829,0,6,0,13
209508,2023-01-20 11:00:25.782151,747080120,2,59355,830,0,6,0,13
209836,2023-01-20 11:00:26.784995,748082954,2,59441,831,0,6,0,13
210162,2023-01-20 11:00:27.770364,749085262,2,59527,832,0,6,0,13
210489,2023-01-20 11:00:28.769900,750087649,2,59611,833,0,6,0,13
210817,2023-01-20 11:00:29.772259,751090208,2,59695,834,0,6,0,13
211193,2023-01-20 11:00:30.774664,752092629,2,59779,835,0,6,0,13
211520,2023-01-20 11:00:31.777503,753095462,2,59862,836,0,6,0,13
211846,2023-01-20 11:00:32.779719,754097680,2,59945,837,0,6,0,13
212175,2023-01-20 11:00:33.782197,755100151,2,60029,838,0,6,0,13
212503,2023-01-20 11:00:34.784272,756103021,2,60112,839,0,6,0,13
212830,2023-01-20 11:00:35.789283,757108103,2,60196,840,0,6,0,13
213156,2023-01-20 11:00:36.791780,758110505,2,60279,841,0,6,0,13
213483,2023-01-20 11:00:37.777126,759113025,2,60363,842,0,6,0,13
213809,2023-01-20 11:00:38.777341,760115596,2,60446,843,0,6,0,13
214138,2023-01-20 11:00:39.780309,761118624,2,60531,844,0,6,0,13
214464,2023-01-20 11:00:40.782223,762120554,2,60614,845,0,6,0,13
214792,2023-01-20 11:00:41.784741,763123075,2,60701,846,0,6,0,13
215118,2023-01-20 11:00:42.787227,764125556,2,60784,847,0,6,0,13
215446,2023-01-20 11:00:43.789811,765128134,2,60868,848,0,6,0,13
215774,2023-01-20 11:00:44.792536,766130901,2,60951,849,0,6,0,13
216101,2023-01-20 11:00:45.794731,767133057,2,61035,850,0,6,0,13
216427,2023-01-20 11:00:46.777412,768135566,2,61118,851,0,6,0,13
216804,2023-01-20 11:00:47.780262,769138388,2,61202,852,0,6,0,13
217131,2023-01-20 11:00:48.782207,770140554,2,61285,853,0,6,0,13
217459,2023-01-20 11:00:49.784997,771143339,2,61369,854,0,6,0,13
217788,2023-01-20 11:00:50.787155,772145543,2,61455,855,0,6,0,13
218114,2023-01-20 11:00:51.790122,773148474,2,61538,856,0,6,0,13
218442,2023-01-20 11:00:52.792100,774150495,2,61622,857,0,6,0,13
218769,2023-01-20 11:00:53.794724,775153083,2,61705,858,0,6,0,13
219098,2023-01-20 11:00:54.797529,776155922,2,61789,859,0,6,0,13
219425,2023-01-20 11:00:55.800090,777158444,2,61872,860,0,6,0,13
219750,2023-01-20 11:00:56.782312,778160541,2,61956,861,0,6,0,13
220079,2023-01-20 11:00:57.804226,779162992,2,62039,862,0,6,0,13
220404,2023-01-20 11:00:58.784719,780163092,2,62123,863,0,6,0,13
220735,2023-01-20 11:00:59.787266,781165589,2,62207,864,0,6,0,13
221064,2023-01-20 11:01:00.790151,782168468,2,62291,865,0,6,0,13
221390,2023-01-20 11:01:01.792169,783170489,2,62374,866,0,6,0,13
221741,2023-01-20 11:01:02.794670,784172997,2,62457,867,0,6,0,13
222069,2023-01-20 11:01:03.794748,785173086,2,62541,868,0,6,0,13
222446,2023-01-20 11:01:04.797231,786175562,2,62624,869,0,6,0,13
222775,2023-01-20 11:01:05.800086,787178412,2,62708,870,0,6,0,13
223098,2023-01-20 11:01:06.782578,788180908,2,62791,871,0,6,0,13
223426,2023-01-20 11:01:07.784717,789182977,2,62877,872,0,6,0,13
223751,2023-01-20 11:01:08.784726,790183051,2,62961,873,0,6,0,13
224077,2023-01-20 11:01:09.787229,791185557,2,63045,874,0,6,0,13
224401,2023-01-20 11:01:10.789693,792188012,2,63128,875,0,6,0,13
224727,2023-01-20 11:01:11.792184,793190506,2,63214,876,0,6,0,13
225052,2023-01-20 11:01:12.795002,794193314,2,63297,877,0,6,0,13
225378,2023-01-20 11:01:13.797184,795195503,2,63380,878,0,6,0,13
225707,2023-01-20 11:01:14.800079,796198413,2,63464,879,0,6,0,13
226032,2023-01-20 11:01:15.802133,797200488,2,63547,880,0,6,0,13
226354,2023-01-20 11:01:16.784357,798203024,2,63630,881,0,6,0,13
226680,2023-01-20 11:01:17.789333,799207989,2,63714,882,0,6,0,13
227007,2023-01-20 11:01:18.791848,800210537,2,63801,883,0,6,0,13
227333,2023-01-20 11:01:19.794198,801213024,2,63884,884,0,6,0,13
227657,2023-01-20 11:01:20.796787,802215503,2,63967,885,0,6,0,13
227985,2023-01-20 11:01:21.800138,803218918,2,64052,886,0,6,0,13
228316,2023-01-20 11:01:22.801813,804220515,2,64140,887,0,6,0,13
228641,2023-01-20 11:01:23.804272,805223004,2,64226,888,0,6,0,13
228966,2023-01-20 11:01:24.788535,806225514,2,64309,889,0,6,0,13
229293,2023-01-20 11:01:25.789897,807228029,2,64393,890,0,6,0,13
229619,2023-01-20 11:01:26.792597,808230854,2,64476,891,0,6,0,13
229947,2023-01-20 11:01:27.794636,809233005,2,64560,892,0,6,0,13
230273,2023-01-20 11:01:28.797208,810235522,2,64644,893,0,6,0,13
230604,2023-01-20 11:01:29.800088,811238409,2,64728,894,0,6,0,13
230930,2023-01-20 11:01:30.802158,812240478,2,64811,895,0,6,0,13
231257,2023-01-20 11:01:31.805931,813244256,2,64895,896,0,6,0,13
231631,2023-01-20 11:01:32.807185,814245507,2,64978,897,0,6,0,13
231959,2023-01-20 11:01:33.810111,815248430,2,65062,898,0,6,0,13
232285,2023-01-20 11:01:34.792395,816250537,2,65145,899,0,6,0,13
232611,2023-01-20 11:01:35.794790,817253029,2,65228,900,0,6,0,13
232938,2023-01-20 11:01:36.797683,818255831,2,65312,901,0,6,0,13
233267,2023-01-20 11:01:37.800089,819258434,2,65395,902,0,6,0,13
233595,2023-01-20 11:01:38.802156,820260516,2,65480,903,0,6,0,13
233922,2023-01-20 11:01:39.804696,821263044,2,27,904,0,6,0,13
234252,2023-01-20 11:01:40.807226,822265569,2,111,905,0,6,0,13
234580,2023-01-20 11:01:41.811002,823269348,2,194,906,0,6,0,13
234907,2023-01-20 11:01:42.812148,824270484,2,278,907,0,6,0,13
235257,2023-01-20 11:01:43.814610,825272960,2,361,908,0,6,0,13
235584,2023-01-20 11:01:44.795407,826273030,2,445,909,0,6,0,13
235910,2023-01-20 11:01:45.797185,827275481,2,528,910,0,6,0,13
236239,2023-01-20 11:01:46.800103,828278383,2,612,911,0,6,0,13
236565,2023-01-20 11:01:47.803351,829281665,2,695,912,0,6,0,13
236893,2023-01-20 11:01:48.804695,830283007,2,780,913,0,6,0,13
237270,2023-01-20 11:01:49.807208,831285533,2,863,914,0,6,0,13
237597,2023-01-20 11:01:50.809629,832287996,2,947,915,0,6,0,13
237923,2023-01-20 11:01:51.812196,833290510,2,1030,916,0,6,0,13
238251,2023-01-20 11:01:52.814939,834293292,2,1115,917,0,6,0,13
238580,2023-01-20 11:01:53.817200,835295479,2,1199,918,0,6,0,13
238908,2023-01-20 11:01:54.800098,836298353,2,1282,919,0,6,0,13
239236,2023-01-20 11:01:55.802241,837300465,2,1366,920,0,6,0,13
239561,2023-01-20 11:01:56.804655,838303008,2,1449,921,0,6,0,13
239888,2023-01-20 11:01:57.809682,839307980,2,1533,922,0,6,0,13
240215,2023-01-20 11:01:58.812158,840310517,2,1618,923,0,6,0,13
240544,2023-01-20 11:01:59.814682,841313000,2,1702,924,0,6,0,13
240870,2023-01-20 11:02:00.817177,842315507,2,1790,925,0,6,0,13
241197,2023-01-20 11:02:01.821119,843319450,2,1879,926,0,6,0,13
241523,2023-01-20 11:02:02.822177,844320493,2,1961,927,0,6,0,13
241852,2023-01-20 11:02:03.804442,845323009,2,2052,928,0,6,0,13
242180,2023-01-20 11:02:04.806793,846325506,2,2139,929,0,6,0,13
242556,2023-01-20 11:02:05.809345,847328049,2,2227,930,0,6,0,14
242882,2023-01-20 11:02:06.812940,848331667,2,2310,931,0,6,0,14
243208,2023-01-20 11:02:07.814282,849333016,2,2393,932,0,6,0,14
243536,2023-01-20 11:02:08.816801,850335520,2,2478,933,0,6,0,15
243864,2023-01-20 11:02:09.819324,851338065,2,2561,934,0,6,0,16
244192,2023-01-20 11:02:10.821818,852340567,2,2645,935,0,6,0,17
244517,2023-01-20 11:02:11.824565,853343291,2,2728,936,0,6,0,17
244844,2023-01-20 11:02:12.826774,854345479,2,2812,937,0,6,0,17
245172,2023-01-20 11:02:13.810314,855348446,2,2895,938,0,6,0,17
245501,2023-01-20 11:02:14.812278,856350495,2,2979,939,0,6,0,17
245827,2023-01-20 11:02:15.814858,857353024,2,3062,940,0,6,0,17
246154,2023-01-20 11:02:16.817495,858355831,2,3146,941,0,6,0,17
246480,2023-01-20 11:02:17.819755,859358098,2,3229,942,0,6,0,17
246808,2023-01-20 11:02:18.822259,860360592,2,3314,943,0,6,0,19
247136,2023-01-20 11:02:19.824685,861363022,2,3397,944,0,6,0,19
247465,2023-01-20 11:02:20.827261,862365594,2,3480,945,0,6,0,19
247794,2023-01-20 11:02:21.830086,863368454,2,3564,946,0,6,0,19
248169,2023-01-20 11:02:22.829260,864370472,2,3647,947,0,6,0,19
248523,2023-01-20 11:02:23.814929,865373055,2,3733,948,0,6,0,19
248851,2023-01-20 11:02:24.817153,866375469,2,3816,949,0,6,0,19
249178,2023-01-20 11:02:25.819672,867378077,2,3900,950,0,6,0,19
249505,2023-01-20 11:02:26.822455,868380819,2,3983,951,0,6,0,19
249831,2023-01-20 11:02:27.824584,869382990,2,4067,952,0,6,0,19
250158,2023-01-20 11:02:28.824679,870383051,2,4151,953,0,6,0,19
250487,2023-01-20 11:02:29.827106,871385515,2,4235,954,0,6,0,19
250813,2023-01-20 11:02:30.829635,872388009,2,4318,955,0,6,0,19
251140,2023-01-20 11:02:31.832127,873390503,2,4402,956,0,6,0,19
251466,2023-01-20 11:02:32.815233,874393329,2,4485,957,0,6,0,19
251795,2023-01-20 11:02:33.817284,875395537,2,4569,958,0,6,0,19
252123,2023-01-20 11:02:34.819752,876398079,2,4652,959,0,6,0,19
252449,2023-01-20 11:02:35.822168,877400504,2,4735,960,0,6,0,19
252776,2023-01-20 11:02:36.824682,878403021,2,4819,961,0,6,0,19
253102,2023-01-20 11:02:37.829680,879408020,2,4902,962,0,6,0,19
253479,2023-01-20 11:02:38.832191,880410540,2,4987,963,0,6,0,19
253807,2023-01-20 11:02:39.834674,881413017,2,5070,964,0,6,0,19
254134,2023-01-20 11:02:40.837158,882415498,2,5154,965,0,6,0,19
254460,2023-01-20 11:02:41.836589,883418569,2,5237,966,0,6,0,19
254787,2023-01-20 11:02:42.821185,884419419,2,5321,967,0,6,0,19
255115,2023-01-20 11:02:43.822126,885420458,2,5404,968,0,6,0,19
255444,2023-01-20 11:02:44.824663,886423006,2,5491,969,0,6,0,19
255770,2023-01-20 11:02:45.827179,887425520,2,5574,970,0,6,0,19
256097,2023-01-20 11:02:46.829733,888428062,2,5658,971,0,6,0,19
256423,2023-01-20 11:02:47.832403,889430739,2,5741,972,0,6,0,19
256749,2023-01-20 11:02:48.834656,890432994,2,5825,973,0,6,0,19
257079,2023-01-20 11:02:49.834682,891433021,2,5909,974,0,6,0,19
257405,2023-01-20 11:02:50.837170,892435504,2,5992,975,0,6,0,19
257732,2023-01-20 11:02:51.836103,893438069,2,6076,976,0,6,0,19
258058,2023-01-20 11:02:52.821916,894440487,2,6159,977,0,6,0,19
258386,2023-01-20 11:02:53.824705,895443303,2,6243,978,0,6,0,19
258717,2023-01-20 11:02:54.826873,896445480,2,6328,979,0,6,0,19
259093,2023-01-20 11:02:55.829713,897448444,2,6412,980,0,6,0,19
259419,2023-01-20 11:02:56.831778,898450538,2,6495,981,0,6,0,19
259745,2023-01-20 11:02:57.834330,899453058,2,6579,982,0,6,0,19
260070,2023-01-20 11:02:58.837086,900455850,2,6663,983,0,6,0,19
260400,2023-01-20 11:02:59.839343,901458088,2,6749,984,0,6,0,19
260724,2023-01-20 11:03:00.841800,902460525,2,6832,985,0,6,0,19
261048,2023-01-20 11:03:01.824867,903463024,2,6915,986,0,6,0,19
261376,2023-01-20 11:03:02.827254,904465571,2,6999,987,0,6,0,19
261706,2023-01-20 11:03:03.830117,905468444,2,7085,988,0,6,0,19
262033,2023-01-20 11:03:04.832124,906470492,2,7168,989,0,6,0,19
262380,2023-01-20 11:03:05.834636,907472971,2,7251,990,0,6,0,19
262705,2023-01-20 11:03:06.834673,908473020,2,7335,991,0,6,0,19
263030,2023-01-20 11:03:07.837136,909475496,2,7418,992,0,6,0,19
263354,2023-01-20 11:03:08.839749,910478087,2,7502,993,0,6,0,19
263681,2023-01-20 11:03:09.842471,911480827,2,7585,994,0,6,0,19
264009,2023-01-20 11:03:10.840627,912482981,2,7672,995,0,6,0,19
264333,2023-01-20 11:03:11.827396,913485565,2,7755,996,0,6,0,19
264657,2023-01-20 11:03:12.829708,914488013,2,7838,997,0,6,0,19
264987,2023-01-20 11:03:13.832168,915490539,2,7926,998,0,6,0,19
265315,2023-01-20 11:03:14.834967,916493342,2,8008,999,0,6,0,19
265639,2023-01-20 11:03:15.837118,917495496,2,8089,1000,0,6,0,19
265961,2023-01-20 11:03:16.839697,918498077,2,8170,1001,0,6,0,19
266285,2023-01-20 11:03:17.842121,919500533,2,8251,1002,0,6,0,19
266608,2023-01-20 11:03:18.844611,920503032,2,8333,1003,0,6,0,19
266934,2023-01-20 11:03:19.849627,921508047,2,8414,1004,0,6,0,19
267257,2023-01-20 11:03:20.852162,922510581,2,8495,1005,0,6,0,19
267580,2023-01-20 11:03:21.834821,923513060,2,8576,1006,0,6,0,19
267904,2023-01-20 11:03:22.837162,924515501,2,8660,1008,0,6,0,19
268228,2023-01-20 11:03:23.840168,925518529,2,8743,1009,0,6,0,19
268556,2023-01-20 11:03:24.842114,926520465,2,8828,1010,0,6,0,19
268879,2023-01-20 11:03:25.844732,927523043,2,8914,1011,0,6,0,19
269203,2023-01-20 11:03:26.847172,928525490,2,8997,1012,0,6,0,19
269528,2023-01-20 11:03:27.849691,929528009,2,9080,1013,0,6,0,19
269854,2023-01-20 11:03:28.852505,930530820,2,9165,1014,0,6,0,19
270183,2023-01-20 11:03:29.854734,931533057,2,9248,1015,0,6,0,19
270510,2023-01-20 11:03:30.852072,932535525,2,9332,1016,0,6,0,19
270836,2023-01-20 11:03:31.839924,933538052,2,9415,1017,0,6,0,19
271164,2023-01-20 11:03:32.842176,934540464,2,9499,1018,0,6,0,19
271490,2023-01-20 11:03:33.845126,935543309,2,9582,1019,0,6,0,19
271863,2023-01-20 11:03:34.847156,936545476,2,9665,1020,0,6,0,19
272190,2023-01-20 11:03:35.850104,937548415,2,9749,1021,0,6,0,19
272516,2023-01-20 11:03:36.852147,938550485,2,9832,1022,0,6,0,19
272843,2023-01-20 11:03:37.854686,939552999,2,9916,1023,0,6,0,19
273169,2023-01-20 11:03:38.854705,940553029,2,10004,1024,0,6,0,19
273498,2023-01-20 11:03:39.857524,941555850,2,10090,1025,0,6,0,19
273825,2023-01-20 11:03:40.839590,942558133,2,10176,1026,0,6,0,19
274152,2023-01-20 11:03:41.841873,943560508,2,10260,1027,0,6,0,19
274478,2023-01-20 11:03:42.844293,944562996,2,10343,1028,0,6,0,19
274806,2023-01-20 11:03:43.844259,945563004,2,10427,1029,0,6,0,19
275139,2023-01-20 11:03:44.846984,946565730,2,10510,1030,0,6,0,19
275469,2023-01-20 11:03:45.849744,947568465,2,10594,1031,0,6,0,19
275795,2023-01-20 11:03:46.851729,948570469,2,10677,1032,0,6,0,19
276143,2023-01-20 11:03:47.854234,949572959,2,10760,1033,0,6,0,19
276469,2023-01-20 11:03:48.856757,950575478,2,10845,1034,0,6,0,19
276797,2023-01-20 11:03:49.854096,951578069,2,10928,1035,0,6,0,19
277126,2023-01-20 11:03:50.842729,952580840,2,11012,1036,0,6,0,19
277501,2023-01-20 11:03:51.844806,953583022,2,11095,1037,0,6,0,19
277829,2023-01-20 11:03:52.847174,954585487,2,11179,1038,0,6,0,19
278155,2023-01-20 11:03:53.849733,955588058,2,11262,1039,0,6,0,19
278486,2023-01-20 11:03:54.852154,956590478,2,11348,1040,0,6,0,19
278813,2023-01-20 11:03:55.854982,957593315,2,11432,1041,0,6,0,19
279140,2023-01-20 11:03:56.857154,958595481,2,11516,1042,0,6,0,19
279466,2023-01-20 11:03:57.859708,959598044,2,11599,1043,0,6,0,19
279793,2023-01-20 11:03:58.862204,960600539,2,11684,1044,0,6,0,19
280121,2023-01-20 11:03:59.864666,961603000,2,11767,1045,0,6,0,19
280449,2023-01-20 11:04:00.844851,962603005,2,11851,1046,0,6,0,19
280775,2023-01-20 11:04:01.849682,963607982,2,11934,1047,0,6,0,19
281102,2023-01-20 11:04:02.852170,964610531,2,12017,1048,0,6,0,19
281429,2023-01-20 11:04:03.854630,965612993,2,12101,1049,0,6,0,19
281756,2023-01-20 11:04:04.857113,966615481,2,12184,1050,0,6,0,19
282084,2023-01-20 11:04:05.860160,967618516,2,12268,1051,0,6,0,19
282411,2023-01-20 11:04:06.862063,968620469,2,12351,1052,0,6,0,19
282737,2023-01-20 11:04:07.864609,969622999,2,12438,1053,0,6,0,19
283061,2023-01-20 11:04:08.867128,970625505,2,12522,1054,0,6,0,19
283436,2023-01-20 11:04:09.849892,971628009,2,12605,1055,0,6,0,19
283760,2023-01-20 11:04:10.852613,972630869,2,12688,1056,0,6,0,19
284083,2023-01-20 11:04:11.854613,973632966,2,12771,1057,0,6,0,19
284407,2023-01-20 11:04:12.857129,974635482,2,12854,1058,0,6,0,19
284732,2023-01-20 11:04:13.859995,975638338,2,12937,1059,0,6,0,19
285055,2023-01-20 11:04:14.862153,976640481,2,13020,1060,0,6,0,19
285379,2023-01-20 11:04:15.864984,977643320,2,13103,1061,0,6,0,19
285702,2023-01-20 11:04:16.867134,978645491,2,13184,1062,0,6,0,19
286025,2023-01-20 11:04:17.870100,979648447,2,13265,1063,0,6,0,19
286349,2023-01-20 11:04:18.852375,980650502,2,13347,1064,0,6,0,19
286674,2023-01-20 11:04:19.854953,981653056,2,13428,1065,0,6,0,19
286999,2023-01-20 11:04:20.857577,982655873,2,13509,1066,0,6,0,19
287323,2023-01-20 11:04:21.859771,983658099,2,13590,1067,0,6,0,19
287648,2023-01-20 11:04:22.862190,984660527,2,13671,1068,0,6,0,19
287972,2023-01-20 11:04:23.864660,985662993,2,13752,1069,0,6,0,19
288298,2023-01-20 11:04:24.864688,986663025,2,13833,1070,0,6,0,19
288626,2023-01-20 11:04:25.867250,987665584,2,13916,1071,0,6,0,19
288952,2023-01-20 11:04:26.870108,988668448,2,13997,1072,0,6,0,19
289276,2023-01-20 11:04:27.872125,989670473,2,14078,1073,0,6,0,19
289623,2023-01-20 11:04:28.854382,990672969,2,14160,1074,0,6,0,19
289949,2023-01-20 11:04:29.856813,991675534,2,14241,1075,0,6,0,19
290274,2023-01-20 11:04:30.859409,992678103,2,14322,1076,0,6,0,19
290598,2023-01-20 11:04:31.862036,993680825,2,14403,1077,0,6,0,19
290922,2023-01-20 11:04:32.864205,994682975,2,14484,1078,0,6,0,19
291248,2023-01-20 11:04:33.866747,995685507,2,14565,1079,0,6,0,19
291572,2023-01-20 11:04:34.869224,996687995,2,14646,1080,0,6,0,19
291896,2023-01-20 11:04:35.871732,997690504,2,14727,1081,0,6,0,19
292220,2023-01-20 11:04:36.874526,998693300,2,14808,1082,0,6,0,19
292544,2023-01-20 11:04:37.863505,999695485,2,14889,1083,0,6,0,19
292869,2023-01-20 11:04:38.860186,1000698347,2,14971,1084,0,6,0,19
293194,2023-01-20 11:04:39.862213,1001700530,2,15052,1085,0,6,0,19
293518,2023-01-20 11:04:40.864692,1002703042,2,15133,1086,0,6,0,19
293842,2023-01-20 11:04:41.869701,1003708047,2,15214,1087,0,6,0,19
294167,2023-01-20 11:04:42.872171,1004710514,2,15295,1088,0,6,0,19
294493,2023-01-20 11:04:43.874655,1005712999,2,15376,1089,0,6,0,19
294816,2023-01-20 11:04:44.874655,1006713018,2,15457,1090,0,6,0,19
295140,2023-01-20 11:04:45.877130,1007715481,2,15538,1091,0,6,0,19
295464,2023-01-20 11:04:46.880175,1008718548,2,15619,1092,0,6,0,19
295788,2023-01-20 11:04:47.862321,1009720492,2,15700,1093,0,6,0,19
296113,2023-01-20 11:04:48.864702,1010723029,2,15785,1094,0,6,0,19
296436,2023-01-20 11:04:49.867250,1011725566,2,15866,1095,0,6,0,19
296759,2023-01-20 11:04:50.869670,1012728071,2,15947,1096,0,6,0,19
297084,2023-01-20 11:04:51.872424,1013730834,2,16028,1097,0,6,0,19
297408,2023-01-20 11:04:52.874590,1014732992,2,16109,1098,0,6,0,19
297733,2023-01-20 11:04:53.877118,1015735523,2,16190,1099,0,6,0,19
298056,2023-01-20 11:04:54.879657,1016738068,2,16271,1100,0,6,0,19
298381,2023-01-20 11:04:55.882111,1017740492,2,16352,1101,0,6,0,19
298707,2023-01-20 11:04:56.884937,1018743316,2,16435,1102,0,6,0,19
299030,2023-01-20 11:04:57.867303,1019745482,2,16516,1103,0,6,0,19
299355,2023-01-20 11:04:58.870236,1020748422,2,16598,1104,0,6,0,19
299679,2023-01-20 11:04:59.872184,1021750523,2,16679,1105,0,6,0,19
300001,2023-01-20 11:05:00.874687,1022753040,2,16760,1106,0,6,0,19
300326,2023-01-20 11:05:01.877509,1023755860,2,16841,1107,0,6,0,19
300651,2023-01-20 11:05:02.879760,1024758049,2,16922,1108,0,6,0,19
300945,2023-01-20 11:05:03.882218,1025760305,2,17004,1109,0,6,0,19
301218,2023-01-20 11:05:04.884681,1026762777,2,17085,1110,0,6,0,19
301494,2023-01-20 11:05:05.887307,1027765379,2,17166,1111,0,6,0,19
301770,2023-01-20 11:05:06.890181,1028768269,2,17247,1112,0,6,0,19
302043,2023-01-20 11:05:07.872332,1029770276,2,17328,1113,0,6,0,19
302335,2023-01-20 11:05:08.874763,1030772822,2,17410,1114,0,6,0,19
302608,2023-01-20 11:05:09.877205,1031775283,2,17491,1115,0,6,0,19
302881,2023-01-20 11:05:10.879752,1032777844,2,17572,1116,0,6,0,19
303156,2023-01-20 11:05:11.882451,1033780565,2,17653,1117,0,6,0,19
303430,2023-01-20 11:05:12.884623,1034782717,2,17734,1118,0,6,0,19
303705,2023-01-20 11:05:13.887198,1035785311,2,17815,1119,0,6,0,19
303978,2023-01-20 11:05:14.889667,1036787742,2,17896,1120,0,6,0,19
304251,2023-01-20 11:05:15.892211,1037790281,2,17982,1121,0,6,0,19
304525,2023-01-20 11:05:16.874751,1038793091,2,18067,1122,0,6,0,19
304798,2023-01-20 11:05:17.888340,1039795359,2,18148,1123,0,6,0,19
