LineNo,UTC_Approx,TimeUS,LiftMax,BatVolt,ThLimit,ThrAvMx,FailFlags
375,2023-01-20 10:49:56.259243,116248256,0.9701302,0.9817661,1,0.02924092,2
965,2023-01-20 10:49:56.350230,116348291,0.9701674,0.981789,1,0.02924092,2
1123,2023-01-20 10:49:56.452177,116454720,0.9702445,0.9818364,1,0.02924092,2
1342,2023-01-20 10:49:56.564872,116566406,0.970235,0.9818306,1,0.02924092,2
1562,2023-01-20 10:49:56.665680,116667146,0.9702047,0.9818119,1,0.02924092,2
1882,2023-01-20 10:49:56.765277,116767118,0.9701826,0.9817984,1,0.02924092,2
1927,2023-01-20 10:49:56.865171,116867142,0.9701677,0.9817892,1,0.02924092,2
1975,2023-01-20 10:49:56.965142,116967114,0.9701555,0.9817817,1,0.02924092,2
2025,2023-01-20 10:49:57.065170,117067129,0.9701468,0.9817764,1,0.02924092,2
2071,2023-01-20 10:49:57.165267,117167205,0.970142,0.9817734,1,0.02924092,2
2121,2023-01-20 10:49:57.272370,117267115,0.9701375,0.9817706,1,0.02924092,2
2180,2023-01-20 10:49:57.383478,117367190,0.9701336,0.9817682,1,0.02924092,2
2236,2023-01-20 10:49:57.477405,117467212,0.9701297,0.9817658,1,0.02924092,2
2295,2023-01-20 10:49:57.568233,117567118,0.9701282,0.9817649,1,0.02924092,2
2351,2023-01-20 10:49:57.665071,117667146,0.9701282,0.9817649,1,0.02924092,2
2409,2023-01-20 10:49:57.765145,117767241,0.9701282,0.9817649,1,0.02924092,2
2452,2023-01-20 10:49:57.865011,117867135,0.9701282,0.9817649,1,0.02924092,2
2497,2023-01-20 10:49:57.964962,117967115,0.9701282,0.9817649,1,0.02924092,2
2536,2023-01-20 10:49:58.065046,118067156,0.9701282,0.9817649,1,0.02924092,2
2578,2023-01-20 10:49:58.165128,118167156,0.9701282,0.9817649,1,0.02924092,2
2618,2023-01-20 10:49:58.265099,118267118,0.9701298,0.9817659,1,0.02924092,2
2658,2023-01-20 10:49:58.365087,118367136,0.9701303,0.9817662,1,0.02924092,2
2697,2023-01-20 10:49:58.465164,118467225,0.9696648,0.9814799,1,0.02924092,2
2738,2023-01-20 10:49:58.565058,118567121,0.9688827,0.9809988,1,0.02924092,2
2780,2023-01-20 10:49:58.665059,118667140,0.9686378,0.9808481,1,0.02924092,2
2819,2023-01-20 10:49:58.765127,118767235,0.9686972,0.9808847,1,0.02924092,2
2863,2023-01-20 10:49:58.865027,118867143,0.9687408,0.9809115,1,0.02924092,2
2902,2023-01-20 10:49:58.965000,118967115,0.9687698,0.9809293,1,0.02924092,2
2941,2023-01-20 10:49:59.065067,119067164,0.9687213,0.9808995,1,0.02924092,2
2982,2023-01-20 10:49:59.165078,119167148,0.9681848,0.9805693,1,0.02924092,2
3021,2023-01-20 10:49:59.265050,119267112,0.9667636,0.9796943,1,0.02924092,2
3060,2023-01-20 10:49:59.365074,119367137,0.9664183,0.9794816,1,0.02924092,2
3100,2023-01-20 10:49:59.465142,119467208,0.9663605,0.979446,1,0.02924092,2
3141,2023-01-20 10:49:59.565049,119567120,0.9663454,0.9794367,1,0.02924092,2
3182,2023-01-20 10:49:59.665067,119667151,0.966361,0.9794463,1,0.02924092,2
3221,2023-01-20 10:49:59.765133,119767236,0.9663633,0.9794477,1,0.02924092,2
3260,2023-01-20 10:49:59.865068,119867180,0.9663408,0.9794338,1,0.02924092,2
3299,2023-01-20 10:49:59.964988,119967105,0.9663528,0.9794412,1,0.02924092,2
3338,2023-01-20 10:50:00.065097,120067198,0.9663147,0.9794178,1,0.02924092,2
3380,2023-01-20 10:50:00.165079,120167153,0.9663141,0.9794174,1,0.02924092,2
3419,2023-01-20 10:50:00.265043,120267113,0.9663663,0.9794496,1,0.02924092,2
3458,2023-01-20 10:50:00.365059,120367137,0.9663998,0.9794702,1,0.02924092,2
3498,2023-01-20 10:50:00.465048,120467124,0.9664108,0.979477,1,0.02924092,2
3538,2023-01-20 10:50:00.565047,120567116,0.9664087,0.9794757,1,0.02924092,2
3581,2023-01-20 10:50:00.665068,120667143,0.9663716,0.9794528,1,0.02924092,2
3620,2023-01-20 10:50:00.765145,120767232,0.9663194,0.9794207,1,0.02924092,2
3661,2023-01-20 10:50:00.865015,120867118,0.9662826,0.979398,1,0.02924092,2
3698,2023-01-20 10:50:00.964995,120967117,0.9662989,0.9794081,1,0.02924092,2
3730,2023-01-20 10:50:01.065114,121067238,0.9663418,0.9794345,1,0.02924092,2
3763,2023-01-20 10:50:01.165131,121167248,0.9663211,0.9794217,1,0.05851309,2
3795,2023-01-20 10:50:01.265073,121267223,0.9661364,0.9793079,1,0.1035477,2
3826,2023-01-20 10:50:01.365083,121367287,0.9655285,0.9789333,1,0.148582,2
3858,2023-01-20 10:50:01.465029,121467219,0.9632127,0.9775053,1,0.1936118,2
3891,2023-01-20 10:50:01.565032,121567170,0.9600715,0.9755657,1,0.2386459,2
3926,2023-01-20 10:50:01.665176,121667295,0.9566419,0.9734445,1,0.2836709,2
3957,2023-01-20 10:50:01.765415,121767532,0.9529748,0.9711725,1,0.3327345,2
3990,2023-01-20 10:50:01.865368,121867533,0.9493834,0.9689433,1,0.3827387,2
4022,2023-01-20 10:50:01.965325,121967566,0.945649,0.9666211,1,0.4104791,2
4054,2023-01-20 10:50:02.065308,122067532,0.9422074,0.9644771,1,0.3117728,2
4087,2023-01-20 10:50:02.165396,122167554,0.9399672,0.9630795,1,0.2969184,2
4119,2023-01-20 10:50:02.265451,122267587,0.9402006,0.9632252,1,0.3113724,2
4150,2023-01-20 10:50:02.365382,122367520,0.9408583,0.9636356,1,0.2950099,2
4182,2023-01-20 10:50:02.465122,122467521,0.9412476,0.9638785,1,0.2909764,2
4215,2023-01-20 10:50:02.564498,122567293,0.9419283,0.9643031,1,0.2915663,2
4251,2023-01-20 10:50:02.664346,122667259,0.942436,0.9646196,1,0.3031462,2
4281,2023-01-20 10:50:02.764378,122767254,0.9426566,0.9647571,1,0.3079499,2
4316,2023-01-20 10:50:02.864387,122867266,0.9426731,0.9647674,1,0.3183323,2
4346,2023-01-20 10:50:02.964330,122967234,0.9424573,0.9646329,1,0.3271438,2
4379,2023-01-20 10:50:03.064337,123067251,0.9420674,0.9643898,1,0.3249213,2
4411,2023-01-20 10:50:03.164402,123167318,0.9417194,0.9641727,1,0.3251293,2
4444,2023-01-20 10:50:03.264313,123267226,0.9414203,0.9639862,1,0.3370036,2
4474,2023-01-20 10:50:03.364340,123367248,0.9411626,0.9638255,1,0.3299835,2
4507,2023-01-20 10:50:03.464343,123467240,0.9407845,0.9635895,1,0.3367975,2
4539,2023-01-20 10:50:03.564338,123567222,0.9406432,0.9635014,1,0.3546653,2
4575,2023-01-20 10:50:03.664385,123667266,0.9402379,0.9632484,1,0.3761271,2
4605,2023-01-20 10:50:03.764372,123767257,0.9395407,0.9628133,1,0.3798122,2
4639,2023-01-20 10:50:03.864569,123867255,0.9387963,0.9623484,1,0.3750533,2
4671,2023-01-20 10:50:03.964903,123967277,0.9382505,0.9620075,1,0.3698538,2
4704,2023-01-20 10:50:04.065012,124067233,0.9380009,0.9618515,1,0.3450219,2
4736,2023-01-20 10:50:04.165119,124167273,0.937991,0.9618453,1,0.3344859,2
4769,2023-01-20 10:50:04.265143,124267276,0.9383484,0.9620686,1,0.3151238,2
4799,2023-01-20 10:50:04.365111,124367248,0.9387673,0.9623303,1,0.3093303,2
4832,2023-01-20 10:50:04.465065,124467230,0.9393816,0.9627139,1,0.3376594,2
4865,2023-01-20 10:50:04.565035,124567240,0.9397686,0.9629555,1,0.3423195,2
4901,2023-01-20 10:50:04.665063,124667254,0.9396637,0.96289,1,0.3481725,2
4931,2023-01-20 10:50:04.765112,124767261,0.9393602,0.9627005,1,0.3485435,2
4965,2023-01-20 10:50:04.865126,124867291,0.9391159,0.962548,1,0.3371251,2
4995,2023-01-20 10:50:04.965019,124967231,0.9388822,0.962402,1,0.3375371,2
5028,2023-01-20 10:50:05.065065,125067262,0.9387675,0.9623304,1,0.338406,2
5060,2023-01-20 10:50:05.165115,125167264,0.9387921,0.9623458,1,0.345757,2
5093,2023-01-20 10:50:05.265090,125267225,0.9387071,0.9622927,1,0.340078,2
5123,2023-01-20 10:50:05.365429,125367569,0.9384518,0.9621332,1,0.3316755,2
5156,2023-01-20 10:50:05.465102,125467235,0.9384046,0.9621037,1,0.3230968,2
5188,2023-01-20 10:50:05.565117,125567236,0.9383906,0.962095,1,0.3237032,2
5225,2023-01-20 10:50:05.665148,125667261,0.9384891,0.9621565,1,0.3258886,2
5255,2023-01-20 10:50:05.765426,125767536,0.9385473,0.9621928,1,0.3162347,2
5289,2023-01-20 10:50:05.859494,125867541,0.9384584,0.9621373,1,0.3030868,2
5319,2023-01-20 10:50:05.950395,125967514,0.9385638,0.9622031,1,0.3078918,2
5352,2023-01-20 10:50:06.045483,126067537,0.9387637,0.962328,1,0.3155119,2
5384,2023-01-20 10:50:06.145249,126167267,0.9388614,0.9623891,1,0.3056042,2
5417,2023-01-20 10:50:06.244685,126267242,0.938828,0.9623682,1,0.3070981,2
5449,2023-01-20 10:50:06.343698,126367493,0.9388491,0.9623814,1,0.3023672,2
5482,2023-01-20 10:50:06.442734,126467238,0.9389009,0.9624137,1,0.3018106,2
5514,2023-01-20 10:50:06.542721,126567237,0.9390113,0.9624827,1,0.3236271,2
5550,2023-01-20 10:50:06.642758,126667309,0.9389911,0.9624701,1,0.2946675,2
5580,2023-01-20 10:50:06.742639,126767254,0.9387686,0.9623311,1,0.2883902,2
5614,2023-01-20 10:50:06.842557,126867247,0.9390578,0.9625117,1,0.291834,2
5644,2023-01-20 10:50:06.942461,126967240,0.9394192,0.9627374,1,0.3082621,2
5677,2023-01-20 10:50:07.042466,127067305,0.9394475,0.962755,1,0.3003956,2
5709,2023-01-20 10:50:07.142393,127167250,0.9392766,0.9626483,1,0.3032357,2
5742,2023-01-20 10:50:07.242396,127267236,0.9391488,0.9625685,1,0.31708,2
5772,2023-01-20 10:50:07.342744,127367521,0.9390073,0.9624802,1,0.3129301,2
5805,2023-01-20 10:50:07.442441,127467219,0.9387066,0.9622924,1,0.3089501,2
5837,2023-01-20 10:50:07.542367,127567231,0.9385725,0.9622086,1,0.3166221,2
5873,2023-01-20 10:50:07.647127,127667267,0.9384941,0.9621596,1,0.3231379,2
5903,2023-01-20 10:50:07.758373,127767242,0.9382299,0.9619945,1,0.3228785,2
5937,2023-01-20 10:50:07.856822,127867241,0.9379226,0.9618025,1,0.3368759,2
5969,2023-01-20 10:50:07.947611,127967243,0.9377366,0.9616863,1,0.335732,2
6002,2023-01-20 10:50:08.042298,128067254,0.9374613,0.9615143,1,0.3230338,2
6034,2023-01-20 10:50:08.142337,128167311,0.9372659,0.9613922,1,0.3321562,2
6067,2023-01-20 10:50:08.242261,128267228,0.9372244,0.9613662,1,0.3499495,2
6097,2023-01-20 10:50:08.342597,128367522,0.936981,0.9612141,1,0.3386273,2
6130,2023-01-20 10:50:08.442329,128467233,0.9366589,0.9610127,1,0.3429545,2
6162,2023-01-20 10:50:08.542328,128567238,0.9365352,0.9609354,1,0.3429267,2
6198,2023-01-20 10:50:08.642347,128667265,0.9363957,0.9608481,1,0.3400106,2
6228,2023-01-20 10:50:08.742307,128767233,0.9363184,0.9607998,1,0.3409827,2
6262,2023-01-20 10:50:08.842396,128867286,0.9362778,0.9607744,1,0.3388798,2
6295,2023-01-20 10:50:08.942440,128967231,0.9360886,0.960656,1,0.3260804,2
6328,2023-01-20 10:50:09.042533,129067252,0.9360946,0.9606598,1,0.3307146,2
6360,2023-01-20 10:50:09.142574,129167254,0.9361925,0.960721,1,0.3343852,2
6393,2023-01-20 10:50:09.242501,129267236,0.9361655,0.9607041,1,0.3183873,2
6423,2023-01-20 10:50:09.342587,129367501,0.9361301,0.960682,1,0.3028845,2
6456,2023-01-20 10:50:09.442311,129467851,0.9363225,0.9608023,1,0.3089634,2
6488,2023-01-20 10:50:09.541157,129567917,0.936595,0.9609727,1,0.3158371,2
6524,2023-01-20 10:50:09.640439,129667926,0.9367051,0.9610416,1,0.3100775,2
6554,2023-01-20 10:50:09.740416,129767904,0.936727,0.9610553,1,0.3029133,2
6588,2023-01-20 10:50:09.840481,129867979,0.9368236,0.9611157,1,0.3098901,2
6619,2023-01-20 10:50:09.940398,129967918,0.9369254,0.9611793,1,0.3128638,2
6652,2023-01-20 10:50:10.040403,130067926,0.9369779,0.9612121,1,0.3132502,2
6684,2023-01-20 10:50:10.140511,130168009,0.9368837,0.9611532,1,0.3093651,2
6717,2023-01-20 10:50:10.240333,130267920,0.9367918,0.9610958,1,0.3057351,2
6747,2023-01-20 10:50:10.340168,130368014,0.9368382,0.9611247,1,0.308423,2
6780,2023-01-20 10:50:10.439931,130467943,0.9368476,0.9611306,1,0.3071228,2
6812,2023-01-20 10:50:10.539918,130567957,0.9368498,0.961132,1,0.317903,2
6848,2023-01-20 10:50:10.639922,130667984,0.9367617,0.961077,1,0.3159351,2
6878,2023-01-20 10:50:10.739871,130767951,0.9366559,0.9610108,1,0.3260079,2
6912,2023-01-20 10:50:10.839896,130868022,0.9364969,0.9609113,1,0.3336667,2
6942,2023-01-20 10:50:10.939752,130967967,0.9362667,0.9607674,1,0.3195089,2
6975,2023-01-20 10:50:11.039731,131067965,0.9360752,0.9606476,1,0.3145318,2
7007,2023-01-20 10:50:11.139894,131168041,0.9361489,0.9606938,1,0.3132025,2
7041,2023-01-20 10:50:11.239856,131267954,0.9362407,0.9607512,1,0.3137224,2
7071,2023-01-20 10:50:11.339863,131367968,0.9363457,0.9608168,1,0.3167046,2
7104,2023-01-20 10:50:11.439847,131467953,0.9363354,0.9608104,1,0.3104494,2
7135,2023-01-20 10:50:11.539856,131567957,0.9362878,0.9607806,1,0.3048504,2
7171,2023-01-20 10:50:11.639880,131667977,0.9363385,0.9608123,1,0.3005766,2
7201,2023-01-20 10:50:11.739858,131767956,0.9364753,0.9608979,1,0.2987164,2
7235,2023-01-20 10:50:11.839880,131868008,0.9365985,0.9609749,1,0.2888239,2
7265,2023-01-20 10:50:11.939748,131967951,0.9367493,0.9610692,1,0.2900362,2
7298,2023-01-20 10:50:12.039763,132067979,0.9369398,0.9611883,1,0.3001694,2
7330,2023-01-20 10:50:12.139890,132168025,0.9369903,0.9612198,1,0.2950635,2
7363,2023-01-20 10:50:12.239859,132267946,0.9370004,0.9612262,1,0.2998938,2
7393,2023-01-20 10:50:12.339878,132367969,0.9369861,0.9612172,1,0.3120959,2
7426,2023-01-20 10:50:12.439848,132467944,0.9369246,0.9611788,1,0.3059056,2
7458,2023-01-20 10:50:12.539850,132567953,0.9367282,0.961056,1,0.3076727,2
7494,2023-01-20 10:50:12.639871,132667975,0.936685,0.961029,1,0.3186586,2
7524,2023-01-20 10:50:12.739854,132767947,0.9365944,0.9609723,1,0.3247405,2
7558,2023-01-20 10:50:12.839847,132867963,0.9363484,0.9608185,1,0.3189414,2
7589,2023-01-20 10:50:12.939772,132967962,0.9361855,0.9607166,1,0.3180081,2
7622,2023-01-20 10:50:13.039758,133067963,0.9360321,0.9606206,1,0.3221025,2
7654,2023-01-20 10:50:13.139897,133168027,0.9360226,0.9606147,1,0.3113869,2
7687,2023-01-20 10:50:13.239860,133267947,0.935966,0.9605793,1,0.3186959,2
7717,2023-01-20 10:50:13.339874,133367964,0.9359845,0.9605909,1,0.3140782,2
7750,2023-01-20 10:50:13.439853,133467945,0.9359562,0.9605732,1,0.3089342,2
7782,2023-01-20 10:50:13.539861,133567952,0.9358618,0.9605142,1,0.3168674,2
7818,2023-01-20 10:50:13.639888,133667980,0.9357873,0.9604675,1,0.3120879,2
7848,2023-01-20 10:50:13.739859,133767952,0.9356493,0.9603813,1,0.3031497,2
7882,2023-01-20 10:50:13.839837,133867964,0.9356058,0.960354,1,0.3154091,2
7914,2023-01-20 10:50:13.939738,133967948,0.9355706,0.960332,1,0.3134269,2
7947,2023-01-20 10:50:14.039738,134067969,0.9354655,0.9602662,1,0.2923618,2
7979,2023-01-20 10:50:14.139866,134168023,0.9354515,0.9602575,1,0.3245978,2
8012,2023-01-20 10:50:14.239835,134267945,0.9355855,0.9603413,1,0.3459308,2
8042,2023-01-20 10:50:14.339877,134367979,0.935188,0.9600926,1,0.3477327,2
8075,2023-01-20 10:50:14.439846,134467944,0.9346868,0.959779,1,0.3560928,2
8108,2023-01-20 10:50:14.539854,134567952,0.9343824,0.9595884,1,0.3491147,2
8144,2023-01-20 10:50:14.639877,134667975,0.9341682,0.9594543,1,0.3595857,2
8174,2023-01-20 10:50:14.739854,134767952,0.9339784,0.9593355,1,0.3548434,2
8208,2023-01-20 10:50:14.839832,134867963,0.9337999,0.9592237,1,0.3429754,2
8238,2023-01-20 10:50:14.939736,134967951,0.9336959,0.9591586,1,0.3407981,2
8271,2023-01-20 10:50:15.039727,135067967,0.9337555,0.9591959,1,0.3383914,2
8303,2023-01-20 10:50:15.139848,135168023,0.9337814,0.9592122,1,0.3282153,2
8336,2023-01-20 10:50:15.239826,135267954,0.9338896,0.9592799,1,0.3420452,2
8366,2023-01-20 10:50:15.339866,135367974,0.9339392,0.9593109,1,0.3391477,2
8399,2023-01-20 10:50:15.439891,135467988,0.9338652,0.9592646,1,0.327216,2
8431,2023-01-20 10:50:15.539854,135567954,0.9338873,0.9592785,1,0.3339501,2
8467,2023-01-20 10:50:15.639882,135667983,0.9339131,0.9592946,1,0.3121867,2
8497,2023-01-20 10:50:15.739859,135767958,0.9339688,0.9593295,1,0.3123732,2
8531,2023-01-20 10:50:15.839854,135867963,0.9341562,0.9594468,1,0.3296559,2
8561,2023-01-20 10:50:15.939822,135967962,0.9342236,0.959489,1,0.3185056,2
8594,2023-01-20 10:50:16.039819,136067966,0.9341404,0.9594369,1,0.3206012,2
8626,2023-01-20 10:50:16.139879,136167995,0.934154,0.9594454,1,0.3246236,2
8659,2023-01-20 10:50:16.239827,136267946,0.9341953,0.9594713,1,0.3265828,2
8689,2023-01-20 10:50:16.339783,136367956,0.9341217,0.9594252,1,0.3332976,2
8722,2023-01-20 10:50:16.439765,136467948,0.9340774,0.9593975,1,0.3385906,2
8754,2023-01-20 10:50:16.539863,136567988,0.9339091,0.9592921,1,0.3354608,2
8790,2023-01-20 10:50:16.639881,136667972,0.9338273,0.9592409,1,0.3364433,2
8820,2023-01-20 10:50:16.739857,136767951,0.9336723,0.9591438,1,0.3376136,2
8854,2023-01-20 10:50:16.839854,136867959,0.933562,0.9590747,1,0.3326403,2
8884,2023-01-20 10:50:16.939825,136967953,0.933481,0.959024,1,0.3385746,2
8917,2023-01-20 10:50:17.039823,137067954,0.933423,0.9589877,1,0.3348139,2
8949,2023-01-20 10:50:17.139887,137167989,0.9333134,0.958919,1,0.3169828,2
8982,2023-01-20 10:50:17.239913,137268001,0.9334057,0.9589769,1,0.3420546,2
9012,2023-01-20 10:50:17.339874,137367971,0.9334214,0.9589867,1,0.3407575,2
9045,2023-01-20 10:50:17.439847,137467944,0.9332219,0.9588618,1,0.3302033,2
9077,2023-01-20 10:50:17.539863,137567950,0.9331291,0.9588036,1,0.329143,2
9113,2023-01-20 10:50:17.639941,137668022,0.933153,0.9588186,1,0.3320552,2
9143,2023-01-20 10:50:17.739877,137767959,0.9330665,0.9587644,1,0.3230287,2
9177,2023-01-20 10:50:17.836339,137867975,0.9330773,0.9587712,1,0.3197919,2
9207,2023-01-20 10:50:17.927414,137967955,0.9331349,0.9588072,1,0.3192332,2
9241,2023-01-20 10:50:18.022562,138068002,0.9331905,0.9588421,1,0.3307017,2
9273,2023-01-20 10:50:18.133330,138167974,0.9332328,0.9588686,1,0.3164913,2
9306,2023-01-20 10:50:18.239825,138267955,0.9332044,0.9588508,1,0.3108481,2
9336,2023-01-20 10:50:18.339933,138368022,0.9332768,0.9588962,1,0.3357748,2
9369,2023-01-20 10:50:18.436330,138467943,0.9332974,0.958909,1,0.3372002,2
9401,2023-01-20 10:50:18.527438,138567949,0.9331207,0.9587983,1,0.3339196,2
9437,2023-01-20 10:50:18.620369,138667973,0.9329239,0.9586751,1,0.3256946,2
9467,2023-01-20 10:50:18.720307,138767945,0.9327633,0.9585745,1,0.3273929,2
9501,2023-01-20 10:50:18.820286,138867958,0.9328083,0.9586027,1,0.3269753,2
9533,2023-01-20 10:50:18.920246,138967954,0.9328216,0.958611,1,0.325299,2
9566,2023-01-20 10:50:19.020272,139068002,0.9327593,0.958572,1,0.3202618,2
9598,2023-01-20 10:50:19.120280,139167974,0.9327046,0.9585377,1,0.3201683,2
9631,2023-01-20 10:50:19.220278,139267949,0.932829,0.9586156,1,0.3300455,2
9661,2023-01-20 10:50:19.320267,139367964,0.9328817,0.9586486,1,0.333055,2
9694,2023-01-20 10:50:19.420228,139467956,0.9328068,0.9586017,1,0.329662,2
9726,2023-01-20 10:50:19.520172,139567953,0.9326978,0.9585334,1,0.3260455,2
9762,2023-01-20 10:50:19.620148,139667972,0.9326766,0.9585201,1,0.3316368,2
9792,2023-01-20 10:50:19.720122,139767948,0.9326357,0.9584945,1,0.3405237,2
9826,2023-01-20 10:50:19.820127,139867958,0.9325338,0.9584306,1,0.3452753,2
9856,2023-01-20 10:50:19.920110,139967959,0.9322358,0.9582439,1,0.3436249,2
9889,2023-01-20 10:50:20.020146,140068006,0.9320726,0.9581417,1,0.3334359,2
9921,2023-01-20 10:50:20.120140,140167990,0.9319687,0.9580765,1,0.3331201,2
9954,2023-01-20 10:50:20.220118,140267947,0.9319583,0.95807,1,0.3373302,2
9987,2023-01-20 10:50:20.320184,140367949,0.9319123,0.9580412,1,0.3418136,2
10020,2023-01-20 10:50:20.420216,140467931,0.9318997,0.9580333,1,0.3420347,2
10052,2023-01-20 10:50:20.520215,140567934,0.9318041,0.9579734,1,0.3430569,2
10088,2023-01-20 10:50:20.620275,140667991,0.9316815,0.9578965,1,0.3412444,2
10118,2023-01-20 10:50:20.720258,140767935,0.9316549,0.9578798,1,0.341759,2
10152,2023-01-20 10:50:20.820270,140867941,0.9315765,0.9578307,1,0.3414114,2
10182,2023-01-20 10:50:20.920133,140967923,0.9315653,0.9578237,1,0.3359182,2
10215,2023-01-20 10:50:21.020081,141067955,0.9315143,0.9577917,1,0.3303199,2
10247,2023-01-20 10:50:21.120133,141167951,0.9315498,0.957814,1,0.3337912,2
10280,2023-01-20 10:50:21.220190,141267969,0.9315702,0.9578267,1,0.3356893,2
10310,2023-01-20 10:50:21.320197,141368000,0.9315717,0.9578277,1,0.3348226,2
10343,2023-01-20 10:50:21.420112,141467928,0.9314797,0.95777,1,0.326413,2
10375,2023-01-20 10:50:21.520149,141567929,0.9315058,0.9577864,1,0.3253585,2
10411,2023-01-20 10:50:21.620184,141667948,0.9314457,0.9577487,1,0.3336879,2
10441,2023-01-20 10:50:21.720112,141767937,0.9314051,0.9577232,1,0.3368187,2
10475,2023-01-20 10:50:21.820065,141867942,0.9313284,0.9576752,1,0.3403389,2
10505,2023-01-20 10:50:21.920091,141967981,0.9312431,0.9576217,1,0.338344,2
10538,2023-01-20 10:50:22.020065,142067956,0.9310902,0.9575258,1,0.3390261,2
10570,2023-01-20 10:50:22.120119,142167959,0.9310064,0.9574733,1,0.3437361,2
10603,2023-01-20 10:50:22.220114,142267921,0.9308488,0.9573745,1,0.3532423,2
10633,2023-01-20 10:50:22.320116,142367958,0.9306476,0.9572482,1,0.3526966,2
10666,2023-01-20 10:50:22.420062,142467923,0.9304571,0.9571287,1,0.3429387,2
10698,2023-01-20 10:50:22.520115,142567929,0.9304341,0.9571143,1,0.3441865,2
10734,2023-01-20 10:50:22.620220,142668001,0.9304143,0.9571019,1,0.3523237,2
10764,2023-01-20 10:50:22.720139,142767936,0.930362,0.9570691,1,0.3583957,2
10798,2023-01-20 10:50:22.820124,142867941,0.9303261,0.9570466,1,0.3679177,2
10828,2023-01-20 10:50:22.920086,142967935,0.9301783,0.9569539,1,0.3787372,2
10861,2023-01-20 10:50:23.020083,143067947,0.9298834,0.9567688,1,0.3822716,2
10894,2023-01-20 10:50:23.120192,143168005,0.9296188,0.9566028,1,0.3755511,2
10927,2023-01-20 10:50:23.220192,143267970,0.9294075,0.9564702,1,0.3795426,2
10957,2023-01-20 10:50:23.320153,143367960,0.929331,0.9564222,1,0.3908006,2
10990,2023-01-20 10:50:23.420098,143467925,0.9291808,0.9563279,1,0.3929501,2
11022,2023-01-20 10:50:23.520121,143567934,0.9290637,0.9562544,1,0.3864231,2
11058,2023-01-20 10:50:23.620163,143667967,0.9288971,0.9561499,1,0.3826588,2
11088,2023-01-20 10:50:23.720110,143767928,0.928829,0.9561071,1,0.3859094,2
11122,2023-01-20 10:50:23.820114,143867946,0.9288115,0.9560961,1,0.3851297,2
11155,2023-01-20 10:50:23.920119,143967968,0.9287139,0.9560348,1,0.3734505,2
11188,2023-01-20 10:50:24.020091,144067941,0.9287673,0.9560683,1,0.3642789,2
11220,2023-01-20 10:50:24.120167,144167955,0.9288741,0.9561355,1,0.366716,2
11253,2023-01-20 10:50:24.220167,144267919,0.9288978,0.9561503,1,0.362888,2
11283,2023-01-20 10:50:24.320135,144367949,0.9289264,0.9561682,1,0.3730673,2
11316,2023-01-20 10:50:24.420071,144467922,0.9290081,0.9562195,1,0.3601601,2
11349,2023-01-20 10:50:24.520193,144567978,0.9288499,0.9561203,1,0.3326893,2
11386,2023-01-20 10:50:24.620201,144667950,0.9290606,0.9562525,1,0.3445853,2
11416,2023-01-20 10:50:24.720098,144767928,0.9293053,0.9564061,1,0.3419197,2
11450,2023-01-20 10:50:24.820079,144867974,0.9295046,0.9565312,1,0.3015938,2
11481,2023-01-20 10:50:24.920062,144967956,0.929818,0.9567278,1,0.2940522,2
11514,2023-01-20 10:50:25.020075,145067963,0.9302509,0.9569994,1,0.2721423,2
11546,2023-01-20 10:50:25.120129,145167988,0.9308971,0.9574047,1,0.2680959,2
11580,2023-01-20 10:50:25.220123,145267960,0.9317533,0.9579415,1,0.2711653,2
11610,2023-01-20 10:50:25.320123,145367966,0.9324427,0.9583736,1,0.2637253,2
11643,2023-01-20 10:50:25.420112,145467957,0.9328982,0.958659,1,0.2613682,2
11675,2023-01-20 10:50:25.520169,145568001,0.9335955,0.9590957,1,0.2533122,2
11711,2023-01-20 10:50:25.620147,145667971,0.934158,0.9594479,1,0.2645978,2
11741,2023-01-20 10:50:25.720116,145767952,0.9347748,0.959834,1,0.2959755,2
11774,2023-01-20 10:50:25.820154,145868005,0.9350515,0.9600072,1,0.3275565,2
11806,2023-01-20 10:50:25.920080,145967955,0.9347671,0.9598292,1,0.3316815,2
11839,2023-01-20 10:50:26.020080,146067966,0.9344453,0.9596278,1,0.3093288,2
11871,2023-01-20 10:50:26.120128,146167977,0.9343336,0.9595579,1,0.3161754,2
11904,2023-01-20 10:50:26.220121,146267947,0.9343659,0.9595781,1,0.3979386,2
11934,2023-01-20 10:50:26.320092,146367954,0.9340213,0.9593623,1,0.3814553,2
11967,2023-01-20 10:50:26.420065,146467950,0.9334459,0.959002,1,0.3887397,2
11999,2023-01-20 10:50:26.520100,146567955,0.9330559,0.9587578,1,0.4153426,2
12035,2023-01-20 10:50:26.620140,146667972,0.9326947,0.9585315,1,0.4466088,2
12065,2023-01-20 10:50:26.720125,146767962,0.9321908,0.9582157,1,0.4557214,2
12098,2023-01-20 10:50:26.820176,146868022,0.9317228,0.9579224,1,0.4392622,2
12129,2023-01-20 10:50:26.920087,146967957,0.9313157,0.9576672,1,0.442391,2
12162,2023-01-20 10:50:27.020175,147068063,0.9310949,0.9575288,1,0.4360346,2
12194,2023-01-20 10:50:27.120100,147167979,0.9309252,0.9574223,1,0.4209005,2
12227,2023-01-20 10:50:27.220085,147267953,0.930833,0.9573645,1,0.4261569,2
12257,2023-01-20 10:50:27.320134,147367988,0.930837,0.957367,1,0.4372693,2
12290,2023-01-20 10:50:27.418303,147467949,0.930796,0.9573413,1,0.4308355,2
12322,2023-01-20 10:50:27.509371,147567991,0.9306566,0.9572539,1,0.4194863,2
12358,2023-01-20 10:50:27.600532,147668083,0.9306424,0.9572449,1,0.408787,2
12388,2023-01-20 10:50:27.700390,147767949,0.9305857,0.9572094,1,0.4157557,2
12421,2023-01-20 10:50:27.800500,147868066,0.9305727,0.9572012,1,0.409068,2
12453,2023-01-20 10:50:27.900322,147967952,0.9304965,0.9571534,1,0.409152,2
12486,2023-01-20 10:50:28.000534,148068228,0.9303657,0.9570714,1,0.4039457,2
12518,2023-01-20 10:50:28.100302,148167971,0.9302594,0.9570047,1,0.3911336,2
12552,2023-01-20 10:50:28.200509,148268153,0.9301628,0.9569442,1,0.3835416,2
12582,2023-01-20 10:50:28.300346,148367965,0.9300849,0.9568953,1,0.3908367,2
12615,2023-01-20 10:50:28.400569,148468107,0.9300942,0.9569011,1,0.3967424,2
12647,2023-01-20 10:50:28.511358,148567950,0.9300758,0.9568896,1,0.385797,2
12683,2023-01-20 10:50:28.618329,148667976,0.9300603,0.9568799,1,0.3809076,2
12713,2023-01-20 10:50:28.709337,148767984,0.9299793,0.956829,1,0.3762293,2
12746,2023-01-20 10:50:28.800491,148868106,0.9299887,0.9568349,1,0.4053851,2
12779,2023-01-20 10:50:28.900231,148967959,0.9299116,0.9567865,1,0.3854092,2
12812,2023-01-20 10:50:29.000486,149068328,0.9297639,0.9566938,1,0.3823512,2
12844,2023-01-20 10:50:29.100211,149167999,0.9297481,0.9566839,1,0.3792721,2
12878,2023-01-20 10:50:29.200536,149268270,0.9296992,0.9566533,1,0.3834919,2
12908,2023-01-20 10:50:29.300160,149367959,0.9296967,0.9566517,1,0.3922671,2
12941,2023-01-20 10:50:29.400469,149468333,0.9295861,0.9565822,1,0.3888994,2
12973,2023-01-20 10:50:29.500102,149567946,0.9294239,0.9564805,1,0.3786222,2
13009,2023-01-20 10:50:29.600501,149668326,0.9294111,0.9564725,1,0.3745292,2
13039,2023-01-20 10:50:29.700122,149767956,0.9293998,0.9564654,1,0.3802563,2
13072,2023-01-20 10:50:29.800479,149868322,0.9293867,0.9564571,1,0.3862014,2
13103,2023-01-20 10:50:29.900127,149967993,0.9292628,0.9563794,1,0.3835024,2
13136,2023-01-20 10:50:30.000495,150068383,0.9292232,0.9563546,1,0.3644953,2
13168,2023-01-20 10:50:30.100128,150167982,0.9291561,0.9563124,1,0.3661638,2
13201,2023-01-20 10:50:30.200475,150268295,0.9292179,0.9563512,1,0.3635933,2
13231,2023-01-20 10:50:30.300153,150367972,0.9292427,0.9563668,1,0.3542832,2
13264,2023-01-20 10:50:30.400487,150468305,0.9292675,0.9563823,1,0.3676699,2
13296,2023-01-20 10:50:30.500136,150567960,0.929262,0.9563789,1,0.355378,2
13332,2023-01-20 10:50:30.600489,150668318,0.9292881,0.9563953,1,0.3456528,2
13363,2023-01-20 10:50:30.700112,150767943,0.9293177,0.9564139,1,0.3555503,2
13396,2023-01-20 10:50:30.800472,150868305,0.929334,0.9564241,1,0.3568002,2
13427,2023-01-20 10:50:30.900090,150967956,0.9293403,0.9564281,1,0.3518539,2
13460,2023-01-20 10:50:31.000489,151068389,0.9292955,0.9563999,1,0.3510886,2
13492,2023-01-20 10:50:31.100212,151168024,0.9294021,0.9564668,1,0.3535741,2
13525,2023-01-20 10:50:31.200529,151268253,0.9293758,0.9564503,1,0.3639466,2
13555,2023-01-20 10:50:31.300196,151367970,0.9293422,0.9564292,1,0.3673966,2
13588,2023-01-20 10:50:31.400475,151468299,0.9292887,0.9563956,1,0.3606491,2
13620,2023-01-20 10:50:31.500117,151567960,0.9292669,0.956382,1,0.3637972,2
13655,2023-01-20 10:50:31.600499,151668362,0.9292371,0.9563633,1,0.334785,2
13686,2023-01-20 10:50:31.700093,151767943,0.929279,0.9563895,1,0.3041351,2
13719,2023-01-20 10:50:31.800464,151868301,0.9294255,0.9564815,1,0.2819923,2
13751,2023-01-20 10:50:31.900128,151967988,0.9297293,0.9566722,1,0.2700928,2
13784,2023-01-20 10:50:32.000484,152068367,0.9302359,0.95699,1,0.2597724,2
13816,2023-01-20 10:50:32.100119,152167975,0.9307108,0.9572878,1,0.2726311,2
13849,2023-01-20 10:50:32.200481,152268310,0.9311836,0.9575844,1,0.2783699,2
13879,2023-01-20 10:50:32.300142,152367964,0.9314481,0.9577502,1,0.2780432,2
13912,2023-01-20 10:50:32.400481,152468297,0.9317325,0.9579285,1,0.281332,2
13944,2023-01-20 10:50:32.500112,152567953,0.9320316,0.9581159,1,0.2881733,2
13979,2023-01-20 10:50:32.600494,152668360,0.9321558,0.9581938,1,0.2910801,2
14010,2023-01-20 10:50:32.700091,152767944,0.9322805,0.9582719,1,0.3004598,2
14043,2023-01-20 10:50:32.800475,152868314,0.9323268,0.9583009,1,0.3135514,2
14074,2023-01-20 10:50:32.900130,152967990,0.9322805,0.9582719,1,0.3261881,2
14107,2023-01-20 10:50:33.000467,153068348,0.9321917,0.9582163,1,0.3474453,2
14139,2023-01-20 10:50:33.100138,153167991,0.9320456,0.9581248,1,0.3542164,2
14172,2023-01-20 10:50:33.200474,153268299,0.9319416,0.9580595,1,0.3431309,2
14203,2023-01-20 10:50:33.300157,153367978,0.9318318,0.9579907,1,0.343581,2
14236,2023-01-20 10:50:33.400482,153468299,0.9317594,0.9579453,1,0.3394408,2
14269,2023-01-20 10:50:33.500139,153567960,0.9317329,0.9579287,1,0.3306692,2
14305,2023-01-20 10:50:33.600490,153668316,0.9317197,0.9579204,1,0.3258614,2
14336,2023-01-20 10:50:33.700115,153767948,0.9316893,0.9579014,1,0.3237757,2
14369,2023-01-20 10:50:33.800464,153868303,0.9316291,0.9578636,1,0.3252042,2
14402,2023-01-20 10:50:33.900120,153967986,0.9316157,0.9578552,1,0.3199833,2
14435,2023-01-20 10:50:34.000460,154068352,0.9316679,0.9578879,1,0.3240718,2
14467,2023-01-20 10:50:34.100098,154167976,0.9316592,0.9578825,1,0.3225667,2
14500,2023-01-20 10:50:34.200489,154268353,0.9316571,0.9578812,1,0.3229007,2
14530,2023-01-20 10:50:34.300135,154367975,0.9316233,0.9578601,1,0.3272807,2
14563,2023-01-20 10:50:34.400473,154468289,0.9316005,0.9578457,1,0.3354934,2
14596,2023-01-20 10:50:34.500155,154567935,0.9315043,0.9577854,1,0.3401299,2
14630,2023-01-20 10:50:34.600566,154668309,0.9314711,0.9577646,1,0.3490106,2
14662,2023-01-20 10:50:34.700161,154767953,0.9313241,0.9576725,1,0.3372771,2
14695,2023-01-20 10:50:34.800471,154868312,0.9312629,0.9576341,1,0.3453418,2
14728,2023-01-20 10:50:34.900093,154967967,0.9312316,0.9576144,1,0.3464931,2
14761,2023-01-20 10:50:35.000476,155068383,0.9311381,0.9575558,1,0.3440781,2
14793,2023-01-20 10:50:35.100182,155168003,0.9310966,0.9575298,1,0.3425898,2
14826,2023-01-20 10:50:35.200542,155268278,0.9310833,0.9575214,1,0.3433504,2
14856,2023-01-20 10:50:35.300204,155367942,0.9310432,0.9574963,1,0.3530873,2
14889,2023-01-20 10:50:35.400537,155468278,0.9310261,0.9574856,1,0.3499653,2
14921,2023-01-20 10:50:35.500190,155567930,0.9309405,0.9574319,1,0.3386095,2
14956,2023-01-20 10:50:35.600556,155668295,0.9309973,0.9574676,1,0.3362798,2
14987,2023-01-20 10:50:35.700207,155767967,0.9309936,0.9574652,1,0.3311163,2
15020,2023-01-20 10:50:35.800502,155868282,0.9310246,0.9574847,1,0.3313025,2
15051,2023-01-20 10:50:35.900110,155967931,0.9310115,0.9574764,1,0.3380545,2
15084,2023-01-20 10:50:36.000475,156068337,0.9309781,0.9574555,1,0.3390787,2
15116,2023-01-20 10:50:36.100151,156167955,0.9309882,0.9574618,1,0.3365602,2
15149,2023-01-20 10:50:36.200534,156268280,0.930969,0.9574498,1,0.3301235,2
15179,2023-01-20 10:50:36.300159,156367953,0.9309275,0.9574237,1,0.3517826,2
15212,2023-01-20 10:50:36.400474,156468317,0.9308857,0.9573976,1,0.3466901,2
15244,2023-01-20 10:50:36.500137,156567923,0.9307365,0.957304,1,0.3448914,2
15279,2023-01-20 10:50:36.600565,156668295,0.930715,0.9572905,1,0.3621535,2
15310,2023-01-20 10:50:36.700194,156767920,0.9305792,0.9572054,1,0.361634,2
15343,2023-01-20 10:50:36.800570,156868293,0.9305067,0.9571599,1,0.3849937,2
15374,2023-01-20 10:50:36.900116,156967931,0.9303677,0.9570727,1,0.3887185,2
15407,2023-01-20 10:50:37.000470,157068378,0.9302604,0.9570053,1,0.3775326,2
15439,2023-01-20 10:50:37.100125,157167953,0.930131,0.9569242,1,0.3634183,2
15472,2023-01-20 10:50:37.200535,157268283,0.9300298,0.9568607,1,0.3604724,2
15502,2023-01-20 10:50:37.300208,157367953,0.9300264,0.9568586,1,0.3500999,2
15535,2023-01-20 10:50:37.400531,157468274,0.9300522,0.9568747,1,0.3498664,2
15567,2023-01-20 10:50:37.500212,157567940,0.9300638,0.9568821,1,0.3472134,2
15602,2023-01-20 10:50:37.600904,157668616,0.930044,0.9568696,1,0.3515842,2
15633,2023-01-20 10:50:37.700242,157767969,0.9299868,0.9568337,1,0.3729824,2
15666,2023-01-20 10:50:37.800549,157868291,0.9297956,0.9567137,1,0.3693908,2
15698,2023-01-20 10:50:37.900145,157967930,0.9296523,0.9566239,1,0.3787852,2
15731,2023-01-20 10:50:38.000473,158068348,0.9296393,0.9566157,1,0.3927179,2
15763,2023-01-20 10:50:38.091123,158167954,0.9294736,0.9565117,1,0.4130447,2
15794,2023-01-20 10:50:38.182397,158268247,0.9294207,0.9564785,1,0.4374118,2
15826,2023-01-20 10:50:38.280395,158367982,0.929205,0.9563431,1,0.4038828,2
15858,2023-01-20 10:50:38.380738,158468323,0.9290036,0.9562167,1,0.4130027,2
15892,2023-01-20 10:50:38.480320,158567930,0.9290394,0.9562392,1,0.4219799,2
15926,2023-01-20 10:50:38.580786,158668428,0.9288707,0.9561333,1,0.4014428,2
15959,2023-01-20 10:50:38.680267,158767919,0.9287789,0.9560757,1,0.4016894,2
15990,2023-01-20 10:50:38.780483,158868140,0.928804,0.9560914,1,0.4227661,2
16025,2023-01-20 10:50:38.889094,158967936,0.9287134,0.9560345,1,0.4304715,2
16058,2023-01-20 10:50:39.000421,159068330,0.9284807,0.9558885,1,0.4309064,2
16090,2023-01-20 10:50:39.091084,159167957,0.9283996,0.9558375,1,0.3935936,2
16122,2023-01-20 10:50:39.182239,159268126,0.9283696,0.9558187,1,0.4135915,2
16154,2023-01-20 10:50:39.280265,159367936,0.9282913,0.9557695,1,0.4078963,2
16185,2023-01-20 10:50:39.380382,159468089,0.9281612,0.9556878,1,0.415889,2
16219,2023-01-20 10:50:39.480199,159567926,0.9280785,0.9556359,1,0.3929145,2
16252,2023-01-20 10:50:39.580583,159668326,0.928019,0.9555985,1,0.3668756,2
16285,2023-01-20 10:50:39.680193,159767986,0.9280687,0.9556297,1,0.3682573,2
16316,2023-01-20 10:50:39.780182,159868033,0.9282004,0.9557124,1,0.3814479,2
16350,2023-01-20 10:50:39.880064,159967922,0.9281565,0.9556848,1,0.3834906,2
16381,2023-01-20 10:50:39.980099,160067952,0.928153,0.9556827,1,0.4158303,2
16415,2023-01-20 10:50:40.080154,160167962,0.9280306,0.9556058,1,0.4064746,2
16447,2023-01-20 10:50:40.180178,160267931,0.927916,0.9555338,1,0.3881925,2
16479,2023-01-20 10:50:40.280202,160367985,0.9278578,0.9554973,1,0.3757834,2
16510,2023-01-20 10:50:40.380088,160467923,0.9277972,0.9554592,1,0.3639601,2
16544,2023-01-20 10:50:40.480098,160567933,0.9278535,0.9554946,1,0.3741085,2
16578,2023-01-20 10:50:40.580401,160668223,0.9278376,0.9554846,1,0.3660679,2
16611,2023-01-20 10:50:40.680125,160767930,0.9278763,0.9555089,1,0.3392068,2
16642,2023-01-20 10:50:40.780158,160867945,0.927958,0.9555602,1,0.3434491,2
16676,2023-01-20 10:50:40.880106,160967924,0.9280238,0.9556015,1,0.3516106,2
16707,2023-01-20 10:50:40.980137,161067997,0.9280593,0.9556238,1,0.3425476,2
16741,2023-01-20 10:50:41.080146,161167968,0.9280575,0.9556227,1,0.3471955,2
16773,2023-01-20 10:50:41.180157,161267921,0.9281107,0.9556561,1,0.3480917,2
16805,2023-01-20 10:50:41.280204,161367951,0.9281519,0.955682,1,0.3726228,2
16836,2023-01-20 10:50:41.380193,161467933,0.9280834,0.9556389,1,0.3587096,2
16870,2023-01-20 10:50:41.480155,161567928,0.9280455,0.9556152,1,0.3347016,2
16904,2023-01-20 10:50:41.580545,161668360,0.9281365,0.9556723,1,0.3325776,2
16937,2023-01-20 10:50:41.680155,161767946,0.9282164,0.9557225,1,0.3451009,2
16968,2023-01-20 10:50:41.780189,161867941,0.928205,0.9557153,1,0.3405211,2
17002,2023-01-20 10:50:41.880137,161967923,0.9282302,0.9557312,1,0.3362875,2
17033,2023-01-20 10:50:41.980091,162067929,0.9282618,0.9557509,1,0.327321,2
17067,2023-01-20 10:50:42.080149,162167958,0.9282863,0.9557664,1,0.3162721,2
17099,2023-01-20 10:50:42.180158,162267918,0.9284098,0.9558439,1,0.3622343,2
17131,2023-01-20 10:50:42.280211,162368000,0.9282978,0.9557736,1,0.3324568,2
17162,2023-01-20 10:50:42.380089,162467926,0.928409,0.9558434,1,0.3356121,2
17196,2023-01-20 10:50:42.480079,162567914,0.9284616,0.9558764,1,0.3570187,2
17230,2023-01-20 10:50:42.580326,162668147,0.9284221,0.9558516,1,0.3702652,2
17263,2023-01-20 10:50:42.680106,162767926,0.9283751,0.9558221,1,0.3776214,2
17294,2023-01-20 10:50:42.780117,162867939,0.9282895,0.9557684,1,0.3423434,2
17328,2023-01-20 10:50:42.880121,162967974,0.9282303,0.9557312,1,0.3431837,2
17359,2023-01-20 10:50:42.980036,163067927,0.9281612,0.9556878,1,0.3702476,2
17393,2023-01-20 10:50:43.080122,163167957,0.9281133,0.9556577,1,0.3744201,2
17425,2023-01-20 10:50:43.180168,163267925,0.9280338,0.9556078,1,0.3563172,2
17457,2023-01-20 10:50:43.280210,163367951,0.9280449,0.9556147,1,0.369913,2
17488,2023-01-20 10:50:43.380184,163467925,0.9280037,0.9555889,1,0.3978147,2
17523,2023-01-20 10:50:43.480161,163567937,0.927958,0.9555601,1,0.4142143,2
17557,2023-01-20 10:50:43.580328,163668149,0.9278055,0.9554644,1,0.4293975,2
17590,2023-01-20 10:50:43.680100,163767926,0.9276653,0.9553763,1,0.4289372,2
17621,2023-01-20 10:50:43.780113,163867936,0.9274006,0.9552101,1,0.3895493,2
17657,2023-01-20 10:50:43.880085,163967921,0.9274297,0.9552284,1,0.413192,2
17688,2023-01-20 10:50:43.980068,164067922,0.9273421,0.9551733,1,0.3913462,2
17722,2023-01-20 10:50:44.080141,164167954,0.9271977,0.9550826,1,0.3630791,2
17754,2023-01-20 10:50:44.180206,164267964,0.927193,0.9550796,1,0.3173264,2
17786,2023-01-20 10:50:44.280199,164367946,0.9272321,0.9551042,1,0.3269779,2
17817,2023-01-20 10:50:44.380175,164467923,0.9273428,0.9551737,1,0.3453582,2
17852,2023-01-20 10:50:44.480171,164567919,0.9273232,0.9551615,1,0.3598547,2
17886,2023-01-20 10:50:44.580221,164667970,0.9272445,0.955112,1,0.3344226,2
17919,2023-01-20 10:50:44.680174,164767936,0.9272997,0.9551467,1,0.3392096,2
17950,2023-01-20 10:50:44.780158,164867937,0.9274069,0.955214,1,0.3085696,2
17984,2023-01-20 10:50:44.880142,164967970,0.9275358,0.955295,1,0.3578688,2
18015,2023-01-20 10:50:44.980042,165067927,0.9274462,0.9552388,1,0.3429632,2
18049,2023-01-20 10:50:45.080126,165167951,0.9274461,0.9552386,1,0.3275162,2
18081,2023-01-20 10:50:45.180193,165267930,0.9275616,0.9553112,1,0.3313709,2
18113,2023-01-20 10:50:45.280217,165367949,0.9275842,0.9553254,1,0.3021418,2
18144,2023-01-20 10:50:45.380176,165467923,0.9277051,0.9554014,1,0.386269,2
18178,2023-01-20 10:50:45.480183,165567969,0.9276894,0.9553915,1,0.3864145,2
18212,2023-01-20 10:50:45.580141,165667973,0.9274392,0.9552343,1,0.3726335,2
18245,2023-01-20 10:50:45.680119,165767922,0.9275366,0.9552955,1,0.3763849,2
18276,2023-01-20 10:50:45.780183,165867939,0.9274587,0.9552466,1,0.3807803,2
18310,2023-01-20 10:50:45.880146,165967930,0.9274021,0.955211,1,0.3630247,2
18341,2023-01-20 10:50:45.980099,166067930,0.9274135,0.9552182,1,0.3427981,2
18375,2023-01-20 10:50:46.080148,166167978,0.9274675,0.9552521,1,0.3247796,2
18407,2023-01-20 10:50:46.180147,166267965,0.9275607,0.9553106,1,0.3272877,2
18439,2023-01-20 10:50:46.280173,166367948,0.9274911,0.955267,1,0.3553367,2
18470,2023-01-20 10:50:46.380195,166467919,0.9274414,0.9552357,1,0.3949387,2
18504,2023-01-20 10:50:46.480194,166567921,0.9272434,0.9551113,1,0.3773535,2
18538,2023-01-20 10:50:46.580232,166667976,0.9272142,0.955093,1,0.3526685,2
18571,2023-01-20 10:50:46.680146,166767923,0.9272696,0.9551278,1,0.3235983,2
18602,2023-01-20 10:50:46.780175,166867989,0.9274278,0.9552271,1,0.3416317,2
18636,2023-01-20 10:50:46.872871,166967927,0.9273951,0.9552066,1,0.3542029,2
18667,2023-01-20 10:50:46.963825,167067912,0.9273545,0.9551811,1,0.3250939,2
18701,2023-01-20 10:50:47.060296,167167952,0.9272597,0.9551215,1,0.3326943,2
18733,2023-01-20 10:50:47.160311,167267930,0.9272475,0.9551139,1,0.3337662,2
18765,2023-01-20 10:50:47.260352,167367954,0.9273152,0.9551564,1,0.3376108,2
18796,2023-01-20 10:50:47.360330,167467929,0.9272794,0.9551339,1,0.2887695,2
18829,2023-01-20 10:50:47.460377,167567976,0.9273319,0.9551669,1,0.2718402,2
18863,2023-01-20 10:50:47.560362,167667964,0.9277064,0.9554021,1,0.3292436,2
18896,2023-01-20 10:50:47.660344,167767934,0.9277266,0.9554148,1,0.3339916,2
18927,2023-01-20 10:50:47.760378,167867947,0.9275807,0.9553232,1,0.3080005,2
18961,2023-01-20 10:50:47.860341,167967925,0.9276509,0.9553673,1,0.3393609,2
18992,2023-01-20 10:50:47.960296,168067920,0.9277831,0.9554504,1,0.3243943,2
19026,2023-01-20 10:50:48.060363,168168003,0.9276955,0.9553953,1,0.3258769,2
19058,2023-01-20 10:50:48.160285,168267925,0.9278104,0.9554675,1,0.3568083,2
19090,2023-01-20 10:50:48.260319,168367979,0.9277387,0.9554225,1,0.3472943,2
19121,2023-01-20 10:50:48.360229,168467922,0.9277648,0.9554389,1,0.3507175,2
19155,2023-01-20 10:50:48.460214,168567928,0.9277702,0.9554422,1,0.3601037,2
19190,2023-01-20 10:50:48.560262,168667989,0.9276503,0.9553669,1,0.3659931,2
19223,2023-01-20 10:50:48.660187,168767940,0.9276056,0.9553388,1,0.3743998,2
19254,2023-01-20 10:50:48.760202,168867989,0.9275608,0.9553107,1,0.3876896,2
19290,2023-01-20 10:50:48.860409,168968238,0.9275076,0.9552773,1,0.4104801,2
19321,2023-01-20 10:50:48.960026,169067903,0.9273996,0.9552094,1,0.4125394,2
19355,2023-01-20 10:50:49.060106,169167973,0.9272719,0.9551292,1,0.4175889,2
19387,2023-01-20 10:50:49.160109,169267927,0.9271976,0.9550825,1,0.4214106,2
19419,2023-01-20 10:50:49.260185,169367948,0.92712,0.9550338,1,0.3956457,2
19450,2023-01-20 10:50:49.360274,169467977,0.9270259,0.9549747,1,0.4013105,2
19484,2023-01-20 10:50:49.460194,169567922,0.9268915,0.9548902,1,0.4248944,2
19518,2023-01-20 10:50:49.560162,169667972,0.9267216,0.9547834,1,0.376634,2
19551,2023-01-20 10:50:49.660110,169767923,0.9266804,0.9547575,1,0.3946497,2
19582,2023-01-20 10:50:49.760176,169867938,0.9266483,0.9547374,1,0.3603847,2
19616,2023-01-20 10:50:49.860160,169967933,0.926584,0.954697,1,0.346815,2
19647,2023-01-20 10:50:49.960103,170067927,0.9265265,0.9546608,1,0.3518516,2
19681,2023-01-20 10:50:50.060140,170167990,0.9265235,0.9546589,1,0.3470234,2
19755,2023-01-20 10:50:50.160064,170267923,0.9264762,0.9546292,1,0.3368951,2
19787,2023-01-20 10:50:50.260096,170367932,0.9265229,0.9546585,1,0.357227,2
19818,2023-01-20 10:50:50.360128,170467921,0.9264622,0.9546204,1,0.3378378,2
19852,2023-01-20 10:50:50.460160,170567925,0.9264618,0.9546201,1,0.3448521,2
19886,2023-01-20 10:50:50.560215,170667963,0.9265078,0.954649,1,0.3369668,2
19919,2023-01-20 10:50:50.660227,170767969,0.9265426,0.9546709,1,0.3325365,2
19950,2023-01-20 10:50:50.760236,170867980,0.926609,0.9547126,1,0.3255432,2
19984,2023-01-20 10:50:50.860130,170967919,0.926661,0.9547454,1,0.3327015,2
20015,2023-01-20 10:50:50.960061,171067922,0.926635,0.954729,1,0.3548268,2
20049,2023-01-20 10:50:51.060122,171167968,0.9266167,0.9547175,1,0.3422111,2
20081,2023-01-20 10:50:51.160155,171267928,0.9266493,0.954738,1,0.344496,2
20113,2023-01-20 10:50:51.260211,171367957,0.9265906,0.9547011,1,0.3550267,2
20144,2023-01-20 10:50:51.360214,171467963,0.926596,0.9547045,1,0.3707191,2
20178,2023-01-20 10:50:51.460155,171567934,0.9265078,0.954649,1,0.3702054,2
20212,2023-01-20 10:50:51.560152,171667978,0.9264624,0.9546205,1,0.3709028,2
20245,2023-01-20 10:50:51.660114,171767924,0.9264179,0.9545926,1,0.3652293,2
20276,2023-01-20 10:50:51.760193,171867944,0.9263356,0.9545408,1,0.3737204,2
20310,2023-01-20 10:50:51.860151,171967918,0.9263319,0.9545385,1,0.3742059,2
20341,2023-01-20 10:50:51.960130,172067963,0.9262124,0.9544634,1,0.3715418,2
20375,2023-01-20 10:50:52.060167,172168027,0.9261778,0.9544416,1,0.3645226,2
20407,2023-01-20 10:50:52.160068,172267931,0.9261636,0.9544327,1,0.3523659,2
20439,2023-01-20 10:50:52.260106,172367944,0.9261034,0.9543949,1,0.3544412,2
20470,2023-01-20 10:50:52.360126,172467920,0.9260324,0.9543502,1,0.3370964,2
20504,2023-01-20 10:50:52.460164,172567931,0.9260273,0.954347,1,0.3439769,2
20538,2023-01-20 10:50:52.560230,172667980,0.9260591,0.954367,1,0.3532725,2
20571,2023-01-20 10:50:52.660186,172767962,0.9260288,0.954348,1,0.341679,2
20602,2023-01-20 10:50:52.760127,172867957,0.925987,0.9543217,1,0.3315359,2
20636,2023-01-20 10:50:52.860071,172967924,0.9259827,0.9543189,1,0.3346835,2
20667,2023-01-20 10:50:52.960066,173067921,0.9260276,0.9543472,1,0.3280465,2
20701,2023-01-20 10:50:53.060139,173167971,0.9260063,0.9543338,1,0.3096213,2
20733,2023-01-20 10:50:53.160129,173267922,0.9260142,0.9543388,1,0.3029074,2
20765,2023-01-20 10:50:53.260177,173367946,0.9261444,0.9544206,1,0.3193759,2
20796,2023-01-20 10:50:53.360223,173467978,0.9261624,0.954432,1,0.3315004,2
20830,2023-01-20 10:50:53.460141,173567920,0.9261485,0.9544232,1,0.3549773,2
20864,2023-01-20 10:50:53.560151,173667979,0.9261254,0.9544087,1,0.3617122,2
20898,2023-01-20 10:50:53.660146,173767955,0.9261134,0.9544011,1,0.3425616,2
20929,2023-01-20 10:50:53.760204,173867949,0.9260561,0.9543651,1,0.3488986,2
20965,2023-01-20 10:50:53.860492,173968253,0.926064,0.9543701,1,0.3639035,2
20996,2023-01-20 10:50:53.960135,174067963,0.9260052,0.9543331,1,0.3581979,2
21030,2023-01-20 10:50:54.054646,174167976,0.9260002,0.95433,1,0.3488443,2
21062,2023-01-20 10:50:54.145491,174267923,0.9260426,0.9543566,1,0.3496015,2
21094,2023-01-20 10:50:54.244535,174367942,0.92603,0.9543487,1,0.3345939,2
21125,2023-01-20 10:50:54.355726,174467930,0.9259761,0.9543148,1,0.3264669,2
21160,2023-01-20 10:50:54.460166,174567921,0.9259774,0.9543157,1,0.3280885,2
21194,2023-01-20 10:50:54.560202,174667974,0.9260006,0.9543302,1,0.3273584,2
21227,2023-01-20 10:50:54.660170,174767970,0.9260015,0.9543308,1,0.3136467,2
21258,2023-01-20 10:50:54.760110,174867944,0.9260175,0.9543408,1,0.3219472,2
21292,2023-01-20 10:50:54.860067,174967920,0.9260148,0.9543391,1,0.3422475,2
21323,2023-01-20 10:50:54.960060,175067922,0.9259712,0.9543117,1,0.353628,2
21357,2023-01-20 10:50:55.060125,175167963,0.9259658,0.9543084,1,0.3406491,2
21389,2023-01-20 10:50:55.160144,175267938,0.9259764,0.954315,1,0.3600599,2
21421,2023-01-20 10:50:55.260186,175367992,0.9259573,0.954303,1,0.3742234,2
21452,2023-01-20 10:50:55.360074,175467930,0.9258932,0.9542627,1,0.3746179,2
21486,2023-01-20 10:50:55.460090,175567928,0.9258541,0.9542381,1,0.3778852,2
21520,2023-01-20 10:50:55.560193,175667969,0.9258788,0.9542536,1,0.3919266,2
21553,2023-01-20 10:50:55.660190,175767938,0.9258502,0.9542357,1,0.3735206,2
21584,2023-01-20 10:50:55.760196,175867939,0.9257106,0.9541479,1,0.3346545,2
21618,2023-01-20 10:50:55.860157,175967931,0.9257579,0.9541776,1,0.3162209,2
21649,2023-01-20 10:50:55.960145,176067975,0.9257997,0.9542039,1,0.2940727,2
21683,2023-01-20 10:50:56.060101,176167960,0.9258247,0.9542196,1,0.3513024,2
21715,2023-01-20 10:50:56.160061,176267931,0.9256954,0.9541383,1,0.3736996,2
21747,2023-01-20 10:50:56.254613,176367952,0.9255137,0.9540241,1,0.3896558,2
21778,2023-01-20 10:50:56.345498,176467929,0.9255211,0.9540287,1,0.3801737,2
21812,2023-01-20 10:50:56.440038,176567929,0.9255201,0.9540281,1,0.3759035,2
21846,2023-01-20 10:50:56.540109,176668019,0.9255005,0.9540158,1,0.3508471,2
21879,2023-01-20 10:50:56.640010,176767931,0.925428,0.9539702,1,0.3236151,2
21910,2023-01-20 10:50:56.740021,176867941,0.9254578,0.9539889,1,0.3051782,2
21944,2023-01-20 10:50:56.839983,176967921,0.9254906,0.9540095,1,0.3361819,2
21975,2023-01-20 10:50:56.939946,177067930,0.9253529,0.9539229,1,0.2827001,2
22009,2023-01-20 10:50:57.044435,177167951,0.925418,0.9539639,1,0.3136648,2
22041,2023-01-20 10:50:57.155661,177267925,0.9254801,0.954003,1,0.3406916,2
22073,2023-01-20 10:50:57.254708,177367997,0.9253568,0.9539254,1,0.3508403,2
22103,2023-01-20 10:50:57.345493,177467927,0.925388,0.953945,1,0.3397566,2
22137,2023-01-20 10:50:57.439987,177567924,0.9254119,0.9539601,1,0.3414661,2
22171,2023-01-20 10:50:57.540009,177667977,0.9254079,0.9539576,1,0.3406108,2
22204,2023-01-20 10:50:57.639943,177767923,0.9253992,0.9539521,1,0.324105,2
22235,2023-01-20 10:50:57.739990,177867952,0.9253757,0.9539373,1,0.3227956,2
22269,2023-01-20 10:50:57.839994,177967972,0.9253717,0.9539348,1,0.3270106,2
22300,2023-01-20 10:50:57.939884,178067930,0.9253626,0.9539291,1,0.3419552,2
22334,2023-01-20 10:50:58.039869,178167951,0.9253301,0.9539086,1,0.3502362,2
22366,2023-01-20 10:50:58.139861,178267932,0.9253536,0.9539234,1,0.3513783,2
22398,2023-01-20 10:50:58.239876,178367943,0.9253563,0.9539251,1,0.3430642,2
22429,2023-01-20 10:50:58.339847,178467923,0.9253396,0.9539146,1,0.3401133,2
22463,2023-01-20 10:50:58.439862,178567931,0.9252903,0.9538836,1,0.3366227,2
22497,2023-01-20 10:50:58.539985,178668023,0.9252546,0.9538611,1,0.3004868,2
22530,2023-01-20 10:50:58.639900,178767922,0.925297,0.9538878,1,0.3123308,2
22562,2023-01-20 10:50:58.739930,178867959,0.9252546,0.9538612,1,0.3389022,2
22596,2023-01-20 10:50:58.839878,178967931,0.9252347,0.9538486,1,0.3287421,2
22629,2023-01-20 10:50:58.939818,179067921,0.9252691,0.9538702,1,0.331596,2
22663,2023-01-20 10:50:59.039838,179167957,0.925257,0.9538627,1,0.3460186,2
22695,2023-01-20 10:50:59.139889,179267974,0.9252389,0.9538513,1,0.3544762,2
22727,2023-01-20 10:50:59.239877,179367943,0.9251765,0.953812,1,0.3384551,2
22758,2023-01-20 10:50:59.339861,179467930,0.9251427,0.9537908,1,0.3429334,2
22792,2023-01-20 10:50:59.439843,179567923,0.9251679,0.9538066,1,0.3591658,2
22826,2023-01-20 10:50:59.539867,179667970,0.9251173,0.9537748,1,0.3729632,2
22859,2023-01-20 10:50:59.639838,179767933,0.9250652,0.953742,1,0.3630542,2
22890,2023-01-20 10:50:59.739909,179867950,0.9250729,0.9537469,1,0.3558145,2
22924,2023-01-20 10:50:59.839938,179967966,0.9251077,0.9537687,1,0.3629367,2
22955,2023-01-20 10:50:59.939837,180067916,0.9250212,0.9537144,1,0.3502838,2
22989,2023-01-20 10:51:00.039844,180167957,0.9250184,0.9537126,1,0.3625928,2
23021,2023-01-20 10:51:00.139803,180267925,0.9250267,0.9537178,1,0.3601429,2
23053,2023-01-20 10:51:00.239837,180367951,0.9249365,0.9536611,1,0.3556739,2
23084,2023-01-20 10:51:00.339852,180467935,0.9247651,0.9535533,1,0.3441623,2
23118,2023-01-20 10:51:00.439898,180567969,0.92478,0.9535626,1,0.3445621,2
23152,2023-01-20 10:51:00.539877,180667966,0.9247095,0.9535183,1,0.3707771,2
23185,2023-01-20 10:51:00.639833,180767930,0.9246452,0.9534778,1,0.3736676,2
23216,2023-01-20 10:51:00.739847,180867938,0.9245723,0.953432,1,0.3620974,2
23250,2023-01-20 10:51:00.839842,180967933,0.9245393,0.9534112,1,0.3796353,2
23281,2023-01-20 10:51:00.939842,181067944,0.9245194,0.9533986,1,0.3600129,2
23315,2023-01-20 10:51:01.039860,181167960,0.9244887,0.9533793,1,0.3474933,2
23347,2023-01-20 10:51:01.139894,181267971,0.9244917,0.9533812,1,0.3585017,2
23379,2023-01-20 10:51:01.239878,181367945,0.9244757,0.9533712,1,0.3565476,2
23410,2023-01-20 10:51:01.339849,181467923,0.9244261,0.95334,1,0.344157,2
23444,2023-01-20 10:51:01.439856,181567932,0.924466,0.9533651,1,0.3470829,2
23478,2023-01-20 10:51:01.539900,181667972,0.9243784,0.95331,1,0.3635261,2
23511,2023-01-20 10:51:01.639861,181767932,0.9242953,0.9532577,1,0.352946,2
23542,2023-01-20 10:51:01.739918,181867991,0.9243083,0.9532658,1,0.347273,2
23576,2023-01-20 10:51:01.839829,181967916,0.9242494,0.9532288,1,0.3434819,2
23607,2023-01-20 10:51:01.939814,182067932,0.9241924,0.9531929,1,0.3304797,2
23641,2023-01-20 10:51:02.039822,182167952,0.9241528,0.953168,1,0.3382712,2
23673,2023-01-20 10:51:02.139804,182267920,0.9240754,0.9531193,1,0.349393,2
23705,2023-01-20 10:51:02.239851,182367950,0.9239813,0.9530601,1,0.3550273,2
23736,2023-01-20 10:51:02.339852,182467927,0.9240086,0.9530773,1,0.3683102,2
23770,2023-01-20 10:51:02.439894,182567963,0.9239161,0.953019,1,0.3642317,2
23804,2023-01-20 10:51:02.539894,182667983,0.9239419,0.9530352,1,0.3631726,2
23837,2023-01-20 10:51:02.639818,182767924,0.9239236,0.9530237,1,0.371567,2
23868,2023-01-20 10:51:02.739825,182867941,0.9238783,0.9529952,1,0.3758193,2
23902,2023-01-20 10:51:02.839806,182967925,0.9237472,0.9529127,1,0.3683872,2
23933,2023-01-20 10:51:02.939811,183067920,0.9237617,0.9529219,1,0.3698007,2
23967,2023-01-20 10:51:03.039911,183168009,0.9237579,0.9529194,1,0.3661733,2
23999,2023-01-20 10:51:03.139834,183267919,0.9236923,0.9528782,1,0.3491707,2
24031,2023-01-20 10:51:03.239867,183367947,0.9236537,0.9528539,1,0.3546271,2
24062,2023-01-20 10:51:03.339829,183467918,0.9236724,0.9528657,1,0.3667469,2
24096,2023-01-20 10:51:03.439831,183567920,0.9235021,0.9527585,1,0.3534042,2
24130,2023-01-20 10:51:03.539894,183667971,0.9234486,0.9527248,1,0.354545,2
24163,2023-01-20 10:51:03.639856,183767924,0.9234272,0.9527113,1,0.35863,2
24194,2023-01-20 10:51:03.739922,183867986,0.923387,0.952686,1,0.3599054,2
24228,2023-01-20 10:51:03.839860,183967936,0.9233946,0.9526908,1,0.371135,2
24262,2023-01-20 10:51:03.939795,184067904,0.9232812,0.9526194,1,0.3664949,2
24296,2023-01-20 10:51:04.039837,184167953,0.9232677,0.9526109,1,0.3652979,2
24328,2023-01-20 10:51:04.139841,184267923,0.92326,0.9526061,1,0.3793497,2
24360,2023-01-20 10:51:04.239877,184367940,0.9232098,0.9525744,1,0.3881647,2
24391,2023-01-20 10:51:04.339901,184467966,0.9231351,0.9525274,1,0.4128798,2
24427,2023-01-20 10:51:04.439927,184568002,0.9230352,0.9524645,1,0.3760444,2
24462,2023-01-20 10:51:04.539867,184667965,0.9230922,0.9525004,1,0.3804378,2
24495,2023-01-20 10:51:04.639820,184767931,0.9230456,0.9524711,1,0.3955714,2
24526,2023-01-20 10:51:04.739825,184867935,0.9228897,0.9523729,1,0.3682577,2
24559,2023-01-20 10:51:04.839817,184967925,0.9229065,0.9523835,1,0.3577936,2
24591,2023-01-20 10:51:04.939825,185067930,0.9229179,0.9523907,1,0.3728634,2
24625,2023-01-20 10:51:05.039894,185167991,0.922924,0.9523945,1,0.373288,2
24657,2023-01-20 10:51:05.139855,185267936,0.9228075,0.9523211,1,0.3690809,2
24689,2023-01-20 10:51:05.239865,185367944,0.922805,0.9523196,1,0.3538129,2
24720,2023-01-20 10:51:05.339821,185467917,0.9228203,0.9523292,1,0.3598731,2
24754,2023-01-20 10:51:05.439822,185567924,0.9227849,0.9523069,1,0.354701,2
24788,2023-01-20 10:51:05.539876,185667970,0.9227387,0.9522778,1,0.3500561,2
24821,2023-01-20 10:51:05.639872,185767956,0.9226543,0.9522247,1,0.3483709,2
24852,2023-01-20 10:51:05.739913,185867986,0.9225336,0.9521487,1,0.3515508,2
24885,2023-01-20 10:51:05.839855,185967927,0.9225109,0.9521343,1,0.3686604,2
24917,2023-01-20 10:51:05.939836,186067922,0.9224648,0.9521053,1,0.3576996,2
24951,2023-01-20 10:51:06.039861,186167952,0.9224721,0.9521099,1,0.3527014,2
24983,2023-01-20 10:51:06.139845,186267926,0.922442,0.952091,1,0.3673831,2
25015,2023-01-20 10:51:06.239871,186367952,0.9223864,0.9520559,1,0.3594773,2
25046,2023-01-20 10:51:06.339873,186467969,0.9223282,0.9520193,1,0.3550608,2
25080,2023-01-20 10:51:06.436279,186567929,0.9222518,0.9519711,1,0.3761653,2
25114,2023-01-20 10:51:06.527411,186667968,0.9221531,0.9519089,1,0.3811735,2
25147,2023-01-20 10:51:06.620255,186767925,0.9222352,0.9519607,1,0.3892343,2
25178,2023-01-20 10:51:06.720181,186867944,0.9222422,0.9519651,1,0.4184007,2
25260,2023-01-20 10:51:06.820105,186967926,0.9221011,0.9518762,1,0.3999302,2
25292,2023-01-20 10:51:06.920182,187067924,0.922051,0.9518446,1,0.3989033,2
25326,2023-01-20 10:51:07.020325,187167994,0.921996,0.95181,1,0.4141259,2
25358,2023-01-20 10:51:07.120312,187267929,0.9219675,0.9517921,1,0.4184744,2
25390,2023-01-20 10:51:07.220372,187367950,0.9218737,0.951733,1,0.3923079,2
25421,2023-01-20 10:51:07.320331,187467921,0.9218186,0.9516982,1,0.4185333,2
25455,2023-01-20 10:51:07.422529,187567929,0.921792,0.9516815,1,0.3483922,2
25489,2023-01-20 10:51:07.533394,187667969,0.9216385,0.9515848,1,0.3653867,2
25522,2023-01-20 10:51:07.636341,187767966,0.9217457,0.9516523,1,0.3780862,2
25553,2023-01-20 10:51:07.727413,187867941,0.9215575,0.9515337,1,0.3602785,2
25586,2023-01-20 10:51:07.820291,187967924,0.9215344,0.9515192,1,0.3674376,2
25618,2023-01-20 10:51:07.920242,188067918,0.921482,0.9514862,1,0.3658142,2
25652,2023-01-20 10:51:08.020252,188167965,0.921478,0.9514837,1,0.3810485,2
25684,2023-01-20 10:51:08.120200,188267926,0.9215243,0.9515128,1,0.3878094,2
25716,2023-01-20 10:51:08.220204,188367941,0.9214357,0.951457,1,0.3748406,2
25747,2023-01-20 10:51:08.320245,188467979,0.9213731,0.9514176,1,0.3603751,2
25781,2023-01-20 10:51:08.420183,188567928,0.9214008,0.951435,1,0.3758952,2
25815,2023-01-20 10:51:08.520159,188667964,0.9212847,0.9513618,1,0.3986832,2
25848,2023-01-20 10:51:08.620064,188767916,0.9212151,0.951318,1,0.3870093,2
25879,2023-01-20 10:51:08.720097,188867946,0.9212301,0.9513274,1,0.3742049,2
25911,2023-01-20 10:51:08.820089,188967935,0.9212129,0.9513165,1,0.34941,2
25946,2023-01-20 10:51:08.920138,189067983,0.921267,0.9513507,1,0.3666702,2
25980,2023-01-20 10:51:09.020118,189167955,0.9211602,0.9512833,1,0.3650693,2
26012,2023-01-20 10:51:09.120118,189267922,0.9210381,0.9512064,1,0.3364688,2
26044,2023-01-20 10:51:09.220172,189367946,0.9210135,0.9511909,1,0.3413779,2
26075,2023-01-20 10:51:09.320164,189467924,0.9209937,0.9511784,1,0.3352281,2
26109,2023-01-20 10:51:09.420182,189567930,0.9209351,0.9511415,1,0.343061,2
26143,2023-01-20 10:51:09.520238,189667986,0.9209027,0.951121,1,0.3371531,2
26176,2023-01-20 10:51:09.620234,189767981,0.920937,0.9511427,1,0.3251075,2
26207,2023-01-20 10:51:09.720206,189867947,0.9209359,0.951142,1,0.3240091,2
26240,2023-01-20 10:51:09.820183,189967932,0.9209175,0.9511304,1,0.3246098,2
26272,2023-01-20 10:51:09.920109,190067918,0.9209015,0.9511203,1,0.317862,2
26306,2023-01-20 10:51:10.020105,190167958,0.9209512,0.9511516,1,0.335284,2
26338,2023-01-20 10:51:10.120100,190267935,0.9209485,0.9511499,1,0.3328956,2
26370,2023-01-20 10:51:10.220173,190367986,0.9210046,0.9511853,1,0.3403879,2
26401,2023-01-20 10:51:10.320150,190467927,0.9210612,0.9512209,1,0.3422543,2
26435,2023-01-20 10:51:10.420175,190567934,0.9210606,0.9512206,1,0.3459598,2
26469,2023-01-20 10:51:10.520155,190667966,0.9210573,0.9512185,1,0.3327061,2
26501,2023-01-20 10:51:10.620071,190767925,0.9211263,0.951262,1,0.3303431,2
26533,2023-01-20 10:51:10.720078,190867944,0.9210929,0.951241,1,0.3359378,2
26566,2023-01-20 10:51:10.820225,190968097,0.9210581,0.951219,1,0.3386141,2
26598,2023-01-20 10:51:10.920117,191067975,0.9210579,0.9512189,1,0.3372131,2
26632,2023-01-20 10:51:11.020113,191167958,0.9210579,0.9512189,1,0.3387325,2
26664,2023-01-20 10:51:11.120090,191267923,0.9211113,0.9512526,1,0.3516935,2
26696,2023-01-20 10:51:11.220122,191367947,0.9210481,0.9512127,1,0.3434429,2
26727,2023-01-20 10:51:11.320103,191467939,0.921122,0.9512593,1,0.3360155,2
26761,2023-01-20 10:51:11.420091,191567926,0.9211211,0.9512587,1,0.3435415,2
26795,2023-01-20 10:51:11.520229,191668013,0.9210146,0.9511916,1,0.3469552,2
26827,2023-01-20 10:51:11.620183,191767927,0.9209735,0.9511657,1,0.3408773,2
26859,2023-01-20 10:51:11.720192,191867936,0.9209501,0.9511509,1,0.3329048,2
26892,2023-01-20 10:51:11.820358,191968114,0.9209279,0.9511369,1,0.3427797,2
26924,2023-01-20 10:51:11.920114,192067929,0.9209435,0.9511468,1,0.3285699,2
26958,2023-01-20 10:51:12.020095,192167954,0.920845,0.9510847,1,0.3185731,2
26990,2023-01-20 10:51:12.120090,192267929,0.920929,0.9511377,1,0.3052665,2
27022,2023-01-20 10:51:12.220188,192368003,0.9210462,0.9512115,1,0.2933735,2
27053,2023-01-20 10:51:12.320148,192467925,0.9210629,0.9512221,1,0.2996319,2
27087,2023-01-20 10:51:12.420167,192567924,0.9210811,0.9512335,1,0.3186753,2
27121,2023-01-20 10:51:12.520163,192667977,0.9210535,0.9512161,1,0.3093501,2
27153,2023-01-20 10:51:12.620079,192767925,0.921052,0.9512151,1,0.2988919,2
27185,2023-01-20 10:51:12.720160,192867941,0.921149,0.9512763,1,0.2980345,2
27218,2023-01-20 10:51:12.820527,192968269,0.9212319,0.9513285,1,0.322518,2
27250,2023-01-20 10:51:12.920129,193067932,0.9212803,0.951359,1,0.3170563,2
27284,2023-01-20 10:51:13.020100,193167949,0.9212909,0.9513657,1,0.3164564,2
27316,2023-01-20 10:51:13.120083,193267922,0.9213454,0.9514,1,0.3218848,2
27348,2023-01-20 10:51:13.220116,193367948,0.9213489,0.9514023,1,0.3288887,2
27379,2023-01-20 10:51:13.320086,193467925,0.9213518,0.9514041,1,0.3002366,2
27413,2023-01-20 10:51:13.420101,193567933,0.9213982,0.9514334,1,0.3046665,2
27447,2023-01-20 10:51:13.520247,193668018,0.9214026,0.9514361,1,0.3199721,2
27479,2023-01-20 10:51:13.620199,193767926,0.921353,0.9514049,1,0.3180043,2
27511,2023-01-20 10:51:13.720191,193867944,0.9213089,0.9513771,1,0.3090146,2
27544,2023-01-20 10:51:13.820426,193968212,0.9214086,0.9514399,1,0.3308702,2
27578,2023-01-20 10:51:13.920081,194067928,0.9213865,0.951426,1,0.3408031,2
27613,2023-01-20 10:51:14.020087,194167972,0.9213099,0.9513777,1,0.3409097,2
27645,2023-01-20 10:51:14.120139,194267968,0.9213426,0.9513983,1,0.3295635,2
27677,2023-01-20 10:51:14.220161,194367941,0.9213662,0.9514132,1,0.3200883,2
27708,2023-01-20 10:51:14.320169,194467930,0.9213898,0.9514281,1,0.3147798,2
