LineNo,UTC_Approx,TimeUS,Name,Value,Default
154,2023-01-20 10:49:56.172667,116153070,FORMAT_VERSION,120,120
155,2023-01-20 10:49:56.172698,116153104,SYSID_THISMAV,1,1
156,2023-01-20 10:49:56.172723,116153131,SYSID_MYGCS,255,255
157,2023-01-20 10:49:56.172795,116153210,PILOT_THR_FILT,0,0
158,2023-01-20 10:49:56.172823,116153241,PILOT_TKOFF_ALT,0,0
159,2023-01-20 10:49:56.172847,116153268,PILOT_THR_BHV,7,0
160,2023-01-20 10:49:56.172874,116153298,SERIAL0_BAUD,115,115
161,2023-01-20 10:49:56.172905,116153332,SERIAL0_PROTOCOL,2,2
162,2023-01-20 10:49:56.172935,116153364,SERIAL1_PROTOCOL,-1,2
163,2023-01-20 10:49:56.172965,116153397,SERIAL1_BAUD,57,57
164,2023-01-20 10:49:56.172995,116153430,SERIAL2_PROTOCOL,2,2
165,2023-01-20 10:49:56.173026,116153464,SERIAL2_BAUD,57,57
166,2023-01-20 10:49:56.173063,116153505,SERIAL3_PROTOCOL,5,5
167,2023-01-20 10:49:56.173095,116153540,SERIAL3_BAUD,38,38
168,2023-01-20 10:49:56.173127,116153576,SERIAL4_PROTOCOL,1,5
169,2023-01-20 10:49:56.173161,116153613,SERIAL4_BAUD,57,38
170,2023-01-20 10:49:56.173195,116153650,SERIAL5_PROTOCOL,20,-1
171,2023-01-20 10:49:56.173232,116153691,SERIAL5_BAUD,115,57
172,2023-01-20 10:49:56.173267,116153730,SERIAL6_PROTOCOL,-1,-1
173,2023-01-20 10:49:56.173356,116153827,SERIAL6_BAUD,57,57
174,2023-01-20 10:49:56.173395,116153870,SERIAL1_OPTIONS,0,0
175,2023-01-20 10:49:56.173432,116153911,SERIAL2_OPTIONS,0,0
176,2023-01-20 10:49:56.173470,116153953,SERIAL3_OPTIONS,0,0
177,2023-01-20 10:49:56.175089,116155733,SERIAL3_OPTIONS,0,0
178,2023-01-20 10:49:56.175183,116155836,SERIAL4_OPTIONS,0,0
179,2023-01-20 10:49:56.175222,116155879,SERIAL5_OPTIONS,0,0
180,2023-01-20 10:49:56.175267,116155928,SERIAL6_OPTIONS,0,0
181,2023-01-20 10:49:56.175309,116155975,SERIAL_PASS1,0,0
182,2023-01-20 10:49:56.175349,116156019,SERIAL_PASS2,-1,-1
183,2023-01-20 10:49:56.175409,116156084,SERIAL_PASSTIMO,15,15
184,2023-01-20 10:49:56.175460,116156141,SERIAL7_PROTOCOL,-1,-1
185,2023-01-20 10:49:56.175548,116156237,SERIAL7_BAUD,57,57
186,2023-01-20 10:49:56.175593,116156287,SERIAL7_OPTIONS,0,0
187,2023-01-20 10:49:56.175633,116156331,TELEM_DELAY,0,0
188,2023-01-20 10:49:56.175657,116156357,GCS_PID_MASK,0,0
189,2023-01-20 10:49:56.175681,116156384,RTL_ALT,1000,1500
190,2023-01-20 10:49:56.175705,116156410,RTL_CONE_SLOPE,3,3
191,2023-01-20 10:49:56.175730,116156437,RTL_SPEED,0,0
192,2023-01-20 10:49:56.175756,116156466,RTL_ALT_FINAL,0,0
193,2023-01-20 10:49:56.175781,116156493,RTL_CLIMB_MIN,0,0
194,2023-01-20 10:49:56.175805,116156520,RTL_LOIT_TIME,5000,5000
195,2023-01-20 10:49:56.175830,116156547,RTL_ALT_TYPE,0,0
196,2023-01-20 10:49:56.175853,116156573,FS_GCS_ENABLE,0,0
197,2023-01-20 10:49:56.175882,116156604,GPS_HDOP_GOOD,140,140
198,2023-01-20 10:49:56.175909,116156634,SUPER_SIMPLE,0,0
199,2023-01-20 10:49:56.175933,116156661,WP_YAW_BEHAVIOR,2,2
200,2023-01-20 10:49:56.175958,116156688,LAND_SPEED,50,50
201,2023-01-20 10:49:56.175982,116156714,LAND_SPEED_HIGH,0,0
202,2023-01-20 10:49:56.177089,116157932,LAND_SPEED_HIGH,0,0
203,2023-01-20 10:49:56.177114,116157959,PILOT_SPEED_UP,250,250
204,2023-01-20 10:49:56.190762,116172964,PILOT_ACCEL_Z,250,250
205,2023-01-20 10:49:56.190786,116172991,FS_THR_ENABLE,1,1
206,2023-01-20 10:49:56.190811,116173018,FS_THR_VALUE,975,975
207,2023-01-20 10:49:56.190835,116173045,THR_DZ,100,100
208,2023-01-20 10:49:56.190859,116173071,FLTMODE1,3,0
209,2023-01-20 10:49:56.190883,116173097,FLTMODE2,0,0
210,2023-01-20 10:49:56.190909,116173126,FLTMODE3,0,0
211,2023-01-20 10:49:56.190934,116173153,FLTMODE4,5,0
212,2023-01-20 10:49:56.191013,116173240,FLTMODE5,0,0
213,2023-01-20 10:49:56.191037,116173267,FLTMODE6,2,0
214,2023-01-20 10:49:56.191064,116173296,FLTMODE_CH,5,5
215,2023-01-20 10:49:56.191087,116173322,INITIAL_MODE,0,0
216,2023-01-20 10:49:56.191112,116173349,SIMPLE,0,0
217,2023-01-20 10:49:56.191136,116173375,LOG_BITMASK,176126,176126
218,2023-01-20 10:49:56.191160,116173402,ESC_CALIBRATION,0,0
219,2023-01-20 10:49:56.191198,116173444,TUNE,0,0
220,2023-01-20 10:49:56.191231,116173480,FRAME_TYPE,1,1
221,2023-01-20 10:49:56.191259,116173511,ARMING_ACCTHRESH,0.75,0.75
222,2023-01-20 10:49:56.191288,116173543,ARMING_RUDDER,2,2
223,2023-01-20 10:49:56.191318,116173575,ARMING_MIS_ITEMS,0,0
224,2023-01-20 10:49:56.191348,116173609,ARMING_CHECK,65534,1
225,2023-01-20 10:49:56.191382,116173646,ARMING_OPTIONS,0,0
226,2023-01-20 10:49:56.191409,116173676,DISARM_DELAY,10,10
227,2023-01-20 10:49:56.191434,116173703,ANGLE_MAX,3000,3000
228,2023-01-20 10:49:56.191458,116173729,PHLD_BRAKE_RATE,8,8
229,2023-01-20 10:49:56.191538,116173817,PHLD_BRAKE_ANGLE,3000,3000
230,2023-01-20 10:49:56.191562,116173844,LAND_REPOSITION,1,1
231,2023-01-20 10:49:56.191587,116173871,FS_EKF_ACTION,1,1
232,2023-01-20 10:49:56.191611,116173898,FS_EKF_THRESH,0.8,0.8
233,2023-01-20 10:49:56.191636,116173925,FS_CRASH_CHECK,1,1
234,2023-01-20 10:49:56.191660,116173952,RC_SPEED,490,490
235,2023-01-20 10:49:56.193062,116175493,RC_SPEED,490,490
236,2023-01-20 10:49:56.193086,116175519,ACRO_BAL_ROLL,1,1
237,2023-01-20 10:49:56.193113,116175549,ACRO_BAL_PITCH,1,1
238,2023-01-20 10:49:56.193142,116175581,ACRO_TRAINER,2,2
239,2023-01-20 10:49:56.193169,116175611,CAM_TRIGG_TYPE,0,0
240,2023-01-20 10:49:56.193197,116175642,CAM_DURATION,1,10
241,2023-01-20 10:49:56.193227,116175674,CAM_SERVO_ON,2000,1300
242,2023-01-20 10:49:56.193257,116175707,CAM_SERVO_OFF,1000,1100
243,2023-01-20 10:49:56.193292,116175746,CAM_TRIGG_DIST,0,0
244,2023-01-20 10:49:56.193372,116175834,CAM_RELAY_ON,1,1
245,2023-01-20 10:49:56.193404,116175869,CAM_MIN_INTERVAL,0,0
246,2023-01-20 10:49:56.193439,116175907,CAM_MAX_ROLL,0,0
247,2023-01-20 10:49:56.193471,116175943,CAM_FEEDBACK_PIN,-1,-1
248,2023-01-20 10:49:56.193505,116175980,CAM_FEEDBACK_POL,1,1
249,2023-01-20 10:49:56.193543,116176022,CAM_AUTO_ONLY,0,0
250,2023-01-20 10:49:56.193578,116176060,CAM_TYPE,0,0
251,2023-01-20 10:49:56.193613,116176099,RELAY_PIN,-1,-1
252,2023-01-20 10:49:56.193641,116176130,RELAY_PIN2,-1,-1
253,2023-01-20 10:49:56.193715,116176211,RELAY_PIN3,-1,-1
254,2023-01-20 10:49:56.193754,116176254,RELAY_PIN4,-1,-1
255,2023-01-20 10:49:56.193788,116176291,RELAY_DEFAULT,0,0
256,2023-01-20 10:49:56.193819,116176325,RELAY_PIN5,-1,-1
257,2023-01-20 10:49:56.193851,116176360,RELAY_PIN6,-1,-1
258,2023-01-20 10:49:56.193882,116176394,LGR_ENABLE,0,0
259,2023-01-20 10:49:56.193915,116176431,COMPASS_OFS_X,-236.4141,0
260,2023-01-20 10:49:56.193957,116176477,COMPASS_OFS_Y,6.628765,0
261,2023-01-20 10:49:56.195360,116178020,COMPASS_OFS_Y,6.628765,0
262,2023-01-20 10:49:56.195389,116178051,COMPASS_OFS_Z,-63.54173,0
263,2023-01-20 10:49:56.195421,116178086,COMPASS_DEC,0.09971528,0
264,2023-01-20 10:49:56.195452,116178121,COMPASS_LEARN,0,0
265,2023-01-20 10:49:56.195487,116178159,COMPASS_USE,1,1
266,2023-01-20 10:49:56.195570,116178251,COMPASS_AUTODEC,1,1
267,2023-01-20 10:49:56.195612,116178297,COMPASS_MOTCT,0,0
268,2023-01-20 10:49:56.195653,116178342,COMPASS_MOT_X,0,0
269,2023-01-20 10:49:56.195689,116178381,COMPASS_MOT_Y,0,0
270,2023-01-20 10:49:56.195724,116178420,COMPASS_MOT_Z,0,0
271,2023-01-20 10:49:56.195760,116178459,COMPASS_ORIENT,0,0
272,2023-01-20 10:49:56.195811,116178515,COMPASS_EXTERNAL,1,0
273,2023-01-20 10:49:56.195857,116178566,COMPASS_OFS2_X,0,0
274,2023-01-20 10:49:56.195894,116178607,COMPASS_OFS2_Y,0,0
275,2023-01-20 10:49:56.195932,116178648,COMPASS_OFS2_Z,0,0
276,2023-01-20 10:49:56.195978,116178699,COMPASS_MOT2_X,0,0
277,2023-01-20 10:49:56.196015,116178740,COMPASS_MOT2_Y,0,0
278,2023-01-20 10:49:56.196113,116178847,COMPASS_MOT2_Z,0,0
279,2023-01-20 10:49:56.196158,116178897,COMPASS_OFS3_X,0,0
280,2023-01-20 10:49:56.196196,116178939,COMPASS_OFS3_Y,0,0
281,2023-01-20 10:49:56.196235,116178982,COMPASS_OFS3_Z,0,0
282,2023-01-20 10:49:56.196283,116179034,COMPASS_MOT3_X,0,0
283,2023-01-20 10:49:56.198095,116181026,COMPASS_MOT3_X,0,0
284,2023-01-20 10:49:56.198137,116181073,COMPASS_MOT3_Y,0,0
285,2023-01-20 10:49:56.198179,116181119,COMPASS_MOT3_Z,0,0
286,2023-01-20 10:49:56.198266,116181214,COMPASS_DEV_ID,466433,0
287,2023-01-20 10:49:56.198306,116181258,COMPASS_DEV_ID2,0,0
288,2023-01-20 10:49:56.198356,116181313,COMPASS_DEV_ID3,0,0
289,2023-01-20 10:49:56.198400,116181362,COMPASS_USE2,1,1
290,2023-01-20 10:49:56.198441,116181407,COMPASS_ORIENT2,0,0
291,2023-01-20 10:49:56.198486,116181456,COMPASS_EXTERN2,0,0
292,2023-01-20 10:49:56.198531,116181506,COMPASS_USE3,1,1
293,2023-01-20 10:49:56.198587,116181568,COMPASS_ORIENT3,0,0
294,2023-01-20 10:49:56.198637,116181623,COMPASS_EXTERN3,0,0
295,2023-01-20 10:49:56.198696,116181687,COMPASS_DIA_X,1.010122,1
296,2023-01-20 10:49:56.198741,116181737,COMPASS_DIA_Y,0.9903072,1
297,2023-01-20 10:49:56.198841,116181847,COMPASS_DIA_Z,1.01222,1
298,2023-01-20 10:49:56.198904,116181916,COMPASS_ODI_X,-0.01555343,0
299,2023-01-20 10:49:56.198952,116181969,COMPASS_ODI_Y,0.01945507,0
300,2023-01-20 10:49:56.199003,116182025,COMPASS_ODI_Z,0.02003503,0
303,2023-01-20 10:49:56.200205,116183346,COMPASS_ODI_Z,0.02003503,0
304,2023-01-20 10:49:56.200260,116183407,COMPASS_DIA2_X,1,1
305,2023-01-20 10:49:56.200304,116183455,COMPASS_DIA2_Y,1,1
306,2023-01-20 10:49:56.200352,116183508,COMPASS_DIA2_Z,1,1
307,2023-01-20 10:49:56.200426,116183589,COMPASS_ODI2_X,0,0
308,2023-01-20 10:49:56.200470,116183638,COMPASS_ODI2_Y,0,0
309,2023-01-20 10:49:56.200515,116183687,COMPASS_ODI2_Z,0,0
310,2023-01-20 10:49:56.200572,116183750,COMPASS_DIA3_X,1,1
311,2023-01-20 10:49:56.200666,116183853,COMPASS_DIA3_Y,1,1
312,2023-01-20 10:49:56.200715,116183907,COMPASS_DIA3_Z,1,1
313,2023-01-20 10:49:56.200773,116183971,COMPASS_ODI3_X,0,0
314,2023-01-20 10:49:56.200819,116184021,COMPASS_ODI3_Y,0,0
315,2023-01-20 10:49:56.200865,116184072,COMPASS_ODI3_Z,0,0
316,2023-01-20 10:49:56.200911,116184122,COMPASS_CAL_FIT,16,16
317,2023-01-20 10:49:56.201023,116184246,COMPASS_OFFS_MAX,1800,1800
318,2023-01-20 10:49:56.201082,116184310,COMPASS_PMOT_EN,0,0
319,2023-01-20 10:49:56.201133,116184366,COMPASS_TYPEMASK,0,0
324,2023-01-20 10:49:56.254855,116243431,COMPASS_TYPEMASK,0,0
325,2023-01-20 10:49:56.254912,116243494,COMPASS_FLTR_RNG,0,0
326,2023-01-20 10:49:56.254967,116243554,COMPASS_AUTO_ROT,2,2
327,2023-01-20 10:49:56.255022,116243615,COMPASS_PRIO1_ID,466433,0
328,2023-01-20 10:49:56.255104,116243705,COMPASS_PRIO2_ID,0,0
329,2023-01-20 10:49:56.255213,116243825,COMPASS_PRIO3_ID,0,0
330,2023-01-20 10:49:56.255271,116243888,COMPASS_ENABLE,1,1
331,2023-01-20 10:49:56.255328,116243951,COMPASS_SCALE,1.062747,0
332,2023-01-20 10:49:56.255386,116244015,COMPASS_SCALE2,0,0
333,2023-01-20 10:49:56.255448,116244083,COMPASS_SCALE3,0,0
334,2023-01-20 10:49:56.255508,116244149,COMPASS_OPTIONS,0,0
335,2023-01-20 10:49:56.255632,116244285,COMPASS_DEV_ID4,0,0
336,2023-01-20 10:49:56.255696,116244356,COMPASS_DEV_ID5,0,0
337,2023-01-20 10:49:56.255757,116244423,COMPASS_DEV_ID6,0,0
340,2023-01-20 10:49:56.256860,116245635,COMPASS_DEV_ID6,0,0
341,2023-01-20 10:49:56.256953,116245738,COMPASS_DEV_ID7,0,0
342,2023-01-20 10:49:56.257071,116245867,COMPASS_DEV_ID8,0,0
343,2023-01-20 10:49:56.257123,116245925,INS_GYROFFS_X,0.005898637,0
344,2023-01-20 10:49:56.257152,116245956,INS_GYROFFS_Y,-0.002482666,0
345,2023-01-20 10:49:56.257181,116245988,INS_GYROFFS_Z,0.003843586,0
346,2023-01-20 10:49:56.257215,116246026,INS_ACCSCAL_X,0.9986851,1
347,2023-01-20 10:49:56.257244,116246058,INS_ACCSCAL_Y,0.9968767,1
348,2023-01-20 10:49:56.257273,116246090,INS_ACCSCAL_Z,0.9873109,1
349,2023-01-20 10:49:56.257306,116246126,INS_ACCOFFS_X,0.1389707,0
350,2023-01-20 10:49:56.257381,116246208,INS_ACCOFFS_Y,-0.1729043,0
351,2023-01-20 10:49:56.257411,116246241,INS_ACCOFFS_Z,0.9466134,0
352,2023-01-20 10:49:56.257441,116246274,INS_GYRO_FILTER,40,20
353,2023-01-20 10:49:56.257474,116246311,INS_ACCEL_FILTER,10,20
354,2023-01-20 10:49:56.257505,116246345,INS_USE,1,1
355,2023-01-20 10:49:56.257536,116246379,INS_STILL_THRESH,2.5,2.5
356,2023-01-20 10:49:56.257569,116246415,INS_GYR_CAL,1,1
357,2023-01-20 10:49:56.257602,116246451,INS_TRIM_OPTION,1,1
358,2023-01-20 10:49:56.257636,116246488,INS_ACC_BODYFIX,2,2
359,2023-01-20 10:49:56.257675,116246532,INS_POS1_X,0,0
360,2023-01-20 10:49:56.257716,116246577,INS_POS1_Y,0,0
361,2023-01-20 10:49:56.257751,116246615,INS_POS1_Z,0,0
386,2023-01-20 10:49:56.259455,116248489,INS_POS1_Z,0,0
387,2023-01-20 10:49:56.259494,116248531,INS_GYR_ID,2162954,0
388,2023-01-20 10:49:56.259528,116248569,INS_ACC_ID,1245450,0
389,2023-01-20 10:49:56.259565,116248609,INS_FAST_SAMPLE,1,1
390,2023-01-20 10:49:56.259605,116248653,INS_LOG_BAT_CNT,1024,1024
391,2023-01-20 10:49:56.259645,116248697,INS_LOG_BAT_MASK,0,0
392,2023-01-20 10:49:56.259760,116248824,INS_LOG_BAT_OPT,0,0
393,2023-01-20 10:49:56.259802,116248870,INS_LOG_BAT_LGIN,20,20
394,2023-01-20 10:49:56.259845,116248917,INS_LOG_BAT_LGCT,32,32
395,2023-01-20 10:49:56.259887,116248964,INS_ENABLE_MASK,127,127
396,2023-01-20 10:49:56.259934,116249015,INS_HNTCH_ENABLE,0,0
397,2023-01-20 10:49:56.259985,116249071,INS_HNTC2_ENABLE,0,0
398,2023-01-20 10:49:56.260044,116249136,INS_GYRO_RATE,0,0
399,2023-01-20 10:49:56.260137,116249238,WPNAV_SPEED,700,1000
400,2023-01-20 10:49:56.260164,116249268,WPNAV_RADIUS,200,200
401,2023-01-20 10:49:56.260193,116249300,WPNAV_SPEED_UP,250,250
402,2023-01-20 10:49:56.260223,116249333,WPNAV_SPEED_DN,150,150
403,2023-01-20 10:49:56.260253,116249366,WPNAV_ACCEL,250,250
404,2023-01-20 10:49:56.260288,116249404,WPNAV_ACCEL_Z,100,100
405,2023-01-20 10:49:56.260319,116249439,WPNAV_RFND_USE,1,1
406,2023-01-20 10:49:56.260351,116249474,WPNAV_JERK,1,1
407,2023-01-20 10:49:56.261226,116250436,WPNAV_JERK,1,1
408,2023-01-20 10:49:56.261259,116250472,WPNAV_TER_MARGIN,10,10
409,2023-01-20 10:49:56.261296,116250512,LOIT_ANG_MAX,0,0
410,2023-01-20 10:49:56.261324,116250543,LOIT_SPEED,1250,1250
411,2023-01-20 10:49:56.261352,116250574,LOIT_ACC_MAX,500,500
412,2023-01-20 10:49:56.261382,116250607,LOIT_BRK_ACCEL,250,250
413,2023-01-20 10:49:56.261412,116250640,LOIT_BRK_JERK,500,500
414,2023-01-20 10:49:56.261443,116250674,LOIT_BRK_DELAY,1,1
415,2023-01-20 10:49:56.261474,116250708,CIRCLE_RADIUS,1000,1000
416,2023-01-20 10:49:56.261512,116250750,CIRCLE_RATE,20,20
417,2023-01-20 10:49:56.261606,116250853,CIRCLE_OPTIONS,1,1
418,2023-01-20 10:49:56.261639,116250890,ATC_SLEW_YAW,6000,6000
419,2023-01-20 10:49:56.261671,116250925,ATC_ACCEL_Y_MAX,27000,27000
420,2023-01-20 10:49:56.261704,116250961,ATC_RATE_FF_ENAB,1,1
421,2023-01-20 10:49:56.261737,116250997,ATC_ACCEL_R_MAX,110000,110000
422,2023-01-20 10:49:56.261771,116251035,ATC_ACCEL_P_MAX,110000,110000
423,2023-01-20 10:49:56.261809,116251077,ATC_ANGLE_BOOST,1,1
424,2023-01-20 10:49:56.261847,116251118,ATC_ANG_RLL_P,4.5,4.5
425,2023-01-20 10:49:56.261886,116251161,ATC_ANG_PIT_P,4.5,4.5
426,2023-01-20 10:49:56.261973,116251257,ATC_ANG_YAW_P,4.5,4.5
427,2023-01-20 10:49:56.262017,116251305,ATC_ANG_LIM_TC,1,1
428,2023-01-20 10:49:56.262065,116251358,ATC_RATE_R_MAX,0,0
429,2023-01-20 10:49:56.262110,116251407,ATC_RATE_P_MAX,0,0
430,2023-01-20 10:49:56.262154,116251456,ATC_RATE_Y_MAX,0,0
431,2023-01-20 10:49:56.263534,116252973,ATC_RATE_Y_MAX,0,0
432,2023-01-20 10:49:56.268052,116257940,ATC_INPUT_TC,0.15,0.15
433,2023-01-20 10:49:56.268115,116258010,ATC_RAT_RLL_P,0.135,0.135
434,2023-01-20 10:49:56.268163,116258063,ATC_RAT_RLL_I,0.135,0.135
435,2023-01-20 10:49:56.268276,116258187,ATC_RAT_RLL_D,0.0036,0.0036
436,2023-01-20 10:49:56.268325,116258241,ATC_RAT_RLL_FF,0,0
437,2023-01-20 10:49:56.268380,116258301,ATC_RAT_RLL_IMAX,0.5,0.5
438,2023-01-20 10:49:56.268431,116258357,ATC_RAT_RLL_FLTT,20,20
439,2023-01-20 10:49:56.268486,116258417,ATC_RAT_RLL_FLTE,0,0
440,2023-01-20 10:49:56.268537,116258474,ATC_RAT_RLL_FLTD,20,20
441,2023-01-20 10:49:56.268590,116258532,ATC_RAT_RLL_SMAX,0,0
442,2023-01-20 10:49:56.268645,116258592,ATC_RAT_PIT_P,0.135,0.135
443,2023-01-20 10:49:56.268704,116258657,ATC_RAT_PIT_I,0.135,0.135
444,2023-01-20 10:49:56.268760,116258719,ATC_RAT_PIT_D,0.0036,0.0036
445,2023-01-20 10:49:56.268873,116258843,ATC_RAT_PIT_FF,0,0
446,2023-01-20 10:49:56.268930,116258906,ATC_RAT_PIT_IMAX,0.5,0.5
447,2023-01-20 10:49:56.269006,116258989,ATC_RAT_PIT_FLTT,20,20
448,2023-01-20 10:49:56.270383,116260503,ATC_RAT_PIT_FLTT,20,20
449,2023-01-20 10:49:56.270441,116260567,ATC_RAT_PIT_FLTE,0,0
450,2023-01-20 10:49:56.270505,116260637,ATC_RAT_PIT_FLTD,20,20
451,2023-01-20 10:49:56.270564,116260702,ATC_RAT_PIT_SMAX,0,0
452,2023-01-20 10:49:56.270684,116260834,ATC_RAT_YAW_P,0.18,0.18
453,2023-01-20 10:49:56.270750,116260907,ATC_RAT_YAW_I,0.018,0.018
454,2023-01-20 10:49:56.270814,116260977,ATC_RAT_YAW_D,0,0
455,2023-01-20 10:49:56.270892,116261063,ATC_RAT_YAW_FF,0,0
456,2023-01-20 10:49:56.270957,116261134,ATC_RAT_YAW_IMAX,0.5,0.5
457,2023-01-20 10:49:56.271076,116261265,ATC_RAT_YAW_FLTT,20,20
458,2023-01-20 10:49:56.271142,116261337,ATC_RAT_YAW_FLTE,2,2.5
459,2023-01-20 10:49:56.271208,116261410,ATC_RAT_YAW_FLTD,0,0
460,2023-01-20 10:49:56.271279,116261488,ATC_RAT_YAW_SMAX,0,0
461,2023-01-20 10:49:56.272699,116263050,ATC_RAT_YAW_SMAX,0,0
462,2023-01-20 10:49:56.272768,116263126,ATC_THR_MIX_MIN,0.1,0.1
463,2023-01-20 10:49:56.272888,116263257,ATC_THR_MIX_MAX,0.5,0.5
464,2023-01-20 10:49:56.272958,116263334,ATC_THR_MIX_MAN,0.1,0.1
465,2023-01-20 10:49:56.273017,116263399,PSC_POSZ_P,1,1
466,2023-01-20 10:49:56.273052,116263437,PSC_VELZ_P,5,5
467,2023-01-20 10:49:56.273082,116263471,PSC_VELZ_I,0,0
468,2023-01-20 10:49:56.273114,116263506,PSC_VELZ_IMAX,1000,1000
469,2023-01-20 10:49:56.273147,116263542,PSC_VELZ_FLTE,5,5
470,2023-01-20 10:49:56.273181,116263579,PSC_VELZ_D,0,0
471,2023-01-20 10:49:56.273213,116263615,PSC_VELZ_FLTD,5,5
472,2023-01-20 10:49:56.273248,116263653,PSC_VELZ_FF,0,0
473,2023-01-20 10:49:56.273285,116263694,PSC_ACCZ_P,0.5,0.5
474,2023-01-20 10:49:56.273326,116263739,PSC_ACCZ_I,1,1
475,2023-01-20 10:49:56.273422,116263844,PSC_ACCZ_D,0,0
476,2023-01-20 10:49:56.273460,116263886,PSC_ACCZ_FF,0,0
477,2023-01-20 10:49:56.273499,116263929,PSC_ACCZ_IMAX,800,800
478,2023-01-20 10:49:56.273540,116263974,PSC_ACCZ_FLTT,0,0
479,2023-01-20 10:49:56.273584,116264022,PSC_ACCZ_FLTE,20,20
481,2023-01-20 10:49:56.274969,116265545,PSC_ACCZ_FLTE,20,20
482,2023-01-20 10:49:56.275011,116265591,PSC_ACCZ_FLTD,0,0
483,2023-01-20 10:49:56.275053,116265637,PSC_ACCZ_SMAX,0,0
484,2023-01-20 10:49:56.275102,116265691,PSC_POSXY_P,1,1
485,2023-01-20 10:49:56.275150,116265744,PSC_VELXY_P,2,2
486,2023-01-20 10:49:56.275256,116265861,PSC_VELXY_I,1,1
487,2023-01-20 10:49:56.275305,116265915,PSC_VELXY_IMAX,1000,1000
488,2023-01-20 10:49:56.275359,116265974,PSC_VELXY_FLTE,5,5
489,2023-01-20 10:49:56.275411,116266031,PSC_VELXY_D,0.5,0.5
490,2023-01-20 10:49:56.275484,116266111,PSC_VELXY_FLTD,5,5
491,2023-01-20 10:49:56.275581,116266218,PSC_VELXY_FF,0,0
492,2023-01-20 10:49:56.275640,116266283,PSC_ANGLE_MAX,0,0
493,2023-01-20 10:49:56.275696,116266344,PSC_JERK_XY,5,5
494,2023-01-20 10:49:56.275751,116266405,PSC_JERK_Z,5,5
495,2023-01-20 10:49:56.275796,116266455,SR0_RAW_SENS,0,0
496,2023-01-20 10:49:56.275825,116266486,SR0_EXT_STAT,0,0
497,2023-01-20 10:49:56.275853,116266517,SR0_RC_CHAN,0,0
498,2023-01-20 10:49:56.277471,116268296,SR0_RC_CHAN,0,0
499,2023-01-20 10:49:56.277501,116268329,SR0_RAW_CTRL,0,0
500,2023-01-20 10:49:56.277531,116268362,SR0_POSITION,0,0
501,2023-01-20 10:49:56.277562,116268396,SR0_EXTRA1,0,0
502,2023-01-20 10:49:56.277593,116268430,SR0_EXTRA2,0,0
503,2023-01-20 10:49:56.277625,116268465,SR0_EXTRA3,0,0
504,2023-01-20 10:49:56.277661,116268505,SR0_PARAMS,0,0
505,2023-01-20 10:49:56.277694,116268541,SR0_ADSB,0,0
506,2023-01-20 10:49:56.277726,116268576,SR1_RAW_SENS,0,0
507,2023-01-20 10:49:56.277754,116268607,SR1_EXT_STAT,0,0
508,2023-01-20 10:49:56.277783,116268639,SR1_RC_CHAN,0,0
509,2023-01-20 10:49:56.277813,116268672,SR1_RAW_CTRL,0,0
510,2023-01-20 10:49:56.277843,116268705,SR1_POSITION,0,0
511,2023-01-20 10:49:56.277874,116268739,SR1_EXTRA1,0,0
512,2023-01-20 10:49:56.277958,116268831,SR1_EXTRA2,0,0
513,2023-01-20 10:49:56.277997,116268875,SR1_EXTRA3,0,0
514,2023-01-20 10:49:56.278029,116268910,SR1_PARAMS,0,0
515,2023-01-20 10:49:56.278063,116268947,SR1_ADSB,0,0
516,2023-01-20 10:49:56.278095,116268982,SR2_RAW_SENS,2,0
517,2023-01-20 10:49:56.278123,116269013,SR2_EXT_STAT,2,0
518,2023-01-20 10:49:56.278152,116269045,SR2_RC_CHAN,2,0
519,2023-01-20 10:49:56.278185,116269081,SR2_RAW_CTRL,0,0
520,2023-01-20 10:49:56.278229,116269130,SR2_POSITION,3,0
521,2023-01-20 10:49:56.278305,116269213,SR2_EXTRA1,10,0
522,2023-01-20 10:49:56.278336,116269247,SR2_EXTRA2,10,0
523,2023-01-20 10:49:56.278368,116269282,SR2_EXTRA3,3,0
524,2023-01-20 10:49:56.279467,116270490,SR2_EXTRA3,3,0
525,2023-01-20 10:49:56.279499,116270526,SR2_PARAMS,0,0
526,2023-01-20 10:49:56.279532,116270562,SR2_ADSB,0,0
527,2023-01-20 10:49:56.279564,116270597,SR3_RAW_SENS,0,0
528,2023-01-20 10:49:56.279592,116270628,SR3_EXT_STAT,0,0
529,2023-01-20 10:49:56.279621,116270660,SR3_RC_CHAN,0,0
530,2023-01-20 10:49:56.279650,116270692,SR3_RAW_CTRL,0,0
531,2023-01-20 10:49:56.279681,116270726,SR3_POSITION,0,0
532,2023-01-20 10:49:56.279765,116270818,SR3_EXTRA1,0,0
533,2023-01-20 10:49:56.279796,116270852,SR3_EXTRA2,0,0
534,2023-01-20 10:49:56.279842,116270903,SR3_EXTRA3,0,0
535,2023-01-20 10:49:56.279874,116270938,SR3_PARAMS,0,0
536,2023-01-20 10:49:56.279908,116270975,SR3_ADSB,0,0
537,2023-01-20 10:49:56.279939,116271010,SR4_RAW_SENS,0,0
538,2023-01-20 10:49:56.279971,116271045,SR4_EXT_STAT,0,0
539,2023-01-20 10:49:56.280000,116271077,SR4_RC_CHAN,0,0
540,2023-01-20 10:49:56.280030,116271109,SR4_RAW_CTRL,0,0
541,2023-01-20 10:49:56.280119,116271207,SR4_POSITION,0,0
542,2023-01-20 10:49:56.280150,116271241,SR4_EXTRA1,0,0
543,2023-01-20 10:49:56.280180,116271275,SR4_EXTRA2,0,0
544,2023-01-20 10:49:56.280221,116271319,SR4_EXTRA3,0,0
545,2023-01-20 10:49:56.280253,116271355,SR4_PARAMS,0,0
546,2023-01-20 10:49:56.280286,116271391,SR4_ADSB,0,0
547,2023-01-20 10:49:56.280318,116271426,AHRS_GPS_GAIN,1,1
548,2023-01-20 10:49:56.281745,116272995,AHRS_GPS_USE,1,1
549,2023-01-20 10:49:56.281774,116273027,AHRS_YAW_P,0.2,0.2
550,2023-01-20 10:49:56.281803,116273059,AHRS_RP_P,0.2,0.2
551,2023-01-20 10:49:56.281833,116273092,AHRS_WIND_MAX,0,0
552,2023-01-20 10:49:56.281869,116273131,AHRS_TRIM_X,0.01598733,0
553,2023-01-20 10:49:56.281958,116273229,AHRS_TRIM_Y,-0.00542287,0
554,2023-01-20 10:49:56.281990,116273264,AHRS_TRIM_Z,0,0
555,2023-01-20 10:49:56.282024,116273302,AHRS_ORIENTATION,0,0
556,2023-01-20 10:49:56.282057,116273338,AHRS_COMP_BETA,0.1,0.1
557,2023-01-20 10:49:56.282090,116273374,AHRS_GPS_MINSATS,6,6
558,2023-01-20 10:49:56.282123,116273411,AHRS_EKF_TYPE,3,3
559,2023-01-20 10:49:56.282159,116273450,MNT1_TYPE,0,0
560,2023-01-20 10:49:56.282195,116273490,MNT2_TYPE,0,0
561,2023-01-20 10:49:56.282231,116273529,LOG_BACKEND_TYPE,1,1
562,2023-01-20 10:49:56.282263,116273565,LOG_FILE_BUFSIZE,16,16
563,2023-01-20 10:49:56.282293,116273597,LOG_DISARMED,0,0
564,2023-01-20 10:49:56.282322,116273630,LOG_REPLAY,0,0
565,2023-01-20 10:49:56.282352,116273663,LOG_FILE_DSRMROT,0,0
566,2023-01-20 10:49:56.282383,116273697,LOG_MAV_BUFSIZE,8,8
567,2023-01-20 10:49:56.282415,116273732,LOG_FILE_TIMEOUT,5,5
568,2023-01-20 10:49:56.282497,116273822,LOG_FILE_MB_FREE,500,500
569,2023-01-20 10:49:56.282539,116273868,LOG_FILE_RATEMAX,0,0
570,2023-01-20 10:49:56.282581,116273914,LOG_MAV_RATEMAX,0,0
571,2023-01-20 10:49:56.282615,116273952,BATT_MONITOR,4,4
572,2023-01-20 10:49:56.282647,116273987,BATT_CAPACITY,6000,3300
573,2023-01-20 10:49:56.284014,116275490,BATT_CAPACITY,6000,3300
574,2023-01-20 10:49:56.284052,116275531,BATT_SERIAL_NUM,-1,-1
575,2023-01-20 10:49:56.284085,116275568,BATT_LOW_TIMER,10,10
576,2023-01-20 10:49:56.284119,116275605,BATT_FS_VOLTSRC,0,0
577,2023-01-20 10:49:56.284154,116275644,BATT_LOW_VOLT,13.2,10.5
578,2023-01-20 10:49:56.284189,116275682,BATT_LOW_MAH,0,0
579,2023-01-20 10:49:56.284225,116275722,BATT_CRT_VOLT,0,0
580,2023-01-20 10:49:56.284318,116275824,BATT_CRT_MAH,0,0
581,2023-01-20 10:49:56.284355,116275865,BATT_FS_LOW_ACT,2,0
582,2023-01-20 10:49:56.284401,116275915,BATT_FS_CRT_ACT,0,0
583,2023-01-20 10:49:56.284440,116275958,BATT_ARM_VOLT,13,0
584,2023-01-20 10:49:56.284479,116276001,BATT_ARM_MAH,0,0
585,2023-01-20 10:49:56.284518,116276044,BATT_OPTIONS,0,0
586,2023-01-20 10:49:56.284565,116276096,BATT_VOLT_PIN,10,10
587,2023-01-20 10:49:56.284609,116276144,BATT_CURR_PIN,11,11
588,2023-01-20 10:49:56.284698,116276242,BATT_VOLT_MULT,11,11
589,2023-01-20 10:49:56.284764,116276314,BATT_AMP_PERVLT,31.7,31.7
590,2023-01-20 10:49:56.284814,116276369,BATT_AMP_OFFSET,0,0
591,2023-01-20 10:49:56.284859,116276419,BATT_VLT_OFFSET,0,0
592,2023-01-20 10:49:56.284908,116276473,BATT2_MONITOR,0,0
593,2023-01-20 10:49:56.286264,116277963,BATT2_MONITOR,0,0
594,2023-01-20 10:49:56.286319,116278024,BATT3_MONITOR,0,0
595,2023-01-20 10:49:56.286390,116278102,BATT4_MONITOR,0,0
596,2023-01-20 10:49:56.286515,116278239,BATT5_MONITOR,0,0
597,2023-01-20 10:49:56.286623,116278358,BATT6_MONITOR,0,0
598,2023-01-20 10:49:56.286726,116278471,BATT7_MONITOR,0,0
599,2023-01-20 10:49:56.286840,116278597,BATT8_MONITOR,0,0
600,2023-01-20 10:49:56.286970,116278740,BATT9_MONITOR,0,0
601,2023-01-20 10:49:56.287119,116278903,BRD_SAFETYENABLE,0,0
602,2023-01-20 10:49:56.287155,116278943,BRD_SERIAL_NUM,0,0
603,2023-01-20 10:49:56.289011,116280983,BRD_SERIAL_NUM,0,0
604,2023-01-20 10:49:56.289036,116281011,BRD_SAFETY_MASK,16368,16368
605,2023-01-20 10:49:56.289065,116281043,BRD_SAFETYOPTION,3,3
606,2023-01-20 10:49:56.289099,116281081,BRD_RTC_TYPES,1,1
607,2023-01-20 10:49:56.289134,116281119,BRD_RTC_TZ_MIN,0,0
608,2023-01-20 10:49:56.289216,116281209,BRD_SD_SLOWDOWN,0,0
609,2023-01-20 10:49:56.289252,116281248,BRD_OPTIONS,1,1
610,2023-01-20 10:49:56.289286,116281286,BRD_BOOT_DELAY,0,0
611,2023-01-20 10:49:56.289322,116281326,BRD_ALT_CONFIG,0,0
612,2023-01-20 10:49:56.289370,116281378,BARO1_GND_PRESS,92910.32,0
613,2023-01-20 10:49:56.289399,116281410,BARO_GND_TEMP,0,0
614,2023-01-20 10:49:56.289432,116281446,BARO_ALT_OFFSET,0,0
615,2023-01-20 10:49:56.289461,116281478,BARO_PRIMARY,0,0
616,2023-01-20 10:49:56.289491,116281511,BARO_EXT_BUS,-1,-1
617,2023-01-20 10:49:56.289522,116281546,BARO2_GND_PRESS,0,0
618,2023-01-20 10:49:56.289554,116281581,BARO3_GND_PRESS,0,0
619,2023-01-20 10:49:56.289587,116281617,BARO_FLTR_RNG,0,0
620,2023-01-20 10:49:56.289621,116281654,BARO_PROBE_EXT,0,0
621,2023-01-20 10:49:56.289654,116281691,BARO1_DEVID,357889,0
622,2023-01-20 10:49:56.289693,116281733,BARO2_DEVID,0,0
623,2023-01-20 10:49:56.289776,116281825,BARO3_DEVID,0,0
624,2023-01-20 10:49:56.289812,116281864,BARO_ALTERR_MAX,2000,2000
625,2023-01-20 10:49:56.289849,116281905,BARO_OPTIONS,0,0
626,2023-01-20 10:49:56.289890,116281950,GPS_TYPE,1,1
627,2023-01-20 10:49:56.289922,116281985,GPS_TYPE2,0,0
628,2023-01-20 10:49:56.290829,116282982,GPS_TYPE2,0,0
629,2023-01-20 10:49:56.290857,116283013,GPS_NAVFILTER,8,8
630,2023-01-20 10:49:56.290887,116283046,GPS_AUTO_SWITCH,1,1
631,2023-01-20 10:49:56.290920,116283082,GPS_MIN_DGPS,100,100
632,2023-01-20 10:49:56.290954,116283120,GPS_SBAS_MODE,2,2
633,2023-01-20 10:49:56.291041,116283215,GPS_MIN_ELEV,-100,-100
634,2023-01-20 10:49:56.291080,116283258,GPS_INJECT_TO,127,127
635,2023-01-20 10:49:56.291112,116283294,GPS_SBP_LOGMASK,-256,-256
636,2023-01-20 10:49:56.291145,116283330,GPS_RAW_DATA,0,0
637,2023-01-20 10:49:56.291180,116283368,GPS_GNSS_MODE,0,0
638,2023-01-20 10:49:56.291218,116283410,GPS_SAVE_CFG,2,2
639,2023-01-20 10:49:56.291266,116283463,GPS_GNSS_MODE2,0,0
640,2023-01-20 10:49:56.291302,116283503,GPS_AUTO_CONFIG,1,1
641,2023-01-20 10:49:56.291339,116283543,GPS_RATE_MS,200,200
642,2023-01-20 10:49:56.291375,116283583,GPS_RATE_MS2,200,200
643,2023-01-20 10:49:56.291422,116283634,GPS_POS1_X,0,0
644,2023-01-20 10:49:56.291463,116283680,GPS_POS1_Y,0,0
645,2023-01-20 10:49:56.291502,116283722,GPS_POS1_Z,0,0
646,2023-01-20 10:49:56.291598,116283828,GPS_POS2_X,0,0
647,2023-01-20 10:49:56.291637,116283871,GPS_POS2_Y,0,0
648,2023-01-20 10:49:56.291676,116283914,GPS_POS2_Z,0,0
649,2023-01-20 10:49:56.291725,116283968,GPS_DELAY_MS,0,0
650,2023-01-20 10:49:56.293144,116285527,GPS_DELAY_MS,0,0
651,2023-01-20 10:49:56.293183,116285570,GPS_DELAY_MS2,0,0
652,2023-01-20 10:49:56.293223,116285615,GPS_BLEND_MASK,5,5
653,2023-01-20 10:49:56.293267,116285663,GPS_BLEND_TC,10,10
654,2023-01-20 10:49:56.293309,116285709,GPS_DRV_OPTIONS,0,0
655,2023-01-20 10:49:56.293369,116285775,GPS_COM_PORT,1,1
656,2023-01-20 10:49:56.293443,116285856,GPS_COM_PORT2,1,1
657,2023-01-20 10:49:56.293489,116285907,GPS_MB1_TYPE,0,0
658,2023-01-20 10:49:56.293550,116285974,GPS_MB2_TYPE,0,0
659,2023-01-20 10:49:56.293599,116286028,GPS_PRIMARY,0,0
660,2023-01-20 10:49:56.293642,116286075,SCHED_DEBUG,0,0
661,2023-01-20 10:49:56.293670,116286106,SCHED_LOOP_RATE,400,400
662,2023-01-20 10:49:56.293699,116286138,SCHED_OPTIONS,0,0
663,2023-01-20 10:49:56.293777,116286224,AVOID_ENABLE,3,3
664,2023-01-20 10:49:56.293806,116286255,AVOID_ANGLE_MAX,1000,1000
665,2023-01-20 10:49:56.293835,116286287,AVOID_DIST_MAX,5,5
666,2023-01-20 10:49:56.293865,116286320,AVOID_MARGIN,2,2
667,2023-01-20 10:49:56.293895,116286353,AVOID_BEHAVE,0,0
668,2023-01-20 10:49:56.293926,116286387,AVOID_BACKUP_SPD,0.75,0.75
669,2023-01-20 10:49:56.293958,116286423,AVOID_ALT_MIN,0,0
670,2023-01-20 10:49:56.294015,116286485,AVOID_ACCEL_MAX,3,3
671,2023-01-20 10:49:56.294049,116286522,AVOID_BACKUP_DZ,0.1,0.1
672,2023-01-20 10:49:56.295365,116287969,AVOID_BACKUP_DZ,0.1,0.1
673,2023-01-20 10:49:56.295404,116288012,RALLY_TOTAL,0,0
674,2023-01-20 10:49:56.295432,116288043,RALLY_LIMIT_KM,0.3,0.3
675,2023-01-20 10:49:56.295462,116288076,RALLY_INCL_HOME,1,1
676,2023-01-20 10:49:56.295491,116288108,MOT_YAW_HEADROOM,200,200
677,2023-01-20 10:49:56.295520,116288140,MOT_THST_EXPO,0.65,0.65
678,2023-01-20 10:49:56.295597,116288225,MOT_SPIN_MAX,0.95,0.95
679,2023-01-20 10:49:56.295626,116288257,MOT_BAT_VOLT_MAX,16.8,0
680,2023-01-20 10:49:56.295657,116288291,MOT_BAT_VOLT_MIN,13.2,0
681,2023-01-20 10:49:56.295688,116288325,MOT_BAT_CURR_MAX,0,0
682,2023-01-20 10:49:56.295720,116288360,MOT_PWM_TYPE,0,0
683,2023-01-20 10:49:56.295752,116288395,MOT_PWM_MIN,1000,1000
684,2023-01-20 10:49:56.295785,116288431,MOT_PWM_MAX,2000,2000
685,2023-01-20 10:49:56.295821,116288471,MOT_SPIN_MIN,0.15,0.15
686,2023-01-20 10:49:56.295869,116288524,MOT_SPIN_ARM,0.1,0.1
687,2023-01-20 10:49:56.295903,116288561,MOT_BAT_CURR_TC,5,5
688,2023-01-20 10:49:56.295938,116288600,MOT_THST_HOVER,0.2924092,0.35
689,2023-01-20 10:49:56.295975,116288640,MOT_HOVER_LEARN,2,2
690,2023-01-20 10:49:56.296011,116288680,MOT_SAFE_DISARM,0,0
691,2023-01-20 10:49:56.296049,116288721,MOT_SPOOL_TIME,0.5,0.5
692,2023-01-20 10:49:56.296140,116288822,MOT_BOOST_SCALE,0,0
693,2023-01-20 10:49:56.296184,116288870,MOT_BAT_IDX,0,0
694,2023-01-20 10:49:56.296223,116288913,MOT_SLEW_UP_TIME,0,0
695,2023-01-20 10:49:56.296264,116288958,MOT_SLEW_DN_TIME,0,0
696,2023-01-20 10:49:56.297699,116290536,MOT_SLEW_DN_TIME,0,0
697,2023-01-20 10:49:56.297740,116290581,MOT_SAFE_TIME,1,1
698,2023-01-20 10:49:56.297777,116290621,RCMAP_ROLL,1,1
699,2023-01-20 10:49:56.297805,116290652,RCMAP_PITCH,2,2
700,2023-01-20 10:49:56.297834,116290684,RCMAP_THROTTLE,3,3
701,2023-01-20 10:49:56.297867,116290720,RCMAP_YAW,4,4
702,2023-01-20 10:49:56.297915,116290773,EK3_ENABLE,1,1
703,2023-01-20 10:49:56.297974,116290838,EK3_VELNE_M_NSE,0.3,0.3
704,2023-01-20 10:49:56.298004,116290871,EK3_VELD_M_NSE,0.5,0.5
705,2023-01-20 10:49:56.298033,116290903,EK3_VEL_I_GATE,500,500
706,2023-01-20 10:49:56.298064,116290937,EK3_POSNE_M_NSE,0.5,0.5
707,2023-01-20 10:49:56.298095,116290971,EK3_POS_I_GATE,500,500
708,2023-01-20 10:49:56.298138,116291018,EK3_GLITCH_RAD,25,25
709,2023-01-20 10:49:56.298171,116291054,EK3_ALT_M_NSE,2,2
710,2023-01-20 10:49:56.298203,116291090,EK3_HGT_I_GATE,500,500
711,2023-01-20 10:49:56.298237,116291127,EK3_HGT_DELAY,60,60
712,2023-01-20 10:49:56.298316,116291214,EK3_MAG_M_NSE,0.05,0.05
713,2023-01-20 10:49:56.298351,116291252,EK3_MAG_CAL,3,3
714,2023-01-20 10:49:56.298389,116291294,EK3_MAG_I_GATE,300,300
715,2023-01-20 10:49:56.298425,116291334,EK3_EAS_M_NSE,1.4,1.4
716,2023-01-20 10:49:56.298462,116291374,EK3_EAS_I_GATE,400,400
717,2023-01-20 10:49:56.298503,116291420,EK3_RNG_M_NSE,0.5,0.5
718,2023-01-20 10:49:56.298541,116291461,EK3_RNG_I_GATE,500,500
719,2023-01-20 10:49:56.298579,116291503,EK3_MAX_FLOW,2.5,2.5
720,2023-01-20 10:49:56.300399,116293504,EK3_MAX_FLOW,2.5,2.5
721,2023-01-20 10:49:56.300454,116293565,EK3_FLOW_M_NSE,0.25,0.25
722,2023-01-20 10:49:56.300494,116293609,EK3_FLOW_I_GATE,300,300
723,2023-01-20 10:49:56.300534,116293653,EK3_FLOW_DELAY,10,10
724,2023-01-20 10:49:56.300575,116293698,EK3_GYRO_P_NSE,0.015,0.015
725,2023-01-20 10:49:56.300616,116293743,EK3_ACC_P_NSE,0.35,0.35
726,2023-01-20 10:49:56.300711,116293847,EK3_GBIAS_P_NSE,0.001,0.001
727,2023-01-20 10:49:56.300754,116293894,EK3_ABIAS_P_NSE,0.003,0.003
728,2023-01-20 10:49:56.300797,116293942,EK3_WIND_P_NSE,0.2,0.2
729,2023-01-20 10:49:56.300841,116293990,EK3_WIND_PSCALE,1,1
730,2023-01-20 10:49:56.300894,116294048,EK3_GPS_CHECK,31,31
731,2023-01-20 10:49:56.300942,116294101,EK3_IMU_MASK,1,3
732,2023-01-20 10:49:56.301017,116294183,EK3_CHECK_SCALE,100,100
733,2023-01-20 10:49:56.301063,116294234,EK3_NOAID_M_NSE,10,10
734,2023-01-20 10:49:56.301109,116294285,EK3_BETA_MASK,0,0
735,2023-01-20 10:49:56.301157,116294338,EK3_YAW_M_NSE,0.5,0.5
736,2023-01-20 10:49:56.301208,116294394,EK3_YAW_I_GATE,300,300
737,2023-01-20 10:49:56.301258,116294448,EK3_TAU_OUTPUT,25,25
738,2023-01-20 10:49:56.301307,116294502,EK3_MAGE_P_NSE,0.001,0.001
739,2023-01-20 10:49:56.302189,116295472,EK3_MAGE_P_NSE,0.001,0.001
740,2023-01-20 10:49:56.302243,116295531,EK3_MAGB_P_NSE,0.0001,0.0001
741,2023-01-20 10:49:56.302310,116295605,EK3_RNG_USE_HGT,-1,-1
742,2023-01-20 10:49:56.302362,116295662,EK3_TERR_GRAD,0.1,0.1
743,2023-01-20 10:49:56.302428,116295735,EK3_BCN_M_NSE,1,1
744,2023-01-20 10:49:56.302533,116295850,EK3_BCN_I_GTE,500,500
745,2023-01-20 10:49:56.302586,116295909,EK3_BCN_DELAY,50,50
746,2023-01-20 10:49:56.302640,116295968,EK3_RNG_USE_SPD,2,2
747,2023-01-20 10:49:56.302695,116296028,EK3_ACC_BIAS_LIM,1,1
748,2023-01-20 10:49:56.302760,116296100,EK3_MAG_MASK,0,0
749,2023-01-20 10:49:56.302860,116296210,EK3_OGN_HGT_MASK,0,0
750,2023-01-20 10:49:56.302916,116296271,EK3_VIS_VERR_MIN,0.1,0.1
751,2023-01-20 10:49:56.302977,116296338,EK3_VIS_VERR_MAX,0.9,0.9
752,2023-01-20 10:49:56.303038,116296406,EK3_WENC_VERR,0.1,0.1
753,2023-01-20 10:49:56.303097,116296470,EK3_FLOW_USE,1,1
754,2023-01-20 10:49:56.304461,116297970,EK3_FLOW_USE,1,1
755,2023-01-20 10:49:56.304523,116298038,EK3_HRT_FILT,2,2
756,2023-01-20 10:49:56.304589,116298111,EK3_MAG_EF_LIM,50,50
757,2023-01-20 10:49:56.304694,116298226,EK3_GSF_RUN_MASK,3,3
758,2023-01-20 10:49:56.304757,116298296,EK3_GSF_USE_MASK,3,3
759,2023-01-20 10:49:56.304818,116298363,EK3_GSF_RST_MAX,2,2
760,2023-01-20 10:49:56.304880,116298431,EK3_ERR_THRESH,0.2,0.2
761,2023-01-20 10:49:56.304947,116298504,EK3_AFFINITY,0,0
762,2023-01-20 10:49:56.305019,116298584,EK3_SRC1_POSXY,3,3
763,2023-01-20 10:49:56.305103,116298676,EK3_SRC1_VELXY,3,3
764,2023-01-20 10:49:56.305191,116298773,EK3_SRC1_POSZ,1,1
765,2023-01-20 10:49:56.305297,116298889,EK3_SRC1_VELZ,3,3
766,2023-01-20 10:49:56.305369,116298968,EK3_SRC1_YAW,1,1
767,2023-01-20 10:49:56.306748,116300484,EK3_SRC1_YAW,1,1
768,2023-01-20 10:49:56.306823,116300567,EK3_SRC2_POSXY,0,0
769,2023-01-20 10:49:56.306896,116300647,EK3_SRC2_VELXY,0,0
770,2023-01-20 10:49:56.306983,116300743,EK3_SRC2_POSZ,1,1
771,2023-01-20 10:49:56.307111,116300883,EK3_SRC2_VELZ,0,0
772,2023-01-20 10:49:56.307185,116300965,EK3_SRC2_YAW,0,0
773,2023-01-20 10:49:56.307260,116301047,EK3_SRC3_POSXY,0,0
774,2023-01-20 10:49:56.307347,116301143,EK3_SRC3_VELXY,0,0
775,2023-01-20 10:49:56.307468,116301276,EK3_SRC3_POSZ,1,1
776,2023-01-20 10:49:56.307545,116301361,EK3_SRC3_VELZ,0,0
777,2023-01-20 10:49:56.307626,116301450,EK3_SRC3_YAW,0,0
778,2023-01-20 10:49:56.309058,116303024,EK3_SRC3_YAW,0,0
779,2023-01-20 10:49:56.309147,116303122,EK3_SRC_OPTIONS,1,1
780,2023-01-20 10:49:56.309270,116303257,EK3_DRAG_BCOEF_X,0,0
781,2023-01-20 10:49:56.309349,116303344,EK3_DRAG_BCOEF_Y,0,0
782,2023-01-20 10:49:56.309432,116303435,EK3_DRAG_M_NSE,0.5,0.5
783,2023-01-20 10:49:56.309512,116303523,EK3_DRAG_MCOEF,0,0
784,2023-01-20 10:49:56.309593,116303612,EK3_OGNM_TEST_SF,2,2
785,2023-01-20 10:49:56.309691,116303720,EK3_GND_EFF_DZ,4,4
786,2023-01-20 10:49:56.309823,116303865,EK3_PRIMARY,0,0
787,2023-01-20 10:49:56.309909,116303960,EK3_LOG_LEVEL,0,0
788,2023-01-20 10:49:56.309992,116304051,EK3_GPS_VACC_MAX,0,0
790,2023-01-20 10:49:56.311731,116305963,EK3_GPS_VACC_MAX,0,0
791,2023-01-20 10:49:56.311794,116306032,MIS_TOTAL,69,0
792,2023-01-20 10:49:56.311822,116306063,MIS_RESTART,0,0
793,2023-01-20 10:49:56.311858,116306103,MIS_OPTIONS,0,0
794,2023-01-20 10:49:56.311888,116306135,RSSI_TYPE,0,0
795,2023-01-20 10:49:56.311967,116306223,RNGFND1_TYPE,0,0
796,2023-01-20 10:49:56.312005,116306264,RNGFND2_TYPE,0,0
797,2023-01-20 10:49:56.312053,116306317,RNGFND3_TYPE,0,0
798,2023-01-20 10:49:56.312113,116306383,RNGFND4_TYPE,0,0
799,2023-01-20 10:49:56.312192,116306470,RNGFND5_TYPE,0,0
800,2023-01-20 10:49:56.312275,116306561,RNGFND6_TYPE,0,0
801,2023-01-20 10:49:56.312370,116306665,RNGFND7_TYPE,0,0
802,2023-01-20 10:49:56.312548,116306861,RNGFND8_TYPE,0,0
803,2023-01-20 10:49:56.312664,116306989,RNGFND9_TYPE,0,0
804,2023-01-20 10:49:56.313612,116308031,RNGFND9_TYPE,0,0
805,2023-01-20 10:49:56.313818,116308257,RNGFNDA_TYPE,0,0
806,2023-01-20 10:49:56.313915,116308364,TERRAIN_ENABLE,1,1
807,2023-01-20 10:49:56.313943,116308395,TERRAIN_SPACING,100,100
808,2023-01-20 10:49:56.313976,116308431,TERRAIN_OPTIONS,0,0
809,2023-01-20 10:49:56.314008,116308466,TERRAIN_MARGIN,0.05,0.05
810,2023-01-20 10:49:56.314039,116308500,TERRAIN_OFS_MAX,15,15
811,2023-01-20 10:49:56.314072,116308537,RPM1_TYPE,0,0
812,2023-01-20 10:49:56.314107,116308575,RPM2_TYPE,0,0
813,2023-01-20 10:49:56.314140,116308612,NTF_LED_BRIGHT,3,3
814,2023-01-20 10:49:56.314171,116308646,NTF_BUZZ_TYPES,1,1
815,2023-01-20 10:49:56.314200,116308678,NTF_LED_OVERRIDE,0,0
816,2023-01-20 10:49:56.314234,116308715,NTF_DISPLAY_TYPE,0,0
817,2023-01-20 10:49:56.314265,116308749,NTF_BUZZ_PIN,80,80
818,2023-01-20 10:49:56.314360,116308853,NTF_LED_TYPES,199,199
819,2023-01-20 10:49:56.314390,116308887,NTF_BUZZ_ON_LVL,1,1
820,2023-01-20 10:49:56.314423,116308923,NTF_BUZZ_VOLUME,100,100
821,2023-01-20 10:49:56.314456,116308959,NTF_LED_LEN,1,1
822,2023-01-20 10:49:56.315856,116310498,NTF_LED_LEN,1,1
823,2023-01-20 10:49:56.315887,116310532,THROW_MOT_START,0,0
824,2023-01-20 10:49:56.315914,116310562,OSD_TYPE,1,1
825,2023-01-20 10:49:56.315941,116310592,OSD_CHAN,0,0
826,2023-01-20 10:49:56.315974,116310628,OSD1_ENABLE,1,0
827,2023-01-20 10:49:56.316010,116310668,OSD1_CHAN_MIN,900,900
828,2023-01-20 10:49:56.316046,116310707,OSD1_CHAN_MAX,2100,2100
829,2023-01-20 10:49:56.316083,116310748,OSD1_ALTITUDE_EN,1,0
830,2023-01-20 10:49:56.316170,116310844,OSD1_ALTITUDE_X,23,0
831,2023-01-20 10:49:56.316211,116310889,OSD1_ALTITUDE_Y,8,0
832,2023-01-20 10:49:56.316275,116310959,OSD1_BAT_VOLT_EN,1,0
833,2023-01-20 10:49:56.316318,116311006,OSD1_BAT_VOLT_X,24,0
834,2023-01-20 10:49:56.316363,116311056,OSD1_BAT_VOLT_Y,1,0
835,2023-01-20 10:49:56.316409,116311106,OSD1_RSSI_EN,1,0
836,2023-01-20 10:49:56.316507,116311214,OSD1_RSSI_X,1,0
837,2023-01-20 10:49:56.316559,116311271,OSD1_RSSI_Y,1,0
838,2023-01-20 10:49:56.316609,116311326,OSD1_CURRENT_EN,1,0
839,2023-01-20 10:49:56.316659,116311381,OSD1_CURRENT_X,25,0
840,2023-01-20 10:49:56.316712,116311439,OSD1_CURRENT_Y,2,0
841,2023-01-20 10:49:56.316765,116311498,OSD1_BATUSED_EN,1,0
842,2023-01-20 10:49:56.318404,116313300,OSD1_BATUSED_EN,1,0
843,2023-01-20 10:49:56.318461,116313362,OSD1_BATUSED_X,23,0
844,2023-01-20 10:49:56.318515,116313422,OSD1_BATUSED_Y,3,0
845,2023-01-20 10:49:56.318579,116313492,OSD1_SATS_EN,1,0
846,2023-01-20 10:49:56.318637,116313556,OSD1_SATS_X,1,0
847,2023-01-20 10:49:56.318696,116313621,OSD1_SATS_Y,3,0
848,2023-01-20 10:49:56.318760,116313691,OSD1_FLTMODE_EN,1,0
849,2023-01-20 10:49:56.318876,116313818,OSD1_FLTMODE_X,2,0
850,2023-01-20 10:49:56.318941,116313890,OSD1_FLTMODE_Y,8,0
851,2023-01-20 10:49:56.319026,116313983,OSD1_MESSAGE_EN,1,0
852,2023-01-20 10:49:56.319098,116314063,OSD1_MESSAGE_X,2,0
853,2023-01-20 10:49:56.319166,116314137,OSD1_MESSAGE_Y,6,0
854,2023-01-20 10:49:56.319289,116314273,OSD1_GSPEED_EN,1,0
855,2023-01-20 10:49:56.320700,116315824,OSD1_GSPEED_EN,1,0
856,2023-01-20 10:49:56.320770,116315901,OSD1_GSPEED_X,2,0
857,2023-01-20 10:49:56.320845,116315983,OSD1_GSPEED_Y,14,0
858,2023-01-20 10:49:56.320942,116316090,OSD1_HORIZON_EN,1,0
859,2023-01-20 10:49:56.321069,116316229,OSD1_HORIZON_X,14,0
860,2023-01-20 10:49:56.321150,116316319,OSD1_HORIZON_Y,8,0
861,2023-01-20 10:49:56.321228,116316404,OSD1_HOME_EN,1,0
862,2023-01-20 10:49:56.321309,116316493,OSD1_HOME_X,14,0
863,2023-01-20 10:49:56.321391,116316584,OSD1_HOME_Y,1,0
864,2023-01-20 10:49:56.321476,116316677,OSD1_HEADING_EN,1,0
865,2023-01-20 10:49:56.321610,116316825,OSD1_HEADING_X,13,0
866,2023-01-20 10:49:56.323122,116318487,OSD1_HEADING_X,13,0
867,2023-01-20 10:49:56.323212,116318586,OSD1_HEADING_Y,2,0
868,2023-01-20 10:49:56.323298,116318680,OSD1_THROTTLE_EN,1,0
869,2023-01-20 10:49:56.323442,116318838,OSD1_THROTTLE_X,24,0
870,2023-01-20 10:49:56.323531,116318937,OSD1_THROTTLE_Y,11,0
871,2023-01-20 10:49:56.323624,116319039,OSD1_COMPASS_EN,1,0
872,2023-01-20 10:49:56.323786,116319217,OSD1_COMPASS_X,15,0
873,2023-01-20 10:49:56.323878,116319318,OSD1_COMPASS_Y,3,0
874,2023-01-20 10:49:56.323978,116319428,OSD1_WIND_EN,0,0
875,2023-01-20 10:49:56.324073,116319532,OSD1_WIND_X,2,0
876,2023-01-20 10:49:56.325146,116320712,OSD1_WIND_X,2,0
877,2023-01-20 10:49:56.325311,116320894,OSD1_WIND_Y,12,0
878,2023-01-20 10:49:56.325412,116321004,OSD1_ASPEED_EN,0,0
879,2023-01-20 10:49:56.325531,116321136,OSD1_ASPEED_X,2,0
880,2023-01-20 10:49:56.325685,116321305,OSD1_ASPEED_Y,13,0
881,2023-01-20 10:49:56.325792,116321422,OSD1_VSPEED_EN,1,0
882,2023-01-20 10:49:56.325897,116321538,OSD1_VSPEED_X,24,0
883,2023-01-20 10:49:56.326006,116321658,OSD1_VSPEED_Y,9,0
884,2023-01-20 10:49:56.327664,116323480,OSD1_VSPEED_Y,9,0
885,2023-01-20 10:49:56.327776,116323604,OSD1_ESCTEMP_EN,0,0
886,2023-01-20 10:49:56.327886,116323724,OSD1_ESCTEMP_X,24,0
887,2023-01-20 10:49:56.328050,116323905,OSD1_ESCTEMP_Y,13,0
888,2023-01-20 10:49:56.328166,116324032,OSD1_ESCRPM_EN,0,0
889,2023-01-20 10:49:56.328370,116324257,OSD1_ESCRPM_X,22,0
890,2023-01-20 10:49:56.328481,116324379,OSD1_ESCRPM_Y,12,0
891,2023-01-20 10:49:56.328601,116324511,OSD1_ESCAMPS_EN,0,0
892,2023-01-20 10:49:56.329626,116325638,OSD1_ESCAMPS_EN,0,0
893,2023-01-20 10:49:56.329818,116325849,OSD1_ESCAMPS_X,24,0
894,2023-01-20 10:49:56.329939,116325982,OSD1_ESCAMPS_Y,14,0
895,2023-01-20 10:49:56.330063,116326118,OSD1_GPSLAT_EN,1,0
896,2023-01-20 10:49:56.330260,116326335,OSD1_GPSLAT_X,9,0
897,2023-01-20 10:49:56.330388,116326475,OSD1_GPSLAT_Y,13,0
898,2023-01-20 10:49:56.330523,116326624,OSD1_GPSLONG_EN,1,0
899,2023-01-20 10:49:56.331790,116328017,OSD1_GPSLONG_EN,1,0
900,2023-01-20 10:49:56.331973,116328218,OSD1_GPSLONG_X,9,0
901,2023-01-20 10:49:56.332129,116328389,OSD1_GPSLONG_Y,14,0
902,2023-01-20 10:49:56.332266,116328540,OSD1_ROLL_EN,0,0
903,2023-01-20 10:49:56.332402,116328689,OSD1_ROLL_X,0,0
904,2023-01-20 10:49:56.332590,116328896,OSD1_ROLL_Y,0,0
905,2023-01-20 10:49:56.332729,116329049,OSD1_PITCH_EN,0,0
906,2023-01-20 10:49:56.334444,116330935,OSD1_PITCH_EN,0,0
907,2023-01-20 10:49:56.334583,116331087,OSD1_PITCH_X,0,0
908,2023-01-20 10:49:56.334778,116331302,OSD1_PITCH_Y,0,0
909,2023-01-20 10:49:56.334937,116331477,OSD1_TEMP_EN,0,0
910,2023-01-20 10:49:56.335084,116331638,OSD1_TEMP_X,0,0
911,2023-01-20 10:49:56.335282,116331856,OSD1_TEMP_Y,0,0
912,2023-01-20 10:49:56.336373,116333055,OSD1_TEMP_Y,0,0
913,2023-01-20 10:49:56.336579,116333282,OSD1_HDOP_EN,0,0
914,2023-01-20 10:49:56.336743,116333462,OSD1_HDOP_X,0,0
915,2023-01-20 10:49:56.336895,116333629,OSD1_HDOP_Y,0,0
916,2023-01-20 10:49:56.337100,116333855,OSD1_WAYPOINT_EN,0,0
917,2023-01-20 10:49:56.337255,116334025,OSD1_WAYPOINT_X,0,0
918,2023-01-20 10:49:56.338691,116335604,OSD1_WAYPOINT_X,0,0
919,2023-01-20 10:49:56.338897,116335830,OSD1_WAYPOINT_Y,0,0
920,2023-01-20 10:49:56.339054,116336003,OSD1_XTRACK_EN,0,0
921,2023-01-20 10:49:56.339258,116336228,OSD1_XTRACK_X,0,0
922,2023-01-20 10:49:56.339425,116336411,OSD1_XTRACK_Y,0,0
923,2023-01-20 10:49:56.339601,116336604,OSD1_DIST_EN,0,0
924,2023-01-20 10:49:56.340930,116338066,OSD1_DIST_EN,0,0
925,2023-01-20 10:49:56.341133,116338289,OSD1_DIST_X,22,0
926,2023-01-20 10:49:56.341295,116338467,OSD1_DIST_Y,11,0
927,2023-01-20 10:49:56.341471,116338661,OSD1_STATS_EN,0,0
928,2023-01-20 10:49:56.341682,116338893,OSD1_STATS_X,0,0
929,2023-01-20 10:49:56.341844,116339071,OSD1_STATS_Y,0,0
930,2023-01-20 10:49:56.343207,116340569,OSD1_STATS_Y,0,0
931,2023-01-20 10:49:56.343371,116340750,OSD1_FLTIME_EN,0,0
932,2023-01-20 10:49:56.343583,116340982,OSD1_FLTIME_X,23,0
933,2023-01-20 10:49:56.343794,116341215,OSD1_FLTIME_Y,10,0
934,2023-01-20 10:49:56.343972,116341410,OSD1_CLIMBEFF_EN,0,0
935,2023-01-20 10:49:56.344163,116341620,OSD1_CLIMBEFF_X,0,0
939,2023-01-20 10:49:56.345950,116343585,OSD1_CLIMBEFF_X,0,0
940,2023-01-20 10:49:56.346167,116343823,OSD1_CLIMBEFF_Y,0,0
941,2023-01-20 10:49:56.346340,116344014,OSD1_EFF_EN,0,0
942,2023-01-20 10:49:56.346586,116344284,OSD1_EFF_X,22,0
943,2023-01-20 10:49:56.346768,116344484,OSD1_EFF_Y,10,0
947,2023-01-20 10:49:56.347942,116345775,OSD1_EFF_Y,10,0
948,2023-01-20 10:49:56.348149,116346003,OSD1_BTEMP_EN,0,0
949,2023-01-20 10:49:56.348378,116346254,OSD1_BTEMP_X,0,0
950,2023-01-20 10:49:56.348566,116346461,OSD1_BTEMP_Y,0,0
951,2023-01-20 10:49:56.348761,116346675,OSD1_ATEMP_EN,0,0
974,2023-01-20 10:49:56.350478,116348563,OSD1_ATEMP_EN,0,0
975,2023-01-20 10:49:56.350724,116348834,OSD1_ATEMP_X,0,0
976,2023-01-20 10:49:56.350907,116349035,OSD1_ATEMP_Y,0,0
977,2023-01-20 10:49:56.351145,116349296,OSD1_BAT2_VLT_EN,0,0
978,2023-01-20 10:49:56.351339,116349510,OSD1_BAT2_VLT_X,0,0
979,2023-01-20 10:49:56.352286,116350551,OSD1_BAT2_VLT_X,0,0
980,2023-01-20 10:49:56.352538,116350828,OSD1_BAT2_VLT_Y,0,0
981,2023-01-20 10:49:56.352728,116351037,OSD1_BAT2USED_EN,0,0
982,2023-01-20 10:49:56.352971,116351304,OSD1_BAT2USED_X,0,0
983,2023-01-20 10:49:56.353172,116351525,OSD1_BAT2USED_Y,0,0
984,2023-01-20 10:49:56.354578,116353071,OSD1_BAT2USED_Y,0,0
985,2023-01-20 10:49:56.354819,116353336,OSD1_ASPD2_EN,0,0
986,2023-01-20 10:49:56.355021,116353558,OSD1_ASPD2_X,0,0
987,2023-01-20 10:49:56.355282,116353845,OSD1_ASPD2_Y,0,0
988,2023-01-20 10:49:56.355479,116354062,OSD1_ASPD1_EN,0,0
989,2023-01-20 10:49:56.357190,116355943,OSD1_ASPD1_EN,0,0
990,2023-01-20 10:49:56.357436,116356213,OSD1_ASPD1_X,0,0
991,2023-01-20 10:49:56.357638,116356435,OSD1_ASPD1_Y,0,0
992,2023-01-20 10:49:56.357839,116356656,OSD1_CLK_EN,0,0
993,2023-01-20 10:49:56.358107,116356951,OSD1_CLK_X,0,0
994,2023-01-20 10:49:56.359118,116358063,OSD1_CLK_X,0,0
995,2023-01-20 10:49:56.359381,116358352,OSD1_CLK_Y,0,0
996,2023-01-20 10:49:56.359594,116358586,OSD1_SIDEBARS_EN,0,0
997,2023-01-20 10:49:56.359865,116358884,OSD1_SIDEBARS_X,4,0
998,2023-01-20 10:49:56.360078,116359118,OSD1_SIDEBARS_Y,5,0
999,2023-01-20 10:49:56.361462,116360639,OSD1_SIDEBARS_Y,5,0
1000,2023-01-20 10:49:56.361724,116360928,OSD1_CRSSHAIR_EN,0,0
1001,2023-01-20 10:49:56.361996,116361227,OSD1_CRSSHAIR_X,0,0
1002,2023-01-20 10:49:56.362215,116361467,OSD1_CRSSHAIR_Y,0,0
1003,2023-01-20 10:49:56.362434,116361708,OSD1_HOMEDIST_EN,1,0
1004,2023-01-20 10:49:56.363732,116363135,OSD1_HOMEDIST_EN,1,0
1005,2023-01-20 10:49:56.363991,116363420,OSD1_HOMEDIST_X,1,0
1006,2023-01-20 10:49:56.364221,116363673,OSD1_HOMEDIST_Y,1,0
1007,2023-01-20 10:49:56.364503,116363983,OSD1_HOMEDIR_EN,1,0
1008,2023-01-20 10:49:56.364789,116364297,OSD1_HOMEDIR_X,1,0
1009,2023-01-20 10:49:56.366007,116365636,OSD1_HOMEDIR_X,1,0
1010,2023-01-20 10:49:56.366278,116365935,OSD1_HOMEDIR_Y,1,0
1011,2023-01-20 10:49:56.366560,116366245,OSD1_POWER_EN,1,0
1012,2023-01-20 10:49:56.366785,116366492,OSD1_POWER_X,1,0
1013,2023-01-20 10:49:56.367020,116366750,OSD1_POWER_Y,1,0
1014,2023-01-20 10:49:56.368552,116368435,OSD1_POWER_Y,1,0
1015,2023-01-20 10:49:56.368788,116368694,OSD1_CELLVOLT_EN,1,0
1016,2023-01-20 10:49:56.369070,116369004,OSD1_CELLVOLT_X,1,0
1017,2023-01-20 10:49:56.369359,116369322,OSD1_CELLVOLT_Y,1,0
1018,2023-01-20 10:49:56.370521,116370599,OSD1_CELLVOLT_Y,1,0
1019,2023-01-20 10:49:56.370801,116370907,OSD1_BATTBAR_EN,1,0
1020,2023-01-20 10:49:56.371094,116371229,OSD1_BATTBAR_X,1,0
1021,2023-01-20 10:49:56.371326,116371485,OSD1_BATTBAR_Y,1,0
1022,2023-01-20 10:49:56.372779,116373082,OSD1_BATTBAR_Y,1,0
1023,2023-01-20 10:49:56.373077,116373410,OSD1_ARMING_EN,1,0
1024,2023-01-20 10:49:56.373320,116373677,OSD1_ARMING_X,1,0
1025,2023-01-20 10:49:56.373608,116373993,OSD1_ARMING_Y,1,0
1026,2023-01-20 10:49:56.375439,116376006,OSD1_ARMING_Y,1,0
1027,2023-01-20 10:49:56.375738,116376335,OSD1_CALLSIGN_EN,0,0
1028,2023-01-20 10:49:56.376001,116376624,OSD1_CALLSIGN_X,0,0
1029,2023-01-20 10:49:56.376321,116376976,OSD1_CALLSIGN_Y,0,0
1030,2023-01-20 10:49:56.377647,116378434,OSD1_CALLSIGN_Y,0,0
1031,2023-01-20 10:49:56.377917,116378731,OSD1_CURRENT2_EN,0,0
1032,2023-01-20 10:49:56.378236,116379082,OSD1_CURRENT2_X,0,0
1033,2023-01-20 10:49:56.378570,116379449,OSD1_CURRENT2_Y,0,0
1034,2023-01-20 10:49:56.380410,116381472,OSD1_CURRENT2_Y,0,0
1035,2023-01-20 10:49:56.380744,116381839,OSD1_VTX_PWR_EN,0,0
1036,2023-01-20 10:49:56.380996,116382116,OSD1_VTX_PWR_X,0,0
1037,2023-01-20 10:49:56.381305,116382456,OSD1_VTX_PWR_Y,0,0
1038,2023-01-20 10:49:56.382255,116383500,OSD1_VTX_PWR_Y,0,0
1039,2023-01-20 10:49:56.382568,116383844,OSD1_TER_HGT_EN,0,0
1040,2023-01-20 10:49:56.382819,116384120,OSD1_TER_HGT_X,23,0
1041,2023-01-20 10:49:56.383158,116384493,OSD1_TER_HGT_Y,7,0
1043,2023-01-20 10:49:56.384228,116385669,OSD1_TER_HGT_Y,7,0
1044,2023-01-20 10:49:56.384539,116386011,OSD1_AVGCELLV_EN,0,0
1045,2023-01-20 10:49:56.384846,116386349,OSD1_AVGCELLV_X,24,0
1046,2023-01-20 10:49:56.385125,116386656,OSD1_AVGCELLV_Y,3,0
1047,2023-01-20 10:49:56.386437,116388098,OSD1_AVGCELLV_Y,3,0
1048,2023-01-20 10:49:56.386764,116388458,OSD1_RESTVOLT_EN,0,0
1049,2023-01-20 10:49:56.387052,116388774,OSD1_RESTVOLT_X,24,0
1050,2023-01-20 10:49:56.387345,116389096,OSD1_RESTVOLT_Y,2,0
1051,2023-01-20 10:49:56.388725,116390614,OSD1_RESTVOLT_Y,2,0
1052,2023-01-20 10:49:56.389048,116390969,OSD1_FENCE_EN,0,0
1053,2023-01-20 10:49:56.389359,116391311,OSD1_FENCE_X,14,0
1054,2023-01-20 10:49:56.389638,116391618,OSD1_FENCE_Y,9,0
1055,2023-01-20 10:49:56.391497,116393661,OSD1_FENCE_Y,9,0
1056,2023-01-20 10:49:56.391826,116394023,OSD1_RNGF_EN,0,0
1057,2023-01-20 10:49:56.392145,116394374,OSD1_RNGF_X,0,0
1058,2023-01-20 10:49:56.392434,116394691,OSD1_RNGF_Y,0,0
1059,2023-01-20 10:49:56.393305,116395649,OSD1_RNGF_Y,0,0
1060,2023-01-20 10:49:56.393640,116396017,OSD2_ENABLE,0,0
1061,2023-01-20 10:49:56.394074,116396495,OSD3_ENABLE,0,0
1062,2023-01-20 10:49:56.395698,116398280,OSD3_ENABLE,0,0
1063,2023-01-20 10:49:56.396410,116399063,OSD4_ENABLE,0,0
1064,2023-01-20 10:49:56.398115,116400938,OSD4_ENABLE,0,0
1065,2023-01-20 10:49:56.399099,116402019,OSD_SW_METHOD,0,0
1068,2023-01-20 10:49:56.400813,116403816,OSD_SW_METHOD,0,0
1069,2023-01-20 10:49:56.402063,116405054,OSD_OPTIONS,1,1
1070,2023-01-20 10:49:56.404625,116407594,OSD_OPTIONS,1,1
1071,2023-01-20 10:49:56.405937,116408894,OSD_FONT,0,0
1072,2023-01-20 10:49:56.407304,116410248,OSD_FONT,0,0
1073,2023-01-20 10:49:56.408527,116411461,OSD_V_OFFSET,16,16
1074,2023-01-20 10:49:56.409917,116412838,OSD_V_OFFSET,16,16
1075,2023-01-20 10:49:56.411144,116414054,OSD_H_OFFSET,32,32
1076,2023-01-20 10:49:56.412555,116415452,OSD_H_OFFSET,32,32
1077,2023-01-20 10:49:56.413789,116416675,OSD_W_RSSI,30,30
1078,2023-01-20 10:49:56.415532,116418403,OSD_W_RSSI,30,30
1079,2023-01-20 10:49:56.416773,116419633,OSD_W_NSAT,9,9
1080,2023-01-20 10:49:56.418431,116421276,OSD_W_NSAT,9,9
1081,2023-01-20 10:49:56.419662,116422496,OSD_W_BATVOLT,10,10
1082,2023-01-20 10:49:56.421498,116424315,OSD_W_BATVOLT,10,10
1083,2023-01-20 10:49:56.422724,116425531,OSD_UNITS,0,0
1084,2023-01-20 10:49:56.424153,116426947,OSD_UNITS,0,0
1085,2023-01-20 10:49:56.425459,116428241,OSD_MSG_TIME,10,10
1087,2023-01-20 10:49:56.427218,116429984,OSD_MSG_TIME,10,10
1088,2023-01-20 10:49:56.428520,116431275,OSD_ARM_SCR,0,0
1089,2023-01-20 10:49:56.429890,116432632,OSD_ARM_SCR,0,0
1090,2023-01-20 10:49:56.431184,116433915,OSD_DSARM_SCR,0,0
1091,2023-01-20 10:49:56.432642,116435360,OSD_DSARM_SCR,0,0
1092,2023-01-20 10:49:56.433900,116436606,OSD_FS_SCR,0,0
1093,2023-01-20 10:49:56.435344,116438037,OSD_FS_SCR,0,0
1094,2023-01-20 10:49:56.436688,116439369,OSD_BTN_DELAY,300,300
1095,2023-01-20 10:49:56.438414,116441080,OSD_BTN_DELAY,300,300
1096,2023-01-20 10:49:56.439749,116442403,OSD_W_TERR,-1,-1
1097,2023-01-20 10:49:56.441176,116443817,OSD_W_TERR,-1,-1
1098,2023-01-20 10:49:56.442478,116445108,OSD_W_AVGCELLV,3.6,3.6
1099,2023-01-20 10:49:56.443873,116446490,OSD_W_AVGCELLV,3.6,3.6
1100,2023-01-20 10:49:56.445124,116447730,OSD_CELL_COUNT,-1,-1
1104,2023-01-20 10:49:56.446725,116449317,OSD_CELL_COUNT,-1,-1
1105,2023-01-20 10:49:56.447989,116450569,OSD_W_RESTVOLT,10,10
1108,2023-01-20 10:49:56.449928,116452491,OSD_W_RESTVOLT,10,10
1109,2023-01-20 10:49:56.451172,116453724,OSD5_ENABLE,0,0
1132,2023-01-20 10:49:56.452998,116455533,OSD5_ENABLE,0,0
1133,2023-01-20 10:49:56.454316,116456840,OSD6_ENABLE,0,0
1134,2023-01-20 10:49:56.455712,116458223,OSD6_ENABLE,0,0
1135,2023-01-20 10:49:56.457091,116459590,OSD1_LINK_Q_EN,0,0
1136,2023-01-20 10:49:56.458820,116461303,OSD1_LINK_Q_EN,0,0
1137,2023-01-20 10:49:56.460244,116462715,OSD1_LINK_Q_X,1,0
1138,2023-01-20 10:49:56.462034,116464489,OSD1_LINK_Q_X,1,0
1139,2023-01-20 10:49:56.463523,116465964,OSD1_LINK_Q_Y,1,0
1140,2023-01-20 10:49:56.465007,116467435,OSD1_LINK_Q_Y,1,0
1141,2023-01-20 10:49:56.466487,116468902,OSD1_TXT_RES,0,0
1142,2023-01-20 10:49:56.467959,116470360,OSD1_TXT_RES,0,0
1143,2023-01-20 10:49:56.469445,116471833,OSD1_FONT,0,0
1144,2023-01-20 10:49:56.470953,116473327,OSD1_FONT,0,0
1145,2023-01-20 10:49:56.472389,116474751,OSD2_LINK_Q_EN,0,0
1147,2023-01-20 10:49:56.474243,116476588,OSD2_LINK_Q_EN,0,0
1148,2023-01-20 10:49:56.475728,116478060,OSD2_LINK_Q_X,1,0
1149,2023-01-20 10:49:56.477176,116479495,OSD2_LINK_Q_X,1,0
1150,2023-01-20 10:49:56.478681,116480986,OSD2_LINK_Q_Y,1,0
1151,2023-01-20 10:49:56.480142,116482434,OSD2_LINK_Q_Y,1,0
1152,2023-01-20 10:49:56.481641,116483920,OSD2_TXT_RES,0,0
1153,2023-01-20 10:49:56.483167,116485432,OSD2_TXT_RES,0,0
1154,2023-01-20 10:49:56.484648,116486900,OSD2_FONT,0,0
1155,2023-01-20 10:49:56.486849,116489081,OSD2_FONT,0,0
1156,2023-01-20 10:49:56.488352,116490571,OSD3_LINK_Q_EN,0,0
1157,2023-01-20 10:49:56.489818,116492024,OSD3_LINK_Q_EN,0,0
1158,2023-01-20 10:49:56.491303,116493495,OSD3_LINK_Q_X,1,0
1159,2023-01-20 10:49:56.492767,116494946,OSD3_LINK_Q_X,1,0
1160,2023-01-20 10:49:56.494269,116496435,OSD3_LINK_Q_Y,1,0
1161,2023-01-20 10:49:56.495762,116497914,OSD3_LINK_Q_Y,1,0
1162,2023-01-20 10:49:56.497270,116499409,OSD3_TXT_RES,0,0
1163,2023-01-20 10:49:56.499144,116501266,OSD3_TXT_RES,0,0
1164,2023-01-20 10:49:56.500588,116502697,OSD3_FONT,0,0
1165,2023-01-20 10:49:56.502019,116504115,OSD3_FONT,0,0
1166,2023-01-20 10:49:56.503554,116505637,OSD4_LINK_Q_EN,0,0
1167,2023-01-20 10:49:56.505060,116507129,OSD4_LINK_Q_EN,0,0
1168,2023-01-20 10:49:56.506580,116508636,OSD4_LINK_Q_X,1,0
1169,2023-01-20 10:49:56.508034,116510076,OSD4_LINK_Q_X,1,0
1170,2023-01-20 10:49:56.509552,116511581,OSD4_LINK_Q_Y,1,0
1171,2023-01-20 10:49:56.511400,116513412,OSD4_LINK_Q_Y,1,0
1172,2023-01-20 10:49:56.512902,116514901,OSD4_TXT_RES,0,0
1173,2023-01-20 10:49:56.514353,116516339,OSD4_TXT_RES,0,0
1174,2023-01-20 10:49:56.515875,116517847,OSD4_FONT,0,0
1175,2023-01-20 10:49:56.517368,116519327,OSD4_FONT,0,0
1176,2023-01-20 10:49:56.518169,116520121,WP_NAVALT_MIN,0,0
1177,2023-01-20 10:49:56.519459,116521399,WP_NAVALT_MIN,0,0
1178,2023-01-20 10:49:56.519495,116521435,BTN_ENABLE,0,0
1179,2023-01-20 10:49:56.519532,116521472,THROW_NEXTMODE,18,18
1180,2023-01-20 10:49:56.519590,116521529,THROW_TYPE,0,0
1181,2023-01-20 10:49:56.519635,116521574,GND_EFFECT_COMP,1,1
1182,2023-01-20 10:49:56.519702,116521640,DEV_OPTIONS,0,0
1183,2023-01-20 10:49:56.519752,116521690,BCN_TYPE,0,0
1184,2023-01-20 10:49:56.519803,116521740,ACRO_THR_MID,0,0
1185,2023-01-20 10:49:56.519915,116521851,SYSID_ENFORCE,0,0
1186,2023-01-20 10:49:56.519972,116521908,STAT_BOOTCNT,82,0
1187,2023-01-20 10:49:56.520031,116521966,STAT_FLTTIME,3240,0
1188,2023-01-20 10:49:56.520089,116522024,STAT_RUNTIME,34467,0
1189,2023-01-20 10:49:56.520153,116522087,STAT_RESET,2.158871E+08,1
1190,2023-01-20 10:49:56.520212,116522146,FRAME_CLASS,1,0
1191,2023-01-20 10:49:56.520329,116522262,SERVO1_MIN,1100,1100
1192,2023-01-20 10:49:56.520397,116522329,SERVO1_MAX,1900,1900
1193,2023-01-20 10:49:56.520469,116522400,SERVO1_TRIM,1500,1500
1195,2023-01-20 10:49:56.522563,116524475,SERVO1_TRIM,1500,1500
1196,2023-01-20 10:49:56.522639,116524551,SERVO1_REVERSED,0,0
1197,2023-01-20 10:49:56.522736,116524647,SERVO1_FUNCTION,36,0
1198,2023-01-20 10:49:56.522809,116524719,SERVO2_MIN,1100,1100
1199,2023-01-20 10:49:56.522941,116524850,SERVO2_MAX,1900,1900
1200,2023-01-20 10:49:56.523019,116524927,SERVO2_TRIM,1500,1500
1201,2023-01-20 10:49:56.523097,116525005,SERVO2_REVERSED,0,0
1202,2023-01-20 10:49:56.523173,116525080,SERVO2_FUNCTION,33,0
1203,2023-01-20 10:49:56.523309,116525215,SERVO3_MIN,1100,1100
1204,2023-01-20 10:49:56.523388,116525293,SERVO3_MAX,1900,1900
1205,2023-01-20 10:49:56.523471,116525375,SERVO3_TRIM,1500,1500
1206,2023-01-20 10:49:56.523556,116525459,SERVO3_REVERSED,0,0
1207,2023-01-20 10:49:56.524333,116526230,SERVO3_REVERSED,0,0
1208,2023-01-20 10:49:56.524419,116526315,SERVO3_FUNCTION,34,0
1209,2023-01-20 10:49:56.524507,116526402,SERVO4_MIN,1100,1100
1210,2023-01-20 10:49:56.524592,116526486,SERVO4_MAX,1900,1900
1211,2023-01-20 10:49:56.524696,116526589,SERVO4_TRIM,1500,1500
1212,2023-01-20 10:49:56.524797,116526690,SERVO4_REVERSED,0,0
1213,2023-01-20 10:49:56.524949,116526840,SERVO4_FUNCTION,35,0
1214,2023-01-20 10:49:56.525047,116526937,SERVO5_MIN,1000,1100
1215,2023-01-20 10:49:56.525138,116527027,SERVO5_MAX,2000,1900
1216,2023-01-20 10:49:56.525232,116527121,SERVO5_TRIM,1500,1500
1217,2023-01-20 10:49:56.525382,116527269,SERVO5_REVERSED,0,0
1218,2023-01-20 10:49:56.526792,116528667,SERVO5_REVERSED,0,0
1219,2023-01-20 10:49:56.526968,116528841,SERVO5_FUNCTION,10,0
1220,2023-01-20 10:49:56.527068,116528940,SERVO6_MIN,1100,1100
1221,2023-01-20 10:49:56.527171,116529042,SERVO6_MAX,1900,1900
1222,2023-01-20 10:49:56.527279,116529149,SERVO6_TRIM,1500,1500
1223,2023-01-20 10:49:56.527434,116529303,SERVO6_REVERSED,0,0
1224,2023-01-20 10:49:56.527541,116529409,SERVO6_FUNCTION,0,0
1225,2023-01-20 10:49:56.527651,116529518,SERVO7_MIN,1100,1100
1226,2023-01-20 10:49:56.527766,116529632,SERVO7_MAX,1900,1900
1227,2023-01-20 10:49:56.529393,116531244,SERVO7_MAX,1900,1900
1228,2023-01-20 10:49:56.529502,116531352,SERVO7_TRIM,1500,1500
1229,2023-01-20 10:49:56.529616,116531465,SERVO7_REVERSED,0,0
1230,2023-01-20 10:49:56.529735,116531583,SERVO7_FUNCTION,0,0
1231,2023-01-20 10:49:56.529853,116531700,SERVO8_MIN,1100,1100
1232,2023-01-20 10:49:56.530041,116531887,SERVO8_MAX,1900,1900
1233,2023-01-20 10:49:56.530161,116532005,SERVO8_TRIM,1500,1500
1234,2023-01-20 10:49:56.530279,116532122,SERVO8_REVERSED,0,0
1235,2023-01-20 10:49:56.530452,116532294,SERVO8_FUNCTION,0,0
1236,2023-01-20 10:49:56.531846,116533675,SERVO8_FUNCTION,0,0
1237,2023-01-20 10:49:56.532038,116533866,SERVO9_MIN,1100,1100
1238,2023-01-20 10:49:56.532163,116533990,SERVO9_MAX,1900,1900
