LineNo,UTC_Approx,TimeUS,LR,NLon,NL,MaxT,Mem,Load,ErrL,IntE,ErrC,SPIC,I2CC,I2CI,Ex
4849,2023-01-20 10:50:04.560327,124562530,400,16,4000,25002,21880,371,0,0,0,379160,32605,142345,0
8092,2023-01-20 10:50:14.534751,134562849,400,0,4000,2853,21880,358,0,0,0,413391,35175,153695,0
11333,2023-01-20 10:50:24.515040,144562828,400,0,4000,2664,21880,346,0,0,0,447439,37745,165045,0
14579,2023-01-20 10:50:34.495066,154562847,400,0,4000,2643,21880,355,0,0,0,481481,40313,176385,0
17836,2023-01-20 10:50:44.475030,164562778,400,0,4000,2678,21880,351,0,0,0,515457,42883,187735,0
21144,2023-01-20 10:50:54.455114,174562868,400,0,4000,2699,21880,352,0,0,0,549692,45453,199085,0
24410,2023-01-20 10:51:04.434699,184562773,400,0,4000,2776,21880,360,0,0,0,583852,48023,210435,0
27727,2023-01-20 10:51:14.415072,194562826,400,0,4000,2654,21880,361,0,0,0,617891,50593,221785,0
30918,2023-01-20 10:51:24.395162,204562940,400,0,4000,2626,21880,345,0,0,0,651988,53163,233135,0
34146,2023-01-20 10:51:34.375067,214562823,400,0,4000,2637,21880,345,0,0,0,686037,55733,244485,0
37344,2023-01-20 10:51:44.355014,224562835,400,0,4000,2792,21880,344,0,0,0,720005,58303,255835,0
40587,2023-01-20 10:51:54.327622,234562836,400,0,4000,2792,21880,352,0,0,0,754212,60862,267136,0
43897,2023-01-20 10:52:04.304726,244562834,400,0,4000,2679,21880,351,0,0,0,788177,63429,278471,0
47170,2023-01-20 10:52:14.283607,254562873,400,0,4000,2640,21880,354,0,0,0,822279,66000,289826,0
50489,2023-01-20 10:52:24.255411,264563100,400,0,4000,2653,21880,360,0,0,0,856432,68570,301176,0
53809,2023-01-20 10:52:34.234842,274562853,400,0,4000,2774,21880,374,0,0,0,890440,71139,312521,0
57082,2023-01-20 10:52:44.215140,284562894,400,0,4000,2643,21880,376,0,0,0,924593,73710,323876,0
60399,2023-01-20 10:52:54.194989,294562849,400,0,4000,2708,21880,361,0,0,0,958638,76280,335226,0
63671,2023-01-20 10:53:04.175084,304562846,400,0,4000,2637,21880,358,0,0,0,992650,78849,346571,0
66992,2023-01-20 10:53:14.155084,314562861,400,0,4000,2678,21880,356,0,0,0,1026742,81421,357926,0
70312,2023-01-20 10:53:24.134742,324562848,400,0,4000,2787,21880,358,0,0,0,1060907,83991,369276,0
73582,2023-01-20 10:53:34.115031,334562830,400,0,4000,2664,21880,363,0,0,0,1094981,86560,380621,0
76841,2023-01-20 10:53:44.094968,344562835,400,0,4000,2655,21880,361,0,0,0,1129111,89132,391981,0
80150,2023-01-20 10:53:54.075009,354562836,400,0,4000,2669,21880,358,0,0,0,1163128,91703,403336,0
83421,2023-01-20 10:54:04.054964,364562834,400,0,4000,2658,21880,356,0,0,0,1197243,94271,414679,0
86742,2023-01-20 10:54:14.034735,374562836,400,0,4000,2747,21880,366,0,0,0,1231365,96842,426034,0
90013,2023-01-20 10:54:24.014894,384562748,400,0,4000,2632,21880,366,0,0,0,1265402,99412,437384,0
93331,2023-01-20 10:54:33.995017,394562861,400,0,4000,2602,21880,350,0,0,0,1299508,101981,448729,0
96653,2023-01-20 10:54:43.974990,404562833,400,0,4000,2655,21880,348,0,0,0,1333633,104552,460084,0
99924,2023-01-20 10:54:53.954968,414562825,400,0,4000,2636,21880,349,0,0,0,1367637,107122,471434,0
103242,2023-01-20 10:55:03.934704,424562828,400,0,4000,2738,21880,350,0,0,0,1401886,109691,482779,0
106515,2023-01-20 10:55:13.915029,434562824,400,0,4000,2620,21880,352,0,0,0,1435943,112262,494134,0
109835,2023-01-20 10:55:23.894996,444562839,400,0,4000,2616,21880,358,0,0,0,1470012,114832,505484,0
113095,2023-01-20 10:55:33.868295,454562830,400,0,4000,2643,21880,359,0,0,0,1503958,117401,516829,0
116404,2023-01-20 10:55:43.835522,464563488,400,0,4000,2824,21880,383,0,0,0,1538146,119970,528174,0
119671,2023-01-20 10:55:53.827738,474564471,400,0,4000,2865,21880,384,0,0,0,1573187,122540,539524,0
122988,2023-01-20 10:56:03.808709,484565354,400,0,4000,2695,21880,370,0,0,0,1608503,125109,550869,0
126259,2023-01-20 10:56:13.787574,494564255,400,0,4000,2664,21880,366,0,0,0,1643994,127680,562224,0
129580,2023-01-20 10:56:23.767473,504564145,400,0,4000,2682,21880,370,0,0,0,1679398,130250,573574,0
132898,2023-01-20 10:56:33.747162,514564853,400,0,4000,2826,21880,352,0,0,0,1714503,132808,584872,0
136170,2023-01-20 10:56:43.727574,524564892,400,0,4000,2658,21880,351,0,0,0,1748639,135379,596227,0
139492,2023-01-20 10:56:53.707497,534564839,400,0,4000,2668,21880,352,0,0,0,1782778,137949,607577,0
142761,2023-01-20 10:57:03.687513,544564838,400,0,4000,2638,21880,353,0,0,0,1816795,140518,618922,0
146081,2023-01-20 10:57:13.667592,554564894,400,0,4000,2642,21880,358,0,0,0,1850971,143089,630277,0
149349,2023-01-20 10:57:23.647130,564564840,400,0,4000,2792,21880,364,0,0,0,1884974,145659,641627,0
152654,2023-01-20 10:57:33.627536,574564844,400,0,4000,2654,21880,363,0,0,0,1919263,148221,652941,0
155916,2023-01-20 10:57:43.587811,584564884,400,0,4000,2617,21880,350,0,0,0,1953286,150792,664296,0
159234,2023-01-20 10:57:53.567948,594565032,400,0,4000,2595,21880,346,0,0,0,1987427,153361,675641,0
162504,2023-01-20 10:58:03.563914,604564859,400,0,4000,2614,21880,357,0,0,0,2021641,155930,686986,0
165824,2023-01-20 10:58:13.527785,614564896,400,0,4000,2733,21880,361,0,0,0,2055769,158500,698336,0
169146,2023-01-20 10:58:23.507611,624564852,400,0,4000,2611,21880,361,0,0,0,2089992,161071,709691,0
172416,2023-01-20 10:58:33.487582,634564857,400,0,4000,2621,21880,360,0,0,0,2124206,163640,721036,0
175736,2023-01-20 10:58:43.467616,644564898,400,0,4000,2605,21880,361,0,0,0,2158279,166210,732386,0
179010,2023-01-20 10:58:53.447128,654564854,400,0,4000,2593,21880,367,0,0,0,2192541,168781,743741,0
182329,2023-01-20 10:59:03.427619,664564849,400,0,4000,2799,21880,370,0,0,0,2226746,171348,755076,0
185649,2023-01-20 10:59:13.407568,674564903,400,0,4000,2631,21880,364,0,0,0,2260884,173918,766426,0
188905,2023-01-20 10:59:23.387546,684564854,400,0,4000,2627,21880,359,0,0,0,2295267,176489,777781,0
192166,2023-01-20 10:59:33.367558,694564859,400,0,4000,2643,21880,355,0,0,0,2329364,179058,789126,0
195481,2023-01-20 10:59:43.347116,704564840,400,0,4000,2767,21880,354,0,0,0,2363571,181628,800476,0
198755,2023-01-20 10:59:53.327497,714565486,400,0,4000,2820,21880,364,0,0,0,2397851,184199,811831,0
202075,2023-01-20 11:00:03.307185,724565493,400,0,4000,2613,21880,365,0,0,0,2432011,186768,823171,0
205345,2023-01-20 11:00:13.287516,734565497,400,0,4000,2680,21880,365,0,0,0,2466303,189337,834516,0
208667,2023-01-20 11:00:23.267534,744565489,400,0,4000,2624,21880,370,0,0,0,2500534,191908,845871,0
211987,2023-01-20 11:00:33.247549,754565480,400,0,4000,2748,21880,369,0,0,0,2534639,194477,857216,0
215258,2023-01-20 11:00:43.227526,764565852,400,0,4000,2867,21880,367,0,0,0,2568972,197048,868574,0
218580,2023-01-20 11:00:53.207484,774565851,400,0,4000,2625,21880,357,0,0,0,2603319,199617,879921,0
221849,2023-01-20 11:01:03.187503,784565851,400,0,4000,2595,21880,356,0,0,0,2637635,202177,891224,0
225158,2023-01-20 11:01:13.167459,794565825,400,0,4000,2628,21880,350,0,0,0,2671946,204746,902574,0
228418,2023-01-20 11:01:23.147114,804565848,400,0,4000,2768,21880,350,0,0,0,2706197,207317,913929,0
231733,2023-01-20 11:01:33.127487,814565842,400,0,4000,2577,21880,349,0,0,0,2740493,209887,925279,0
235003,2023-01-20 11:01:43.107465,824565848,400,0,4000,2595,21880,352,0,0,0,2774594,212456,936624,0
238325,2023-01-20 11:01:53.087503,834565847,400,0,4000,2603,21880,352,0,0,0,2808783,215027,947979,0
241595,2023-01-20 11:02:03.067501,844565843,400,0,4000,2599,21880,355,0,0,0,2842902,217596,959319,0
244915,2023-01-20 11:02:13.047097,854565840,400,0,4000,2712,21880,363,0,0,0,2877043,220164,970664,0
248235,2023-01-20 11:02:23.007706,864565859,400,0,4000,2584,21880,354,0,0,0,2911335,222735,982019,0
251505,2023-01-20 11:02:32.987699,874565822,400,0,4000,2598,21880,351,0,0,0,2945583,225305,993369,0
254825,2023-01-20 11:02:42.967552,884565845,400,0,4000,2589,21880,349,0,0,0,2979689,227874,1004714,0
258095,2023-01-20 11:02:52.947232,894565842,400,0,4000,2578,21880,346,0,0,0,3013928,230443,1016061,0
261409,2023-01-20 11:03:02.927530,904565856,400,0,4000,2764,21880,350,0,0,0,3048236,233013,1027411,0
264666,2023-01-20 11:03:12.907585,914565852,400,0,4000,2620,21880,355,0,0,0,3082410,235582,1038756,0
267912,2023-01-20 11:03:22.887538,924565880,400,0,4000,2665,21880,348,0,0,0,3116516,238153,1050111,0
271170,2023-01-20 11:03:32.867571,934565869,400,0,4000,2596,21880,360,0,0,0,3150773,240721,1061451,0
274484,2023-01-20 11:03:42.847136,944565842,400,0,4000,2616,21880,370,0,0,0,3184901,243290,1072796,0
277803,2023-01-20 11:03:52.827583,954565890,400,0,4000,2743,21880,372,0,0,0,3219241,245861,1084151,0
281075,2023-01-20 11:04:02.807488,964565844,400,0,4000,2642,21880,362,0,0,0,3253521,248431,1095501,0
284377,2023-01-20 11:04:12.787490,974565842,400,0,4000,2615,21880,351,0,0,0,3287757,251000,1106846,0
287617,2023-01-20 11:04:22.767531,984565855,400,0,4000,2592,21880,358,0,0,0,3321803,253571,1118201,0
290862,2023-01-20 11:04:32.747135,994565847,400,0,4000,2663,21880,357,0,0,0,3355965,256141,1129551,0
294106,2023-01-20 11:04:42.727574,1004565887,400,0,4000,2796,21880,359,0,0,0,3390079,258706,1140878,0
297346,2023-01-20 11:04:52.707474,1014565848,400,0,4000,2637,21880,358,0,0,0,3424312,261264,1152176,0
300588,2023-01-20 11:05:02.687455,1024565736,400,0,4000,2629,21880,336,0,0,0,3458355,263834,1163526,0
303354,2023-01-20 11:05:12.667601,1034565665,400,0,4000,2578,21880,264,0,0,0,3491816,266397,1174845,0
