LineNo,UTC_Approx,TimeUS,Lat,Lng,Alt,RelHomeAlt,RelOriginAlt
374,2023-01-20 10:49:56.259223,116248234,39.8043837,32.3788029,734.25,0.009082854,0.6490828
964,2023-01-20 10:49:56.350214,116348273,39.8043837,32.3788028,734.26,0.01372361,0.6537236
1122,2023-01-20 10:49:56.452160,116454703,39.8043837,32.3788027,734.27,0.01996362,0.6599636
1341,2023-01-20 10:49:56.564854,116566388,39.8043837,32.3788026,734.27,0.02648377,0.6664838
1561,2023-01-20 10:49:56.665662,116667128,39.8043837,32.3788025,734.28,0.03468299,0.674683
1881,2023-01-20 10:49:56.765260,116767100,39.8043837,32.3788024,734.29,0.04287595,0.6828759
1926,2023-01-20 10:49:56.865153,116867124,39.8043837,32.3788023,734.3,0.05208337,0.6920834
1974,2023-01-20 10:49:56.965124,116967096,39.8043837,32.3788022,734.31,0.06052434,0.7005243
2024,2023-01-20 10:49:57.065152,117067111,39.8043837,32.378802,734.32,0.07062674,0.7106267
2070,2023-01-20 10:49:57.165200,117167138,39.8043838,32.378802,734.33,0.08021075,0.7202107
2120,2023-01-20 10:49:57.272347,117267094,39.8043838,32.3788019,734.33,0.08921432,0.7292143
2179,2023-01-20 10:49:57.383459,117367172,39.8043839,32.3788019,734.34,0.09689456,0.7368945
2235,2023-01-20 10:49:57.477345,117467146,39.804384,32.3788019,734.35,0.1074092,0.7474092
2294,2023-01-20 10:49:57.568218,117567101,39.8043842,32.3788018,734.36,0.1158642,0.7558642
2350,2023-01-20 10:49:57.665055,117667129,39.8043842,32.3788018,734.37,0.1259791,0.7659791
2408,2023-01-20 10:49:57.765128,117767224,39.8043842,32.3788017,734.38,0.1353753,0.7753752
2451,2023-01-20 10:49:57.864995,117867118,39.8043843,32.3788017,734.39,0.1462034,0.7862034
2496,2023-01-20 10:49:57.964943,117967097,39.8043844,32.3788016,734.4,0.15611,0.79611
2535,2023-01-20 10:49:58.065028,118067138,39.8043844,32.3788015,734.41,0.1651342,0.8051342
2577,2023-01-20 10:49:58.165110,118167138,39.8043845,32.3788015,734.42,0.172546,0.812546
2617,2023-01-20 10:49:58.265082,118267101,39.8043845,32.3788014,734.43,0.1821784,0.8221784
2657,2023-01-20 10:49:58.365070,118367119,39.8043846,32.3788014,734.44,0.1914248,0.8314248
2696,2023-01-20 10:49:58.465146,118467207,39.8043846,32.3788013,734.45,0.2015546,0.8415546
2737,2023-01-20 10:49:58.565037,118567100,39.8043847,32.3788012,734.46,0.2105016,0.8505016
2779,2023-01-20 10:49:58.665041,118667122,39.8043847,32.3788011,734.46,0.2196936,0.8596936
2818,2023-01-20 10:49:58.765110,118767218,39.8043848,32.3788011,734.47,0.2277279,0.8677279
2862,2023-01-20 10:49:58.865010,118867126,39.8043848,32.3788011,734.48,0.2350277,0.8750277
2901,2023-01-20 10:49:58.964983,118967098,39.8043848,32.378801,734.49,0.2409326,0.8809326
2940,2023-01-20 10:49:59.065050,119067147,39.8043849,32.3788011,734.49,0.2489166,0.8889166
2981,2023-01-20 10:49:59.165061,119167131,39.8043849,32.3788011,734.5,0.2563208,0.8963208
3020,2023-01-20 10:49:59.265033,119267095,39.804385,32.378801,734.51,0.2641129,0.9041129
3059,2023-01-20 10:49:59.365056,119367119,39.8043851,32.3788009,734.52,0.2705298,0.9105298
3099,2023-01-20 10:49:59.465075,119467142,39.8043852,32.3788008,734.52,0.277181,0.917181
3140,2023-01-20 10:49:59.565031,119567102,39.8043852,32.3788008,734.53,0.2823963,0.9223962
3181,2023-01-20 10:49:59.665050,119667134,39.8043853,32.3788007,734.53,0.288717,0.928717
3220,2023-01-20 10:49:59.765115,119767218,39.8043854,32.3788007,734.54,0.2939741,0.9339741
3259,2023-01-20 10:49:59.864982,119867094,39.8043854,32.3788007,734.54,0.296923,0.936923
3298,2023-01-20 10:49:59.964971,119967088,39.8043854,32.3788008,734.54,0.2980639,0.9380639
3337,2023-01-20 10:50:00.065077,120067178,39.8043855,32.3788008,734.54,0.2974986,0.9374986
3379,2023-01-20 10:50:00.165062,120167136,39.8043855,32.3788008,734.54,0.2956147,0.9356146
3418,2023-01-20 10:50:00.265026,120267096,39.8043856,32.3788009,734.54,0.2935658,0.9335658
3457,2023-01-20 10:50:00.365042,120367120,39.8043856,32.378801,734.54,0.2912696,0.9312696
3497,2023-01-20 10:50:00.465031,120467107,39.8043856,32.3788011,734.53,0.2896562,0.9296562
3537,2023-01-20 10:50:00.565029,120567099,39.8043855,32.3788012,734.53,0.2880178,0.9280178
3580,2023-01-20 10:50:00.665051,120667126,39.8043855,32.3788012,734.53,0.2878606,0.9278606
3619,2023-01-20 10:50:00.765075,120767162,39.8043855,32.3788012,734.53,0.2876835,0.9276835
3660,2023-01-20 10:50:00.864997,120867100,39.8043854,32.3788013,734.53,0.2864167,0.9264167
3697,2023-01-20 10:50:00.964978,120967100,39.8043854,32.3788014,734.53,0.2841973,0.9241973
3729,2023-01-20 10:50:01.065096,121067220,39.8043853,32.3788015,734.53,0.2836029,0.9236029
3762,2023-01-20 10:50:01.165114,121167231,39.8043853,32.3788015,734.53,0.282752,0.922752
3794,2023-01-20 10:50:01.265003,121267153,39.8043853,32.3788015,734.53,0.2822556,0.9222556
3825,2023-01-20 10:50:01.365066,121367270,39.8043853,32.3788016,734.53,0.281078,0.921078
3857,2023-01-20 10:50:01.464962,121467152,39.8043853,32.3788016,734.53,0.2817792,0.9217792
3890,2023-01-20 10:50:01.565015,121567153,39.8043855,32.3788017,734.53,0.2822731,0.9222731
3925,2023-01-20 10:50:01.665158,121667277,39.8043855,32.3788017,734.53,0.2864023,0.9264023
3956,2023-01-20 10:50:01.765398,121767515,39.8043855,32.3788017,734.54,0.2902796,0.9302796
3989,2023-01-20 10:50:01.865350,121867515,39.8043854,32.3788017,734.54,0.2952275,0.9352275
4021,2023-01-20 10:50:01.965308,121967549,39.8043854,32.3788018,734.55,0.3034948,0.9434947
4053,2023-01-20 10:50:02.065291,122067515,39.8043854,32.3788019,734.57,0.3243877,0.9643877
4086,2023-01-20 10:50:02.165378,122167536,39.8043854,32.378802,734.61,0.362754,1.002754
4118,2023-01-20 10:50:02.265434,122267570,39.8043854,32.3788023,734.65,0.4067645,1.046764
4149,2023-01-20 10:50:02.365362,122367500,39.8043854,32.3788025,734.69,0.447666,1.087666
4181,2023-01-20 10:50:02.465104,122467503,39.8043854,32.3788026,734.73,0.4896139,1.129614
4214,2023-01-20 10:50:02.564481,122567276,39.8043853,32.3788028,734.77,0.5260129,1.166013
4250,2023-01-20 10:50:02.664329,122667242,39.8043853,32.3788028,734.81,0.5608195,1.200819
4280,2023-01-20 10:50:02.764358,122767234,39.8043853,32.3788028,734.83,0.5893338,1.229334
4315,2023-01-20 10:50:02.864370,122867249,39.8043853,32.3788028,734.87,0.6298819,1.269882
4345,2023-01-20 10:50:02.964313,122967217,39.8043853,32.3788029,734.91,0.6681144,1.308114
4378,2023-01-20 10:50:03.064320,123067234,39.804385,32.3788031,734.96,0.7165314,1.356531
4410,2023-01-20 10:50:03.164385,123167301,39.8043847,32.3788033,735.01,0.7632512,1.403251
4443,2023-01-20 10:50:03.264296,123267209,39.8043845,32.3788037,735.07,0.8257594,1.465759
4473,2023-01-20 10:50:03.364323,123367231,39.8043843,32.378804,735.12,0.8766309,1.516631
4506,2023-01-20 10:50:03.464325,123467222,39.804384,32.3788043,735.16,0.9163681,1.556368
4538,2023-01-20 10:50:03.564320,123567204,39.8043838,32.3788046,735.19,0.942651,1.582651
4574,2023-01-20 10:50:03.664367,123667248,39.8043836,32.3788047,735.21,0.9636813,1.603681
4604,2023-01-20 10:50:03.764355,123767240,39.8043835,32.3788046,735.23,0.9846287,1.624629
4638,2023-01-20 10:50:03.864551,123867237,39.8043835,32.3788044,735.26,1.017107,1.657107
4670,2023-01-20 10:50:03.964886,123967260,39.8043835,32.3788042,735.3,1.058404,1.698404
4703,2023-01-20 10:50:04.064995,124067216,39.8043835,32.3788038,735.36,1.113739,1.753739
4735,2023-01-20 10:50:04.165102,124167255,39.8043837,32.3788035,735.42,1.175533,1.815533
4768,2023-01-20 10:50:04.265126,124267259,39.804384,32.3788032,735.49,1.240106,1.880106
4798,2023-01-20 10:50:04.365094,124367231,39.8043843,32.378803,735.55,1.303599,1.943599
4831,2023-01-20 10:50:04.464994,124467159,39.8043845,32.3788029,735.61,1.362394,2.002394
4864,2023-01-20 10:50:04.565017,124567222,39.8043847,32.3788029,735.66,1.415571,2.055571
4900,2023-01-20 10:50:04.665045,124667237,39.804385,32.3788028,735.71,1.46946,2.10946
4930,2023-01-20 10:50:04.765095,124767244,39.8043851,32.3788027,735.77,1.524022,2.164021
4964,2023-01-20 10:50:04.865109,124867274,39.8043851,32.3788027,735.83,1.585831,2.225831
4994,2023-01-20 10:50:04.964952,124967164,39.8043851,32.3788026,735.9,1.652733,2.292733
5027,2023-01-20 10:50:05.065048,125067245,39.8043851,32.3788025,735.97,1.721712,2.361712
5059,2023-01-20 10:50:05.165098,125167247,39.804385,32.3788026,736.03,1.78954,2.42954
5092,2023-01-20 10:50:05.265023,125267158,39.8043848,32.3788026,736.1,1.858652,2.498652
5122,2023-01-20 10:50:05.365412,125367552,39.8043846,32.3788027,736.17,1.929742,2.569741
5155,2023-01-20 10:50:05.465085,125467218,39.8043845,32.3788029,736.25,2.005111,2.645111
5187,2023-01-20 10:50:05.565100,125567219,39.8043843,32.3788031,736.32,2.078355,2.718355
5224,2023-01-20 10:50:05.665132,125667244,39.8043841,32.3788033,736.39,2.149837,2.789838
5254,2023-01-20 10:50:05.765409,125767519,39.8043838,32.3788034,736.46,2.21799,2.85799
5288,2023-01-20 10:50:05.859479,125867524,39.8043835,32.3788036,736.53,2.280269,2.920269
5318,2023-01-20 10:50:05.950378,125967496,39.8043831,32.3788038,736.58,2.339231,2.97923
5351,2023-01-20 10:50:06.045466,126067520,39.8043828,32.3788039,736.64,2.398685,3.038685
5383,2023-01-20 10:50:06.145232,126167250,39.8043825,32.3788038,736.7,2.457031,3.097031
5416,2023-01-20 10:50:06.244668,126267225,39.8043821,32.3788037,736.76,2.513085,3.153085
5448,2023-01-20 10:50:06.343681,126367476,39.8043817,32.3788035,736.81,2.56811,3.20811
5481,2023-01-20 10:50:06.442705,126467209,39.8043814,32.3788032,736.87,2.621197,3.261197
5513,2023-01-20 10:50:06.542704,126567220,39.804381,32.378803,736.92,2.672184,3.312184
5549,2023-01-20 10:50:06.642740,126667291,39.8043805,32.3788027,736.97,2.721886,3.361886
5579,2023-01-20 10:50:06.742621,126767236,39.8043797,32.3788025,737.02,2.770961,3.410961
5613,2023-01-20 10:50:06.842539,126867229,39.8043789,32.3788023,737.06,2.816838,3.456838
5643,2023-01-20 10:50:06.942444,126967223,39.8043779,32.3788019,737.1,2.857493,3.497493
5676,2023-01-20 10:50:07.042449,127067288,39.8043769,32.3788016,737.14,2.891922,3.531922
5708,2023-01-20 10:50:07.142376,127167233,39.8043759,32.3788011,737.17,2.92282,3.56282
5741,2023-01-20 10:50:07.242378,127267218,39.8043748,32.3788005,737.2,2.951093,3.591093
5771,2023-01-20 10:50:07.342727,127367504,39.8043737,32.3787998,737.22,2.978992,3.618992
5804,2023-01-20 10:50:07.442424,127467202,39.8043726,32.3787991,737.25,3.002664,3.642664
5836,2023-01-20 10:50:07.542349,127567213,39.8043714,32.3787984,737.27,3.022887,3.662887
5872,2023-01-20 10:50:07.647109,127667250,39.8043702,32.3787976,737.28,3.037258,3.677258
5902,2023-01-20 10:50:07.758348,127767220,39.8043688,32.3787969,737.29,3.049199,3.689199
5936,2023-01-20 10:50:07.856807,127867224,39.8043674,32.3787962,737.3,3.058265,3.698265
5968,2023-01-20 10:50:07.947595,127967225,39.8043659,32.3787954,737.31,3.067456,3.707456
6001,2023-01-20 10:50:08.042281,128067237,39.8043644,32.3787945,737.32,3.079133,3.719132
6033,2023-01-20 10:50:08.142316,128167290,39.8043627,32.3787936,737.34,3.093826,3.733826
6066,2023-01-20 10:50:08.242195,128267162,39.804361,32.3787925,737.35,3.108645,3.748645
6096,2023-01-20 10:50:08.342577,128367502,39.8043592,32.3787914,737.37,3.126811,3.766811
6129,2023-01-20 10:50:08.442311,128467215,39.8043575,32.3787902,737.39,3.145741,3.78574
6161,2023-01-20 10:50:08.542311,128567221,39.8043558,32.378789,737.41,3.164852,3.804852
6197,2023-01-20 10:50:08.642330,128667248,39.8043541,32.3787878,737.43,3.185121,3.825121
6227,2023-01-20 10:50:08.742290,128767216,39.8043526,32.3787864,737.45,3.20798,3.84798
6261,2023-01-20 10:50:08.842380,128867269,39.804351,32.378785,737.48,3.231888,3.871888
6294,2023-01-20 10:50:08.942423,128967214,39.8043496,32.3787835,737.51,3.260279,3.900279
6327,2023-01-20 10:50:09.042512,129067231,39.804348,32.3787819,737.53,3.289392,3.929392
6359,2023-01-20 10:50:09.142557,129167237,39.8043463,32.3787803,737.57,3.322438,3.962438
6392,2023-01-20 10:50:09.242484,129267218,39.8043445,32.3787786,737.6,3.353508,3.993508
6422,2023-01-20 10:50:09.342566,129367480,39.8043427,32.378777,737.63,3.385539,4.025538
6455,2023-01-20 10:50:09.442293,129467833,39.8043407,32.3787753,737.67,3.423118,4.063118
6487,2023-01-20 10:50:09.541139,129567899,39.8043388,32.3787738,737.7,3.453099,4.093099
6523,2023-01-20 10:50:09.640422,129667909,39.804337,32.3787724,737.73,3.481478,4.121478
6553,2023-01-20 10:50:09.740398,129767886,39.8043353,32.3787711,737.75,3.508262,4.148262
6587,2023-01-20 10:50:09.840464,129867962,39.8043336,32.3787697,737.78,3.532822,4.172822
6618,2023-01-20 10:50:09.940381,129967901,39.804332,32.3787683,737.8,3.553881,4.193881
6651,2023-01-20 10:50:10.040385,130067908,39.8043304,32.378767,737.82,3.572042,4.212042
6683,2023-01-20 10:50:10.140494,130167992,39.8043288,32.3787658,737.83,3.589203,4.229203
6716,2023-01-20 10:50:10.240315,130267902,39.8043273,32.3787646,737.85,3.606885,4.246885
6746,2023-01-20 10:50:10.340150,130367996,39.8043258,32.3787634,737.87,3.622687,4.262687
6779,2023-01-20 10:50:10.439913,130467925,39.8043244,32.3787622,737.88,3.639103,4.279103
6811,2023-01-20 10:50:10.539901,130567940,39.8043231,32.378761,737.9,3.656932,4.296932
6847,2023-01-20 10:50:10.639905,130667967,39.8043218,32.3787598,737.92,3.670343,4.310343
6877,2023-01-20 10:50:10.739854,130767934,39.8043207,32.3787588,737.93,3.682495,4.322495
6911,2023-01-20 10:50:10.839878,130868004,39.8043197,32.3787578,737.94,3.690682,4.330682
6941,2023-01-20 10:50:10.939735,130967950,39.8043187,32.3787568,737.94,3.696989,4.336989
6974,2023-01-20 10:50:11.039714,131067948,39.8043178,32.3787559,737.95,3.702267,4.342267
7006,2023-01-20 10:50:11.139877,131168024,39.8043169,32.378755,737.95,3.708119,4.348119
7040,2023-01-20 10:50:11.239839,131267937,39.8043161,32.3787542,737.96,3.715623,4.355623
7070,2023-01-20 10:50:11.339845,131367950,39.8043155,32.3787535,737.97,3.727096,4.367096
7103,2023-01-20 10:50:11.439828,131467935,39.8043148,32.3787528,737.98,3.73869,4.37869
7134,2023-01-20 10:50:11.539839,131567940,39.8043142,32.3787522,738,3.751984,4.391984
7170,2023-01-20 10:50:11.639863,131667960,39.8043137,32.3787516,738.01,3.76569,4.40569
7200,2023-01-20 10:50:11.739840,131767938,39.8043132,32.3787511,738.03,3.781884,4.421884
7234,2023-01-20 10:50:11.839862,131867990,39.8043128,32.3787506,738.04,3.797853,4.437853
7264,2023-01-20 10:50:11.939731,131967934,39.8043124,32.3787501,738.06,3.814434,4.454434
7297,2023-01-20 10:50:12.039745,132067961,39.804312,32.3787497,738.07,3.826397,4.466397
7329,2023-01-20 10:50:12.139873,132168008,39.8043116,32.3787492,738.08,3.837339,4.477339
7362,2023-01-20 10:50:12.239842,132267929,39.8043113,32.3787488,738.09,3.844939,4.484939
7392,2023-01-20 10:50:12.339861,132367952,39.804311,32.3787484,738.1,3.852284,4.492284
7425,2023-01-20 10:50:12.439827,132467923,39.8043107,32.3787481,738.1,3.856898,4.496898
7457,2023-01-20 10:50:12.539833,132567936,39.8043105,32.3787478,738.1,3.859512,4.499512
7493,2023-01-20 10:50:12.639854,132667958,39.8043103,32.3787476,738.1,3.857067,4.497066
7523,2023-01-20 10:50:12.739837,132767930,39.8043101,32.3787476,738.1,3.851862,4.491862
7557,2023-01-20 10:50:12.839830,132867946,39.80431,32.3787476,738.09,3.841859,4.481859
7588,2023-01-20 10:50:12.939755,132967945,39.8043099,32.3787476,738.08,3.834569,4.474569
7621,2023-01-20 10:50:13.039742,133067946,39.8043099,32.3787477,738.07,3.829176,4.469176
7653,2023-01-20 10:50:13.139879,133168009,39.8043098,32.3787478,738.07,3.825361,4.465361
7686,2023-01-20 10:50:13.239843,133267930,39.8043098,32.3787479,738.07,3.823426,4.463426
7716,2023-01-20 10:50:13.339857,133367947,39.8043098,32.3787479,738.07,3.823823,4.463823
7749,2023-01-20 10:50:13.439836,133467928,39.8043098,32.3787479,738.07,3.825575,4.465575
7781,2023-01-20 10:50:13.539844,133567935,39.8043098,32.378748,738.07,3.829211,4.469211
7817,2023-01-20 10:50:13.639870,133667962,39.8043097,32.3787481,738.07,3.827699,4.467699
7847,2023-01-20 10:50:13.739838,133767931,39.8043098,32.3787482,738.07,3.823022,4.463022
7881,2023-01-20 10:50:13.839820,133867947,39.8043098,32.3787485,738.06,3.81082,4.450819
7913,2023-01-20 10:50:13.939721,133967931,39.8043098,32.3787488,738.04,3.796472,4.436472
7946,2023-01-20 10:50:14.039721,134067952,39.8043097,32.3787491,738.03,3.782189,4.422189
7978,2023-01-20 10:50:14.139845,134168002,39.8043097,32.3787493,738.01,3.766552,4.406552
8011,2023-01-20 10:50:14.239817,134267927,39.8043096,32.3787495,737.99,3.740218,4.380218
8041,2023-01-20 10:50:14.339857,134367959,39.8043095,32.3787495,737.96,3.711318,4.351318
8074,2023-01-20 10:50:14.439829,134467927,39.8043095,32.3787495,737.93,3.683496,4.323496
8107,2023-01-20 10:50:14.539837,134567935,39.8043095,32.3787495,737.91,3.661559,4.301558
8143,2023-01-20 10:50:14.639860,134667958,39.8043094,32.3787495,737.89,3.64503,4.285029
8173,2023-01-20 10:50:14.739832,134767930,39.8043092,32.3787496,737.88,3.632533,4.272533
8207,2023-01-20 10:50:14.839814,134867946,39.8043091,32.3787497,737.87,3.625801,4.265801
8237,2023-01-20 10:50:14.939719,134967934,39.8043091,32.3787496,737.87,3.625692,4.265692
8270,2023-01-20 10:50:15.039706,135067946,39.8043091,32.3787496,737.87,3.626477,4.266477
8302,2023-01-20 10:50:15.139830,135168005,39.804309,32.3787497,737.88,3.633113,4.273113
8335,2023-01-20 10:50:15.239808,135267936,39.804309,32.3787497,737.89,3.641675,4.281675
8365,2023-01-20 10:50:15.339849,135367957,39.804309,32.3787498,737.89,3.649751,4.289751
8398,2023-01-20 10:50:15.439874,135467971,39.804309,32.3787498,737.9,3.657526,4.297526
8430,2023-01-20 10:50:15.539837,135567937,39.8043091,32.3787498,737.91,3.667205,4.307205
8466,2023-01-20 10:50:15.639856,135667957,39.8043091,32.3787499,737.92,3.676285,4.316285
8496,2023-01-20 10:50:15.739842,135767941,39.8043092,32.3787499,737.93,3.686967,4.326967
8530,2023-01-20 10:50:15.839837,135867946,39.8043092,32.3787499,737.94,3.694786,4.334786
8560,2023-01-20 10:50:15.939804,135967944,39.8043092,32.3787499,737.95,3.701314,4.341314
8593,2023-01-20 10:50:16.039802,136067949,39.8043091,32.3787501,737.95,3.704873,4.344873
8625,2023-01-20 10:50:16.139842,136167958,39.804309,32.3787502,737.95,3.706278,4.346278
8658,2023-01-20 10:50:16.239810,136267929,39.8043088,32.3787504,737.95,3.702437,4.342437
8688,2023-01-20 10:50:16.339761,136367934,39.8043085,32.3787506,737.94,3.693182,4.333182
8721,2023-01-20 10:50:16.439748,136467931,39.8043083,32.3787507,737.92,3.679008,4.319008
8753,2023-01-20 10:50:16.539846,136567971,39.8043082,32.3787508,737.91,3.663561,4.303561
8789,2023-01-20 10:50:16.639863,136667954,39.804308,32.3787509,737.89,3.648003,4.288003
8819,2023-01-20 10:50:16.739841,136767934,39.804308,32.3787509,737.88,3.634513,4.274513
8853,2023-01-20 10:50:16.839838,136867942,39.804308,32.3787508,737.87,3.624422,4.264422
8883,2023-01-20 10:50:16.939807,136967935,39.8043079,32.3787507,737.86,3.616981,4.25698
8916,2023-01-20 10:50:17.039806,137067937,39.8043079,32.3787506,737.86,3.612019,4.252018
8948,2023-01-20 10:50:17.139869,137167971,39.8043079,32.3787504,737.86,3.61208,4.25208
8981,2023-01-20 10:50:17.239881,137267969,39.804308,32.3787503,737.86,3.615115,4.255115
9011,2023-01-20 10:50:17.339857,137367954,39.804308,32.3787502,737.86,3.617733,4.257733
9044,2023-01-20 10:50:17.439829,137467927,39.8043081,32.37875,737.87,3.622096,4.262096
9076,2023-01-20 10:50:17.539845,137567932,39.8043082,32.3787499,737.87,3.629618,4.269618
9112,2023-01-20 10:50:17.639925,137668005,39.8043083,32.3787498,737.88,3.636466,4.276466
9142,2023-01-20 10:50:17.739860,137767941,39.8043084,32.3787497,737.89,3.642806,4.282806
9176,2023-01-20 10:50:17.836324,137867958,39.8043085,32.3787497,737.89,3.647185,4.287185
9206,2023-01-20 10:50:17.927395,137967934,39.8043086,32.3787497,737.9,3.650479,4.290479
9240,2023-01-20 10:50:18.022527,138067970,39.8043087,32.3787497,737.9,3.651262,4.291262
9272,2023-01-20 10:50:18.133311,138167957,39.8043088,32.3787497,737.9,3.651419,4.291419
9305,2023-01-20 10:50:18.239802,138267932,39.8043089,32.3787498,737.9,3.652839,4.292839
9335,2023-01-20 10:50:18.339911,138368000,39.804309,32.37875,737.9,3.658225,4.298224
9368,2023-01-20 10:50:18.436315,138467926,39.8043091,32.3787501,737.91,3.664341,4.304341
9400,2023-01-20 10:50:18.527423,138567932,39.8043092,32.3787502,737.92,3.670621,4.310621
9436,2023-01-20 10:50:18.620352,138667956,39.8043093,32.3787504,737.92,3.67632,4.31632
9466,2023-01-20 10:50:18.720290,138767928,39.8043094,32.3787506,737.93,3.68719,4.327189
9500,2023-01-20 10:50:18.820268,138867940,39.8043095,32.3787507,737.94,3.69359,4.33359
9532,2023-01-20 10:50:18.920229,138967937,39.8043097,32.3787508,737.94,3.699773,4.339773
9565,2023-01-20 10:50:19.020255,139067985,39.8043098,32.3787509,737.95,3.701725,4.341725
9597,2023-01-20 10:50:19.120262,139167956,39.80431,32.3787511,737.95,3.702971,4.342971
9630,2023-01-20 10:50:19.220256,139267927,39.8043101,32.3787512,737.95,3.700453,4.340453
9660,2023-01-20 10:50:19.320251,139367947,39.8043103,32.3787513,737.94,3.698377,4.338377
9693,2023-01-20 10:50:19.420210,139467938,39.8043104,32.3787514,737.94,3.693026,4.333026
9725,2023-01-20 10:50:19.520155,139567936,39.8043105,32.3787516,737.93,3.688854,4.328854
9761,2023-01-20 10:50:19.620131,139667955,39.8043106,32.3787517,737.93,3.68239,4.32239
9791,2023-01-20 10:50:19.720105,139767931,39.8043107,32.378752,737.92,3.672849,4.312849
9825,2023-01-20 10:50:19.820107,139867938,39.8043108,32.3787522,737.91,3.660395,4.300395
9855,2023-01-20 10:50:19.920089,139967937,39.8043109,32.3787525,737.89,3.648994,4.288994
9888,2023-01-20 10:50:20.020129,140067989,39.804311,32.3787527,737.88,3.635602,4.275601
9920,2023-01-20 10:50:20.120123,140167973,39.804311,32.3787529,737.87,3.62184,4.261839
9953,2023-01-20 10:50:20.220101,140267930,39.804311,32.378753,737.85,3.607676,4.247675
9986,2023-01-20 10:50:20.320167,140367932,39.8043111,32.3787533,737.84,3.592174,4.232174
10019,2023-01-20 10:50:20.420199,140467914,39.8043111,32.3787534,737.82,3.574545,4.214545
10051,2023-01-20 10:50:20.520198,140567917,39.8043112,32.3787536,737.8,3.558141,4.198141
10087,2023-01-20 10:50:20.620259,140667974,39.8043112,32.3787537,737.79,3.545172,4.185172
10117,2023-01-20 10:50:20.720241,140767918,39.8043112,32.3787537,737.78,3.537235,4.177235
10151,2023-01-20 10:50:20.820249,140867920,39.8043112,32.3787537,737.78,3.531035,4.171035
10181,2023-01-20 10:50:20.920115,140967905,39.8043112,32.3787537,737.78,3.529999,4.169999
10214,2023-01-20 10:50:21.020064,141067938,39.8043112,32.3787538,737.78,3.530523,4.170523
10246,2023-01-20 10:50:21.120115,141167933,39.8043112,32.3787539,737.78,3.53337,4.17337
10279,2023-01-20 10:50:21.220173,141267952,39.8043112,32.3787541,737.78,3.535053,4.175053
10309,2023-01-20 10:50:21.320180,141367983,39.8043113,32.3787545,737.78,3.537732,4.177732
10342,2023-01-20 10:50:21.420095,141467911,39.8043115,32.3787549,737.79,3.540122,4.180121
10374,2023-01-20 10:50:21.520132,141567912,39.8043117,32.3787554,737.79,3.547158,4.187158
10410,2023-01-20 10:50:21.620167,141667930,39.8043118,32.378756,737.8,3.55242,4.19242
10440,2023-01-20 10:50:21.720094,141767919,39.804312,32.3787568,737.8,3.559223,4.199223
10474,2023-01-20 10:50:21.820047,141867924,39.8043122,32.3787576,737.81,3.564583,4.204583
10504,2023-01-20 10:50:21.920074,141967964,39.8043124,32.3787585,737.82,3.570886,4.210886
10537,2023-01-20 10:50:22.020047,142067938,39.8043127,32.3787594,737.82,3.577487,4.217486
10569,2023-01-20 10:50:22.120102,142167942,39.8043132,32.3787605,737.83,3.586669,4.226669
10602,2023-01-20 10:50:22.220097,142267904,39.8043136,32.3787617,737.84,3.596152,4.236152
10632,2023-01-20 10:50:22.320099,142367941,39.804314,32.3787628,737.86,3.609967,4.249967
10665,2023-01-20 10:50:22.420040,142467901,39.8043144,32.378764,737.87,3.623943,4.263943
10697,2023-01-20 10:50:22.520098,142567912,39.8043149,32.3787653,737.89,3.642355,4.282355
10733,2023-01-20 10:50:22.620203,142667983,39.8043152,32.3787667,737.91,3.662692,4.302692
10763,2023-01-20 10:50:22.720120,142767918,39.8043154,32.3787683,737.94,3.690265,4.330265
10797,2023-01-20 10:50:22.820107,142867924,39.8043157,32.3787701,737.96,3.714358,4.354358
10827,2023-01-20 10:50:22.920068,142967917,39.804316,32.3787721,737.98,3.737554,4.377553
10860,2023-01-20 10:50:23.020066,143067930,39.8043163,32.3787744,738,3.755258,4.395258
10893,2023-01-20 10:50:23.120152,143167965,39.8043167,32.3787769,738.02,3.772477,4.412477
10926,2023-01-20 10:50:23.220175,143267953,39.8043172,32.3787796,738.04,3.790863,4.430862
10956,2023-01-20 10:50:23.320133,143367940,39.8043178,32.3787825,738.06,3.812613,4.452613
10989,2023-01-20 10:50:23.420080,143467907,39.8043184,32.3787855,738.08,3.837334,4.477334
11021,2023-01-20 10:50:23.520104,143567917,39.8043192,32.3787889,738.11,3.866258,4.506258
11057,2023-01-20 10:50:23.620146,143667950,39.80432,32.3787925,738.15,3.901744,4.541744
11087,2023-01-20 10:50:23.720088,143767906,39.8043207,32.3787963,738.19,3.944458,4.584458
11121,2023-01-20 10:50:23.820097,143867929,39.8043215,32.3788005,738.24,3.993673,4.633673
11154,2023-01-20 10:50:23.920101,143967950,39.8043221,32.3788049,738.3,4.053986,4.693986
11187,2023-01-20 10:50:24.020073,144067923,39.8043227,32.3788095,738.36,4.118051,4.75805
11219,2023-01-20 10:50:24.120149,144167937,39.8043235,32.3788145,738.43,4.186094,4.826094
11252,2023-01-20 10:50:24.220150,144267901,39.8043243,32.3788196,738.5,4.257556,4.897556
11282,2023-01-20 10:50:24.320115,144367929,39.804325,32.3788247,738.58,4.335702,4.975702
11315,2023-01-20 10:50:24.420054,144467905,39.8043258,32.37883,738.66,4.410183,5.050183
11348,2023-01-20 10:50:24.520167,144567952,39.8043267,32.3788357,738.73,4.488839,5.128839
11385,2023-01-20 10:50:24.620184,144667933,39.8043278,32.3788414,738.81,4.569296,5.209296
11415,2023-01-20 10:50:24.720081,144767911,39.8043292,32.3788472,738.9,4.654431,5.294431
11449,2023-01-20 10:50:24.820062,144867957,39.8043305,32.3788532,738.99,4.74227,5.382269
11480,2023-01-20 10:50:24.920045,144967939,39.8043318,32.3788593,739.08,4.832277,5.472277
11513,2023-01-20 10:50:25.020057,145067945,39.8043332,32.3788655,739.16,4.912749,5.552749
11545,2023-01-20 10:50:25.120111,145167970,39.8043347,32.3788717,739.23,4.984632,5.624632
11579,2023-01-20 10:50:25.220106,145267943,39.8043361,32.3788777,739.29,5.041503,5.681503
11609,2023-01-20 10:50:25.320106,145367949,39.8043376,32.3788837,739.33,5.084367,5.724367
11642,2023-01-20 10:50:25.420094,145467939,39.8043387,32.3788893,739.36,5.118991,5.758991
11674,2023-01-20 10:50:25.520152,145567984,39.8043393,32.3788944,739.39,5.141967,5.781967
11710,2023-01-20 10:50:25.620130,145667954,39.8043399,32.3788991,739.39,5.140106,5.780106
11740,2023-01-20 10:50:25.720098,145767934,39.8043406,32.3789036,739.36,5.113879,5.753879
11773,2023-01-20 10:50:25.820137,145867988,39.8043413,32.3789077,739.31,5.069447,5.709447
11805,2023-01-20 10:50:25.920063,145967938,39.8043419,32.3789114,739.26,5.015749,5.655749
11838,2023-01-20 10:50:26.020056,146067942,39.8043425,32.3789147,739.21,4.965327,5.605327
11870,2023-01-20 10:50:26.120110,146167959,39.8043429,32.3789176,739.17,4.921627,5.561626
11903,2023-01-20 10:50:26.220104,146267930,39.8043433,32.37892,739.12,4.877928,5.517928
11933,2023-01-20 10:50:26.320075,146367937,39.8043436,32.3789222,739.08,4.833555,5.473555
11966,2023-01-20 10:50:26.420047,146467932,39.8043439,32.3789239,739.04,4.799555,5.439555
11998,2023-01-20 10:50:26.520083,146567938,39.8043442,32.3789255,739.02,4.774365,5.414365
12034,2023-01-20 10:50:26.620123,146667955,39.8043445,32.3789267,739,4.753788,5.393788
12064,2023-01-20 10:50:26.720108,146767945,39.8043445,32.3789275,738.98,4.738675,5.378675
12097,2023-01-20 10:50:26.820159,146868005,39.8043446,32.3789282,738.98,4.735976,5.375976
12128,2023-01-20 10:50:26.920069,146967940,39.8043446,32.3789288,738.99,4.749486,5.389486
12161,2023-01-20 10:50:27.020157,147068045,39.8043447,32.3789293,739.02,4.778663,5.418663
12193,2023-01-20 10:50:27.120082,147167961,39.8043449,32.3789296,739.07,4.823048,5.463048
12226,2023-01-20 10:50:27.220068,147267936,39.8043451,32.37893,739.13,4.884414,5.524414
12256,2023-01-20 10:50:27.320117,147367970,39.8043455,32.3789302,739.2,4.959837,5.599837
12289,2023-01-20 10:50:27.418288,147467932,39.8043458,32.3789304,739.29,5.047106,5.687106
12321,2023-01-20 10:50:27.509356,147567974,39.8043462,32.3789305,739.39,5.149226,5.789226
12357,2023-01-20 10:50:27.600515,147668066,39.8043465,32.3789305,739.51,5.26506,5.90506
12387,2023-01-20 10:50:27.700373,147767932,39.8043467,32.3789306,739.64,5.392499,6.032499
12420,2023-01-20 10:50:27.800483,147868049,39.8043469,32.3789306,739.78,5.531738,6.171738
12452,2023-01-20 10:50:27.900305,147967935,39.8043472,32.3789307,739.92,5.679377,6.319377
12485,2023-01-20 10:50:28.000517,148068211,39.8043475,32.3789307,740.08,5.831282,6.471282
12517,2023-01-20 10:50:28.100285,148167954,39.804348,32.3789306,740.23,5.988094,6.628094
12551,2023-01-20 10:50:28.200492,148268136,39.8043483,32.3789305,740.4,6.151758,6.791758
12581,2023-01-20 10:50:28.300329,148367948,39.8043487,32.3789302,740.57,6.321381,6.96138
12614,2023-01-20 10:50:28.400550,148468090,39.8043489,32.3789298,740.74,6.493651,7.133651
12646,2023-01-20 10:50:28.511339,148567933,39.8043493,32.3789296,740.92,6.675419,7.315419
12682,2023-01-20 10:50:28.618314,148667959,39.8043497,32.3789294,741.1,6.859941,7.49994
12712,2023-01-20 10:50:28.709320,148767966,39.8043499,32.3789291,741.29,7.045023,7.685023
12745,2023-01-20 10:50:28.800473,148868088,39.80435,32.3789288,741.48,7.231261,7.871261
12778,2023-01-20 10:50:28.900213,148967941,39.80435,32.3789284,741.66,7.416669,8.056669
12811,2023-01-20 10:50:29.000469,149068311,39.80435,32.3789281,741.85,7.601045,8.241045
12843,2023-01-20 10:50:29.100179,149167967,39.8043501,32.3789278,742.03,7.789303,8.429303
12877,2023-01-20 10:50:29.200519,149268253,39.8043501,32.3789274,742.22,7.978483,8.618483
12907,2023-01-20 10:50:29.300143,149367942,39.80435,32.3789271,742.41,8.166595,8.806595
12940,2023-01-20 10:50:29.400452,149468316,39.8043499,32.3789268,742.6,8.354408,8.994409
12972,2023-01-20 10:50:29.500083,149567928,39.8043498,32.3789264,742.79,8.545211,9.185211
13008,2023-01-20 10:50:29.600483,149668308,39.8043496,32.3789261,742.98,8.735263,9.375263
13038,2023-01-20 10:50:29.700105,149767939,39.8043496,32.3789258,743.17,8.928721,9.568722
13071,2023-01-20 10:50:29.800462,149868305,39.8043495,32.3789255,743.36,9.119481,9.759481
13102,2023-01-20 10:50:29.900110,149967976,39.8043496,32.3789252,743.56,9.311064,9.951064
13135,2023-01-20 10:50:30.000477,150068365,39.8043496,32.3789249,743.75,9.502456,10.14246
13167,2023-01-20 10:50:30.100110,150167964,39.8043497,32.3789246,743.94,9.697778,10.33778
13200,2023-01-20 10:50:30.200458,150268278,39.8043496,32.3789244,744.13,9.887684,10.52768
13230,2023-01-20 10:50:30.300133,150367952,39.8043494,32.3789241,744.33,10.08235,10.72235
13263,2023-01-20 10:50:30.400470,150468288,39.8043493,32.3789239,744.52,10.27258,10.91258
13295,2023-01-20 10:50:30.500118,150567942,39.8043492,32.3789237,744.71,10.46224,11.10224
13331,2023-01-20 10:50:30.600472,150668301,39.8043491,32.3789235,744.89,10.64958,11.28958
13362,2023-01-20 10:50:30.700095,150767926,39.8043492,32.3789232,745.08,10.83756,11.47756
13395,2023-01-20 10:50:30.800455,150868288,39.8043492,32.3789229,745.26,11.01852,11.65852
13426,2023-01-20 10:50:30.900072,150967939,39.8043493,32.3789226,745.45,11.20432,11.84432
13459,2023-01-20 10:50:31.000472,151068372,39.8043493,32.3789224,745.63,11.38602,12.02602
13491,2023-01-20 10:50:31.100195,151168007,39.8043492,32.3789221,745.81,11.56941,12.20941
13524,2023-01-20 10:50:31.200507,151268231,39.8043491,32.3789218,745.99,11.74915,12.38915
13554,2023-01-20 10:50:31.300179,151367953,39.8043488,32.3789215,746.17,11.92845,12.56845
13587,2023-01-20 10:50:31.400457,151468281,39.8043485,32.3789213,746.35,12.10244,12.74244
13619,2023-01-20 10:50:31.500095,151567939,39.804348,32.3789211,746.52,12.27871,12.91871
13654,2023-01-20 10:50:31.600482,151668345,39.8043476,32.3789209,746.7,12.45293,13.09293
13685,2023-01-20 10:50:31.700076,151767926,39.8043472,32.3789209,746.87,12.62915,13.26915
13718,2023-01-20 10:50:31.800447,151868284,39.8043469,32.3789209,747.04,12.79844,13.43844
13750,2023-01-20 10:50:31.900110,151967970,39.8043467,32.3789209,747.21,12.96463,13.60463
13783,2023-01-20 10:50:32.000467,152068350,39.8043465,32.378921,747.36,13.11301,13.75301
13815,2023-01-20 10:50:32.100102,152167958,39.8043462,32.3789211,747.49,13.24379,13.88379
13848,2023-01-20 10:50:32.200464,152268293,39.8043461,32.3789212,747.59,13.34885,13.98885
13878,2023-01-20 10:50:32.300124,152367946,39.804346,32.3789213,747.68,13.43717,14.07717
13911,2023-01-20 10:50:32.400455,152468271,39.8043459,32.3789213,747.75,13.5043,14.1443
13943,2023-01-20 10:50:32.500094,152567935,39.8043457,32.3789214,747.81,13.56051,14.20051
13978,2023-01-20 10:50:32.600476,152668342,39.8043456,32.3789214,747.84,13.5997,14.23971
14009,2023-01-20 10:50:32.700074,152767927,39.8043454,32.3789215,747.88,13.63134,14.27134
14042,2023-01-20 10:50:32.800457,152868296,39.8043452,32.3789217,747.9,13.6512,14.2912
14073,2023-01-20 10:50:32.900112,152967972,39.804345,32.3789217,747.91,13.66737,14.30737
14106,2023-01-20 10:50:33.000450,153068331,39.8043449,32.3789217,747.92,13.67489,14.31489
14138,2023-01-20 10:50:33.100121,153167974,39.8043444,32.3789218,747.93,13.68346,14.32346
14171,2023-01-20 10:50:33.200453,153268278,39.8043441,32.3789218,747.93,13.68624,14.32624
14202,2023-01-20 10:50:33.300140,153367961,39.8043438,32.3789219,747.94,13.69143,14.33143
14235,2023-01-20 10:50:33.400464,153468281,39.8043436,32.378922,747.94,13.69405,14.33405
14268,2023-01-20 10:50:33.500122,153567943,39.8043432,32.378922,747.95,13.70037,14.34037
14304,2023-01-20 10:50:33.600473,153668299,39.8043429,32.3789221,747.95,13.70472,14.34472
14335,2023-01-20 10:50:33.700099,153767931,39.8043425,32.3789222,747.96,13.7141,14.3541
14368,2023-01-20 10:50:33.800447,153868286,39.8043423,32.3789223,747.96,13.71995,14.35995
14401,2023-01-20 10:50:33.900103,153967969,39.8043418,32.3789223,747.97,13.72974,14.36974
14434,2023-01-20 10:50:34.000442,154068334,39.8043415,32.3789223,747.98,13.73555,14.37555
14466,2023-01-20 10:50:34.100081,154167959,39.8043408,32.3789223,747.99,13.74226,14.38226
14499,2023-01-20 10:50:34.200471,154268335,39.8043405,32.3789224,747.99,13.74603,14.38603
14529,2023-01-20 10:50:34.300118,154367958,39.8043399,32.3789223,748,13.75141,14.39141
14562,2023-01-20 10:50:34.400456,154468272,39.8043396,32.3789224,748,13.75206,14.39206
14595,2023-01-20 10:50:34.500139,154567918,39.8043391,32.3789223,748,13.75438,14.39438
14629,2023-01-20 10:50:34.600549,154668292,39.8043388,32.3789222,748,13.75232,14.39232
14661,2023-01-20 10:50:34.700143,154767935,39.8043386,32.3789221,748,13.75333,14.39333
14694,2023-01-20 10:50:34.800454,154868295,39.8043386,32.378922,748,13.75248,14.39248
14727,2023-01-20 10:50:34.900076,154967950,39.8043386,32.3789218,748,13.75225,14.39225
14760,2023-01-20 10:50:35.000459,155068366,39.8043387,32.3789217,747.99,13.74885,14.38885
14792,2023-01-20 10:50:35.100165,155167986,39.8043387,32.3789215,747.99,13.74792,14.38792
14825,2023-01-20 10:50:35.200524,155268260,39.8043389,32.3789214,747.99,13.74558,14.38558
14855,2023-01-20 10:50:35.300187,155367925,39.804339,32.3789211,747.99,13.74564,14.38564
14888,2023-01-20 10:50:35.400520,155468261,39.8043393,32.378921,747.99,13.74387,14.38387
14920,2023-01-20 10:50:35.500173,155567913,39.8043394,32.3789208,747.99,13.74755,14.38755
14955,2023-01-20 10:50:35.600539,155668278,39.8043396,32.3789207,748,13.75128,14.39128
14986,2023-01-20 10:50:35.700189,155767949,39.8043398,32.3789207,748.01,13.76128,14.40128
15019,2023-01-20 10:50:35.800485,155868265,39.8043401,32.3789207,748.01,13.76977,14.40977
15050,2023-01-20 10:50:35.900092,155967913,39.8043403,32.3789209,748.03,13.78098,14.42098
15083,2023-01-20 10:50:36.000458,156068320,39.8043406,32.3789212,748.04,13.79015,14.43015
15115,2023-01-20 10:50:36.100134,156167938,39.8043407,32.3789216,748.05,13.80332,14.44332
15148,2023-01-20 10:50:36.200516,156268262,39.8043408,32.3789221,748.06,13.81406,14.45406
15178,2023-01-20 10:50:36.300138,156367933,39.8043407,32.3789226,748.07,13.82761,14.46761
15211,2023-01-20 10:50:36.400457,156468300,39.8043408,32.3789233,748.08,13.8385,14.4785
15243,2023-01-20 10:50:36.500120,156567906,39.8043407,32.378924,748.1,13.8518,14.4918
15278,2023-01-20 10:50:36.600547,156668277,39.8043408,32.3789248,748.11,13.8628,14.5028
15309,2023-01-20 10:50:36.700177,156767903,39.8043409,32.3789257,748.12,13.87626,14.51626
15342,2023-01-20 10:50:36.800545,156868268,39.8043412,32.3789268,748.13,13.88791,14.52791
15373,2023-01-20 10:50:36.900099,156967914,39.8043414,32.3789279,748.14,13.89954,14.53954
15406,2023-01-20 10:50:37.000452,157068360,39.8043418,32.3789293,748.16,13.91031,14.55031
15438,2023-01-20 10:50:37.100108,157167936,39.804342,32.3789308,748.17,13.92316,14.56316
15471,2023-01-20 10:50:37.200518,157268266,39.8043425,32.3789326,748.18,13.93836,14.57836
15501,2023-01-20 10:50:37.300191,157367936,39.8043428,32.3789345,748.21,13.96227,14.60227
15534,2023-01-20 10:50:37.400514,157468257,39.8043433,32.3789367,748.23,13.98952,14.62952
15566,2023-01-20 10:50:37.500195,157567922,39.8043437,32.3789391,748.27,14.02124,14.66124
15601,2023-01-20 10:50:37.600887,157668599,39.8043443,32.3789417,748.3,14.05558,14.69558
15632,2023-01-20 10:50:37.700224,157767951,39.8043448,32.3789443,748.34,14.09195,14.73195
15665,2023-01-20 10:50:37.800532,157868274,39.8043455,32.3789472,748.37,14.12683,14.76683
15697,2023-01-20 10:50:37.900128,157967913,39.8043458,32.3789502,748.41,14.16654,14.80654
15730,2023-01-20 10:50:38.000454,158068327,39.8043463,32.3789536,748.45,14.20505,14.84505
15762,2023-01-20 10:50:38.091107,158167937,39.8043465,32.378957,748.49,14.24611,14.88611
15793,2023-01-20 10:50:38.182382,158268230,39.8043469,32.3789608,748.53,14.28379,14.92379
15825,2023-01-20 10:50:38.280378,158367965,39.8043471,32.3789647,748.57,14.32368,14.96368
15857,2023-01-20 10:50:38.380717,158468302,39.8043475,32.3789689,748.61,14.36732,15.00732
15891,2023-01-20 10:50:38.480303,158567913,39.8043479,32.3789733,748.66,14.41259,15.05259
15925,2023-01-20 10:50:38.580769,158668411,39.8043485,32.3789779,748.7,14.45968,15.09968
15958,2023-01-20 10:50:38.680250,158767902,39.8043492,32.3789827,748.76,14.51276,15.15276
15989,2023-01-20 10:50:38.780463,158868120,39.8043501,32.3789877,748.81,14.56812,15.20812
16024,2023-01-20 10:50:38.889076,158967919,39.8043512,32.3789929,748.87,14.62188,15.26188
16057,2023-01-20 10:50:39.000406,159068313,39.8043526,32.3789984,748.92,14.67359,15.31359
16089,2023-01-20 10:50:39.091068,159167940,39.804354,32.379004,748.97,14.72611,15.36611
16121,2023-01-20 10:50:39.182221,159268106,39.8043556,32.3790098,749.03,14.78164,15.42164
16153,2023-01-20 10:50:39.280246,159367918,39.8043572,32.3790159,749.08,14.83585,15.47585
16184,2023-01-20 10:50:39.380343,159468050,39.8043588,32.3790223,749.14,14.89214,15.53214
16218,2023-01-20 10:50:39.480182,159567909,39.8043606,32.3790286,749.2,14.95123,15.59123
16251,2023-01-20 10:50:39.580563,159668306,39.8043624,32.3790352,749.26,15.01651,15.65651
16284,2023-01-20 10:50:39.680176,159767969,39.804364,32.3790419,749.34,15.09113,15.73113
16315,2023-01-20 10:50:39.780154,159868005,39.8043658,32.3790487,749.41,15.1673,15.8073
16349,2023-01-20 10:50:39.880047,159967905,39.8043676,32.3790557,749.48,15.23783,15.87783
16380,2023-01-20 10:50:39.980081,160067934,39.8043695,32.3790628,749.55,15.3046,15.9446
16414,2023-01-20 10:50:40.080137,160167945,39.8043714,32.3790699,749.61,15.36558,16.00558
16446,2023-01-20 10:50:40.180161,160267914,39.8043734,32.3790772,749.67,15.42838,16.06838
16478,2023-01-20 10:50:40.280184,160367967,39.8043753,32.3790845,749.74,15.49402,16.13402
16509,2023-01-20 10:50:40.380071,160467906,39.8043773,32.3790919,749.81,15.56435,16.20435
16543,2023-01-20 10:50:40.480081,160567916,39.8043791,32.3790995,749.88,15.63679,16.27679
16577,2023-01-20 10:50:40.580332,160668154,39.8043809,32.3791071,749.95,15.70783,16.34783
16610,2023-01-20 10:50:40.680107,160767912,39.8043825,32.3791147,750.03,15.78057,16.42057
16641,2023-01-20 10:50:40.780141,160867928,39.8043841,32.3791223,750.1,15.85462,16.49462
16675,2023-01-20 10:50:40.880090,160967907,39.8043855,32.3791299,750.18,15.93143,16.57143
16706,2023-01-20 10:50:40.980119,161067980,39.8043868,32.3791374,750.25,16.00499,16.64499
16740,2023-01-20 10:50:41.080129,161167951,39.8043879,32.3791449,750.33,16.08346,16.72346
16772,2023-01-20 10:50:41.180140,161267904,39.8043892,32.3791524,750.4,16.1578,16.7978
16804,2023-01-20 10:50:41.280187,161367934,39.8043905,32.3791598,750.47,16.22392,16.86392
16835,2023-01-20 10:50:41.380176,161467916,39.804392,32.3791673,750.53,16.28326,16.92326
16869,2023-01-20 10:50:41.480134,161567907,39.8043935,32.3791749,750.59,16.34265,16.98265
16903,2023-01-20 10:50:41.580524,161668339,39.804395,32.3791825,750.65,16.40378,17.04378
16936,2023-01-20 10:50:41.680137,161767928,39.8043966,32.3791902,750.71,16.46318,17.10318
16967,2023-01-20 10:50:41.780169,161867921,39.8043981,32.379198,750.77,16.52129,17.16129
17001,2023-01-20 10:50:41.880120,161967906,39.8043995,32.3792058,750.82,16.57587,17.21587
17032,2023-01-20 10:50:41.980074,162067912,39.804401,32.3792137,750.88,16.63123,17.27123
17066,2023-01-20 10:50:42.080132,162167941,39.8044026,32.3792216,750.93,16.68738,17.32738
17098,2023-01-20 10:50:42.180141,162267901,39.8044042,32.3792294,750.99,16.7416,17.3816
17130,2023-01-20 10:50:42.280191,162367980,39.8044057,32.3792373,751.03,16.78915,17.42915
17161,2023-01-20 10:50:42.380072,162467909,39.8044073,32.3792452,751.09,16.84122,17.48122
17195,2023-01-20 10:50:42.480062,162567897,39.804409,32.3792532,751.14,16.89136,17.53136
17229,2023-01-20 10:50:42.580309,162668130,39.8044107,32.3792612,751.19,16.94136,17.58136
17262,2023-01-20 10:50:42.680088,162767908,39.8044123,32.3792692,751.23,16.98582,17.62582
17293,2023-01-20 10:50:42.780098,162867921,39.8044139,32.3792773,751.28,17.03603,17.67603
17327,2023-01-20 10:50:42.880104,162967957,39.8044156,32.3792852,751.33,17.08579,17.72579
17358,2023-01-20 10:50:42.980018,163067909,39.8044173,32.3792932,751.39,17.14155,17.78155
17392,2023-01-20 10:50:43.080105,163167940,39.804419,32.3793011,751.43,17.18609,17.82609
17424,2023-01-20 10:50:43.180151,163267908,39.8044207,32.3793089,751.48,17.23546,17.87546
17456,2023-01-20 10:50:43.280192,163367934,39.8044223,32.3793166,751.53,17.28509,17.92509
17487,2023-01-20 10:50:43.380166,163467907,39.804424,32.3793244,751.58,17.33846,17.97846
17522,2023-01-20 10:50:43.480144,163567920,39.8044255,32.379332,751.63,17.38706,18.02706
17556,2023-01-20 10:50:43.580311,163668131,39.804427,32.3793397,751.68,17.43926,18.07926
17589,2023-01-20 10:50:43.680083,163767909,39.8044282,32.3793475,751.74,17.49183,18.13183
17620,2023-01-20 10:50:43.780096,163867919,39.8044295,32.3793551,751.8,17.55443,18.19443
17656,2023-01-20 10:50:43.880068,163967904,39.8044308,32.3793629,751.87,17.62434,18.26434
17687,2023-01-20 10:50:43.980052,164067905,39.8044322,32.3793706,751.95,17.70317,18.34317
17721,2023-01-20 10:50:44.080124,164167937,39.8044335,32.379378,752.04,17.79651,18.43651
17753,2023-01-20 10:50:44.180188,164267946,39.8044348,32.3793855,752.14,17.89851,18.53851
17785,2023-01-20 10:50:44.280181,164367928,39.8044359,32.3793931,752.25,18.00682,18.64682
17816,2023-01-20 10:50:44.380157,164467905,39.8044372,32.3794007,752.35,18.1067,18.7467
17851,2023-01-20 10:50:44.480153,164567901,39.8044385,32.3794083,752.44,18.19725,18.83725
17885,2023-01-20 10:50:44.580204,164667953,39.80444,32.379416,752.53,18.27998,18.91998
17918,2023-01-20 10:50:44.680156,164767918,39.8044416,32.3794235,752.61,18.3667,19.0067
17949,2023-01-20 10:50:44.780141,164867920,39.8044432,32.3794313,752.7,18.45312,19.09312
17983,2023-01-20 10:50:44.880125,164967953,39.8044449,32.379439,752.78,18.53695,19.17695
18014,2023-01-20 10:50:44.980025,165067910,39.8044465,32.3794466,752.86,18.61844,19.25844
18048,2023-01-20 10:50:45.080105,165167930,39.8044482,32.3794544,752.95,18.70888,19.34888
18080,2023-01-20 10:50:45.180176,165267913,39.8044499,32.3794622,753.04,18.79561,19.43561
18112,2023-01-20 10:50:45.280200,165367932,39.8044516,32.3794699,753.12,18.8799,19.5199
18143,2023-01-20 10:50:45.380159,165467906,39.8044533,32.3794778,753.2,18.9553,19.5953
18177,2023-01-20 10:50:45.480165,165567952,39.804455,32.3794858,753.26,19.01208,19.65207
18211,2023-01-20 10:50:45.580123,165667955,39.8044567,32.3794937,753.31,19.06017,19.70016
18244,2023-01-20 10:50:45.680098,165767901,39.8044584,32.3795017,753.35,19.10843,19.74843
18275,2023-01-20 10:50:45.780166,165867922,39.8044601,32.3795098,753.4,19.15566,19.79566
18309,2023-01-20 10:50:45.880128,165967912,39.8044618,32.379518,753.46,19.21098,19.85098
18340,2023-01-20 10:50:45.980081,166067912,39.8044635,32.3795262,753.51,19.26814,19.90813
18374,2023-01-20 10:50:46.080126,166167956,39.8044652,32.3795345,753.58,19.33405,19.97405
18406,2023-01-20 10:50:46.180129,166267947,39.8044669,32.3795426,753.64,19.3999,20.0399
18438,2023-01-20 10:50:46.280148,166367923,39.8044688,32.3795508,753.71,19.46804,20.10804
18469,2023-01-20 10:50:46.380177,166467901,39.8044706,32.379559,753.77,19.52766,20.16766
18503,2023-01-20 10:50:46.480177,166567904,39.8044724,32.3795672,753.83,19.58444,20.22444
18537,2023-01-20 10:50:46.580215,166667959,39.8044741,32.3795753,753.88,19.63965,20.27965
18570,2023-01-20 10:50:46.680128,166767905,39.8044757,32.3795835,753.95,19.707,20.347
18601,2023-01-20 10:50:46.780155,166867969,39.8044773,32.3795917,754.02,19.77527,20.41527
18635,2023-01-20 10:50:46.872855,166967909,39.8044788,32.3795998,754.09,19.84287,20.48287
18666,2023-01-20 10:50:46.963806,167067891,39.8044803,32.379608,754.15,19.90986,20.54986
18700,2023-01-20 10:50:47.060279,167167935,39.804482,32.3796162,754.22,19.97552,20.61552
18732,2023-01-20 10:50:47.160285,167267904,39.8044838,32.3796243,754.28,20.03501,20.67501
18764,2023-01-20 10:50:47.260335,167367937,39.8044856,32.3796326,754.34,20.09247,20.73247
18795,2023-01-20 10:50:47.360312,167467911,39.8044874,32.3796408,754.39,20.14897,20.78897
18828,2023-01-20 10:50:47.460360,167567959,39.8044892,32.379649,754.46,20.21039,20.85039
18862,2023-01-20 10:50:47.560345,167667947,39.8044911,32.3796573,754.51,20.26716,20.90716
18895,2023-01-20 10:50:47.660327,167767917,39.8044929,32.3796655,754.55,20.30786,20.94786
18926,2023-01-20 10:50:47.760361,167867930,39.8044946,32.3796736,754.58,20.33938,20.97938
18960,2023-01-20 10:50:47.860324,167967908,39.8044963,32.3796817,754.62,20.37506,21.01506
18991,2023-01-20 10:50:47.960278,168067902,39.8044979,32.3796899,754.66,20.41226,21.05226
19025,2023-01-20 10:50:48.060346,168167986,39.8044997,32.3796981,754.7,20.45115,21.09115
19057,2023-01-20 10:50:48.160268,168267908,39.8045015,32.3797063,754.74,20.49145,21.13145
19089,2023-01-20 10:50:48.260302,168367962,39.8045033,32.3797145,754.78,20.53187,21.17187
19120,2023-01-20 10:50:48.360211,168467904,39.804505,32.3797225,754.82,20.57703,21.21703
19154,2023-01-20 10:50:48.460197,168567911,39.8045066,32.3797306,754.87,20.628,21.268
19189,2023-01-20 10:50:48.560245,168667972,39.804508,32.3797386,754.93,20.68357,21.32357
19222,2023-01-20 10:50:48.660169,168767922,39.8045093,32.3797465,754.98,20.7301,21.3701
19253,2023-01-20 10:50:48.760185,168867972,39.8045104,32.3797543,755.02,20.77769,21.41769
19289,2023-01-20 10:50:48.860392,168968221,39.8045117,32.3797621,755.06,20.81548,21.45547
19320,2023-01-20 10:50:48.960009,169067886,39.8045129,32.3797697,755.1,20.85578,21.49578
19354,2023-01-20 10:50:49.060088,169167955,39.8045143,32.3797776,755.14,20.89445,21.53445
19386,2023-01-20 10:50:49.160091,169267909,39.8045158,32.3797855,755.19,20.94157,21.58157
19418,2023-01-20 10:50:49.260161,169367924,39.8045172,32.3797934,755.24,20.99444,21.63444
19449,2023-01-20 10:50:49.360257,169467960,39.8045186,32.3798011,755.31,21.06071,21.7007
19483,2023-01-20 10:50:49.460177,169567905,39.8045201,32.379809,755.38,21.13396,21.77396
19517,2023-01-20 10:50:49.560142,169667952,39.8045216,32.3798167,755.46,21.21657,21.85657
19550,2023-01-20 10:50:49.660093,169767906,39.804523,32.3798244,755.55,21.30986,21.94986
19581,2023-01-20 10:50:49.760159,169867921,39.8045243,32.3798322,755.66,21.40997,22.04997
19615,2023-01-20 10:50:49.860143,169967916,39.8045255,32.3798399,755.76,21.51322,22.15322
19646,2023-01-20 10:50:49.960086,170067910,39.8045267,32.3798476,755.87,21.61998,22.25998
19680,2023-01-20 10:50:50.060123,170167973,39.8045281,32.3798555,755.97,21.7288,22.3688
19754,2023-01-20 10:50:50.160048,170267906,39.8045295,32.3798634,756.08,21.83801,22.47801
19786,2023-01-20 10:50:50.260078,170367914,39.804531,32.3798713,756.19,21.94358,22.58358
19817,2023-01-20 10:50:50.360111,170467904,39.8045326,32.3798791,756.29,22.04212,22.68212
19851,2023-01-20 10:50:50.460143,170567908,39.8045342,32.3798868,756.38,22.13521,22.77521
19885,2023-01-20 10:50:50.560194,170667942,39.8045358,32.3798945,756.47,22.22535,22.86535
19918,2023-01-20 10:50:50.660210,170767952,39.8045375,32.3799023,756.56,22.31423,22.95423
19949,2023-01-20 10:50:50.760216,170867960,39.8045391,32.3799099,756.64,22.39894,23.03894
19983,2023-01-20 10:50:50.860112,170967901,39.8045408,32.3799177,756.73,22.48333,23.12333
20014,2023-01-20 10:50:50.960044,171067905,39.8045426,32.3799255,756.81,22.56425,23.20425
20048,2023-01-20 10:50:51.060105,171167951,39.8045443,32.3799333,756.89,22.6422,23.2822
20080,2023-01-20 10:50:51.160138,171267911,39.8045461,32.3799411,756.96,22.71712,23.35712
20112,2023-01-20 10:50:51.260185,171367931,39.8045477,32.3799489,757.04,22.79337,23.43337
20143,2023-01-20 10:50:51.360195,171467945,39.8045494,32.3799568,757.11,22.86688,23.50688
20177,2023-01-20 10:50:51.460138,171567917,39.8045507,32.3799644,757.19,22.94509,23.58509
20211,2023-01-20 10:50:51.560130,171667956,39.804552,32.3799721,757.27,23.02471,23.66471
20244,2023-01-20 10:50:51.660096,171767906,39.8045535,32.3799798,757.35,23.10345,23.74345
20275,2023-01-20 10:50:51.760175,171867926,39.8045549,32.3799874,757.43,23.18117,23.82117
20309,2023-01-20 10:50:51.860134,171967901,39.8045567,32.3799951,757.5,23.25828,23.89828
20340,2023-01-20 10:50:51.960113,172067946,39.8045585,32.3800029,757.58,23.33198,23.97198
20374,2023-01-20 10:50:52.060149,172168010,39.8045606,32.3800107,757.65,23.40468,24.04468
20406,2023-01-20 10:50:52.160047,172267910,39.8045626,32.3800185,757.72,23.47741,24.1174
20438,2023-01-20 10:50:52.260086,172367924,39.8045646,32.3800264,757.79,23.54951,24.18951
20469,2023-01-20 10:50:52.360109,172467903,39.8045665,32.3800342,757.87,23.62087,24.26087
20503,2023-01-20 10:50:52.460147,172567914,39.8045683,32.3800421,757.94,23.69726,24.33726
20537,2023-01-20 10:50:52.560213,172667963,39.8045702,32.3800501,758.02,23.77192,24.41192
20570,2023-01-20 10:50:52.660169,172767945,39.8045719,32.3800579,758.09,23.84636,24.48636
20601,2023-01-20 10:50:52.760110,172867940,39.8045735,32.3800658,758.17,23.9214,24.5614
20635,2023-01-20 10:50:52.860054,172967907,39.8045752,32.3800737,758.24,23.99678,24.63678
20666,2023-01-20 10:50:52.960048,173067903,39.8045769,32.3800816,758.31,24.06923,24.70923
20700,2023-01-20 10:50:53.060122,173167954,39.8045785,32.3800895,758.38,24.13716,24.77716
20732,2023-01-20 10:50:53.160111,173267904,39.80458,32.3800974,758.45,24.20143,24.84143
20764,2023-01-20 10:50:53.260159,173367928,39.8045814,32.3801053,758.5,24.25791,24.89791
20795,2023-01-20 10:50:53.360205,173467960,39.8045829,32.3801134,758.55,24.30912,24.94912
20829,2023-01-20 10:50:53.460124,173567903,39.8045845,32.3801216,758.59,24.34668,24.98668
20863,2023-01-20 10:50:53.560134,173667962,39.8045861,32.3801297,758.63,24.38031,25.02031
20897,2023-01-20 10:50:53.660129,173767938,39.8045877,32.3801381,758.65,24.40483,25.04483
20928,2023-01-20 10:50:53.760187,173867932,39.8045892,32.3801466,758.68,24.43499,25.07499
20964,2023-01-20 10:50:53.860475,173968236,39.8045909,32.3801552,758.7,24.45556,25.09556
20995,2023-01-20 10:50:53.960118,174067946,39.8045926,32.3801639,758.72,24.47943,25.11943
21029,2023-01-20 10:50:54.054629,174167958,39.8045943,32.3801724,758.75,24.50833,25.14833
21061,2023-01-20 10:50:54.145475,174267906,39.8045959,32.3801807,758.79,24.54957,25.18957
21093,2023-01-20 10:50:54.244515,174367924,39.8045975,32.3801889,758.84,24.59928,25.23928
21124,2023-01-20 10:50:54.355706,174467913,39.8045992,32.3801971,758.9,24.65356,25.29356
21159,2023-01-20 10:50:54.460149,174567903,39.8046007,32.3802051,758.95,24.70783,25.34783
21193,2023-01-20 10:50:54.560184,174667956,39.8046022,32.3802132,759.01,24.76866,25.40866
21226,2023-01-20 10:50:54.660152,174767952,39.8046037,32.3802213,759.08,24.83117,25.47117
21257,2023-01-20 10:50:54.760089,174867923,39.8046051,32.3802292,759.14,24.89812,25.53812
21291,2023-01-20 10:50:54.860050,174967903,39.8046064,32.3802372,759.21,24.96827,25.60826
21322,2023-01-20 10:50:54.960043,175067905,39.8046076,32.3802451,759.28,25.03976,25.67976
21356,2023-01-20 10:50:55.060100,175167938,39.8046088,32.3802529,759.35,25.104,25.744
21388,2023-01-20 10:50:55.160127,175267921,39.8046099,32.3802606,759.42,25.1733,25.8133
21420,2023-01-20 10:50:55.260166,175367972,39.8046112,32.3802683,759.49,25.24489,25.88489
21451,2023-01-20 10:50:55.360057,175467913,39.8046125,32.3802758,759.57,25.32188,25.96188
21485,2023-01-20 10:50:55.460073,175567911,39.8046134,32.3802833,759.65,25.4056,26.0456
21519,2023-01-20 10:50:55.560175,175667951,39.8046143,32.3802908,759.74,25.49442,26.13442
21552,2023-01-20 10:50:55.660173,175767921,39.8046153,32.3802983,759.83,25.5842,26.2242
21583,2023-01-20 10:50:55.760179,175867922,39.8046164,32.3803058,759.93,25.6804,26.3204
21617,2023-01-20 10:50:55.860140,175967914,39.8046176,32.3803135,760.03,25.7861,26.4261
21648,2023-01-20 10:50:55.960128,176067958,39.804619,32.3803212,760.14,25.89885,26.53885
21682,2023-01-20 10:50:56.060079,176167938,39.8046203,32.3803289,760.25,26.00954,26.64954
21714,2023-01-20 10:50:56.160043,176267913,39.8046216,32.3803367,760.36,26.11202,26.75202
21746,2023-01-20 10:50:56.254598,176367935,39.8046231,32.3803445,760.45,26.20941,26.84941
21777,2023-01-20 10:50:56.345479,176467908,39.8046247,32.3803521,760.55,26.30303,26.94303
21811,2023-01-20 10:50:56.440021,176567912,39.8046263,32.3803597,760.64,26.39583,27.03583
21845,2023-01-20 10:50:56.540091,176668001,39.8046278,32.3803673,760.73,26.4897,27.1297
21878,2023-01-20 10:50:56.639993,176767914,39.8046294,32.3803749,760.83,26.58622,27.22622
21909,2023-01-20 10:50:56.740004,176867924,39.804631,32.3803825,760.93,26.68709,27.32709
21943,2023-01-20 10:50:56.839965,176967903,39.8046327,32.3803902,761.03,26.78444,27.42444
21974,2023-01-20 10:50:56.939929,177067913,39.8046344,32.3803981,761.12,26.87679,27.51679
22008,2023-01-20 10:50:57.044415,177167933,39.8046362,32.380406,761.21,26.96827,27.60827
22040,2023-01-20 10:50:57.155642,177267908,39.804638,32.380414,761.29,27.04815,27.68815
22072,2023-01-20 10:50:57.254692,177367979,39.8046398,32.3804219,761.36,27.11893,27.75893
22102,2023-01-20 10:50:57.345477,177467910,39.8046416,32.3804298,761.43,27.1855,27.8255
22136,2023-01-20 10:50:57.439969,177567906,39.8046435,32.3804378,761.5,27.25016,27.89016
22170,2023-01-20 10:50:57.539992,177667960,39.8046454,32.3804457,761.56,27.31357,27.95357
22203,2023-01-20 10:50:57.639926,177767906,39.8046473,32.3804538,761.62,27.37777,28.01777
22234,2023-01-20 10:50:57.739973,177867935,39.8046491,32.3804619,761.69,27.44233,28.08232
22268,2023-01-20 10:50:57.839976,177967954,39.8046508,32.3804699,761.75,27.50836,28.14836
22299,2023-01-20 10:50:57.939866,178067912,39.8046524,32.3804778,761.82,27.57415,28.21415
22333,2023-01-20 10:50:58.039852,178167934,39.8046541,32.3804857,761.88,27.63618,28.27618
22365,2023-01-20 10:50:58.139843,178267914,39.8046559,32.3804936,761.94,27.69603,28.33603
22397,2023-01-20 10:50:58.239859,178367926,39.8046576,32.3805017,762,27.75503,28.39503
22428,2023-01-20 10:50:58.339829,178467905,39.8046594,32.3805098,762.06,27.81331,28.45331
22462,2023-01-20 10:50:58.439844,178567913,39.804661,32.3805178,762.12,27.87345,28.51345
22496,2023-01-20 10:50:58.539967,178668005,39.8046626,32.3805259,762.18,27.93827,28.57827
22529,2023-01-20 10:50:58.639882,178767904,39.8046641,32.380534,762.25,28.00764,28.64764
22561,2023-01-20 10:50:58.739912,178867941,39.8046656,32.3805421,762.32,28.0736,28.7136
22595,2023-01-20 10:50:58.839860,178967913,39.8046672,32.3805503,762.38,28.13604,28.77604
22628,2023-01-20 10:50:58.939801,179067904,39.8046688,32.3805585,762.44,28.19603,28.83603
22662,2023-01-20 10:50:59.039820,179167940,39.8046705,32.3805666,762.5,28.25325,28.89325
22694,2023-01-20 10:50:59.139863,179267948,39.8046722,32.3805748,762.55,28.30714,28.94714
22726,2023-01-20 10:50:59.239860,179367926,39.8046739,32.3805829,762.61,28.36648,29.00648
22757,2023-01-20 10:50:59.339844,179467913,39.8046756,32.3805908,762.68,28.43054,29.07054
22791,2023-01-20 10:50:59.439825,179567905,39.8046773,32.3805988,762.74,28.49736,29.13736
22825,2023-01-20 10:50:59.539849,179667952,39.8046789,32.3806068,762.81,28.564,29.204
22858,2023-01-20 10:50:59.639820,179767915,39.8046805,32.3806147,762.88,28.63099,29.27099
22889,2023-01-20 10:50:59.739891,179867932,39.8046821,32.3806227,762.95,28.70037,29.34037
22923,2023-01-20 10:50:59.839921,179967949,39.8046837,32.3806308,763.01,28.76975,29.40975
22954,2023-01-20 10:50:59.939819,180067898,39.8046853,32.3806389,763.08,28.83692,29.47692
22988,2023-01-20 10:51:00.039827,180167940,39.8046868,32.3806468,763.16,28.9122,29.5522
23020,2023-01-20 10:51:00.139785,180267907,39.8046882,32.3806547,763.24,28.99445,29.63445
23052,2023-01-20 10:51:00.239814,180367928,39.8046895,32.3806625,763.33,29.08151,29.72151
23083,2023-01-20 10:51:00.339827,180467910,39.8046907,32.3806703,763.42,29.17233,29.81233
23117,2023-01-20 10:51:00.439881,180567952,39.8046919,32.3806781,763.51,29.26495,29.90495
23151,2023-01-20 10:51:00.539860,180667949,39.8046932,32.3806859,763.6,29.35566,29.99566
23184,2023-01-20 10:51:00.639816,180767913,39.8046943,32.3806936,763.69,29.44538,30.08538
23215,2023-01-20 10:51:00.739830,180867921,39.8046954,32.3807012,763.78,29.53772,30.17772
23249,2023-01-20 10:51:00.839825,180967916,39.8046965,32.3807089,763.88,29.63014,30.27014
23280,2023-01-20 10:51:00.939824,181067926,39.8046976,32.3807164,763.97,29.7219,30.3619
23314,2023-01-20 10:51:01.039843,181167943,39.8046988,32.380724,764.06,29.81417,30.45417
23346,2023-01-20 10:51:01.139877,181267954,39.8047001,32.3807317,764.15,29.90599,30.54599
23378,2023-01-20 10:51:01.239860,181367927,39.8047015,32.3807393,764.24,29.99352,30.63352
23409,2023-01-20 10:51:01.339832,181467906,39.8047029,32.3807472,764.33,30.08025,30.72025
23443,2023-01-20 10:51:01.439839,181567915,39.8047045,32.3807551,764.41,30.16564,30.80564
23477,2023-01-20 10:51:01.539881,181667954,39.8047063,32.3807628,764.49,30.24742,30.88742
23510,2023-01-20 10:51:01.639844,181767915,39.8047081,32.3807706,764.57,30.32503,30.96502
23541,2023-01-20 10:51:01.739899,181867973,39.80471,32.3807786,764.65,30.40049,31.04049
23575,2023-01-20 10:51:01.839812,181967899,39.8047118,32.3807866,764.72,30.47266,31.11266
23606,2023-01-20 10:51:01.939797,182067915,39.8047135,32.3807947,764.79,30.54373,31.18373
23640,2023-01-20 10:51:02.039805,182167935,39.8047153,32.3808028,764.86,30.614,31.254
23672,2023-01-20 10:51:02.139787,182267903,39.804717,32.3808108,764.93,30.68193,31.32193
23704,2023-01-20 10:51:02.239834,182367933,39.8047187,32.3808189,764.99,30.7473,31.3873
23735,2023-01-20 10:51:02.339835,182467910,39.8047204,32.3808268,765.06,30.81166,31.45166
23769,2023-01-20 10:51:02.439876,182567945,39.8047221,32.3808347,765.12,30.87279,31.51279
23803,2023-01-20 10:51:02.539873,182667962,39.8047238,32.3808427,765.18,30.93382,31.57382
23836,2023-01-20 10:51:02.639802,182767907,39.8047255,32.3808507,765.24,30.99421,31.63421
23867,2023-01-20 10:51:02.739805,182867921,39.8047272,32.3808586,765.3,31.05215,31.69214
23901,2023-01-20 10:51:02.839789,182967908,39.804729,32.3808667,765.35,31.10992,31.74992
23932,2023-01-20 10:51:02.939794,183067903,39.8047309,32.3808747,765.41,31.16714,31.80714
23966,2023-01-20 10:51:03.039893,183167991,39.8047327,32.3808826,765.47,31.22604,31.86604
23998,2023-01-20 10:51:03.139816,183267901,39.8047344,32.3808906,765.53,31.28803,31.92803
