LineNo,UTC_Approx,TimeUS,TPD,PD,DVD,TVD,VD,DAD,TAD,AD
381,2023-01-20 10:49:56.259343,116248365,-0.6490828,-0.6490828,-0.02300413,-0.02300413,-0.02300413,0.001871109,0.001871109,0.001871109
971,2023-01-20 10:49:56.350342,116348414,-0.6537236,-0.6537236,-0.0232251,-0.0232251,-0.0232251,0.01689339,0.01689339,0.01689339
1129,2023-01-20 10:49:56.452342,116454883,-0.6599636,-0.6599636,-0.0259636,-0.0259636,-0.0259636,-0.00406456,-0.00406456,-0.00406456
1348,2023-01-20 10:49:56.564986,116566519,-0.6664838,-0.6664838,-0.02780981,-0.02780981,-0.02780981,0.0007715225,0.0007715225,0.0007715225
1568,2023-01-20 10:49:56.665846,116667313,-0.674683,-0.674683,-0.03029707,-0.03029707,-0.03029707,-0.004910469,-0.004910469,-0.004910469
1888,2023-01-20 10:49:56.765448,116767289,-0.6828759,-0.6828759,-0.03283044,-0.03283044,-0.03283044,-0.0008096695,-0.0008096695,-0.0008096695
1933,2023-01-20 10:49:56.865330,116867301,-0.6920834,-0.6920834,-0.03504983,-0.03504983,-0.03504983,-0.00130558,-0.00130558,-0.00130558
1981,2023-01-20 10:49:56.965301,116967273,-0.7005243,-0.7005243,-0.03528036,-0.03528036,-0.03528036,0.01262951,0.01262951,0.01262951
2031,2023-01-20 10:49:57.065341,117067300,-0.7106267,-0.7106267,-0.03810063,-0.03810063,-0.03810063,0.007854462,0.007854462,0.007854462
2077,2023-01-20 10:49:57.165378,117167316,-0.7202107,-0.7202107,-0.04018411,-0.04018411,-0.04018411,0.01303196,0.01303196,0.01303196
2127,2023-01-20 10:49:57.272544,117267271,-0.7292143,-0.7292143,-0.04320331,-0.04320331,-0.04320331,-0.002221107,-0.002221107,-0.002221107
2186,2023-01-20 10:49:57.383604,117367303,-0.7368945,-0.7368945,-0.04459681,-0.04459681,-0.04459681,-0.001386642,-0.001386642,-0.001386642
2242,2023-01-20 10:49:57.477506,117467323,-0.7474092,-0.7474092,-0.04749349,-0.04749349,-0.04749349,-0.001156807,-0.001156807,-0.001156807
2301,2023-01-20 10:49:57.568375,117567274,-0.7558641,-0.7558641,-0.04861818,-0.04861818,-0.04861818,0.0108881,0.0108881,0.0108881
2357,2023-01-20 10:49:57.665233,117667307,-0.7659791,-0.7659791,-0.05133052,-0.05133052,-0.05133052,-0.0003471375,-0.0003471375,-0.0003471375
2415,2023-01-20 10:49:57.765256,117767352,-0.7753752,-0.7753752,-0.05279587,-0.05279587,-0.05279587,0.003807068,0.003807068,0.003807068
2458,2023-01-20 10:49:57.865175,117867299,-0.7862034,-0.7862034,-0.05416277,-0.05416277,-0.05416277,0.0239439,0.0239439,0.0239439
2503,2023-01-20 10:49:57.965122,117967275,-0.79611,-0.79611,-0.05672798,-0.05672798,-0.05672798,-0.001922607,-0.001922607,-0.001922607
2542,2023-01-20 10:49:58.065224,118067334,-0.8051342,-0.8051342,-0.05834372,-0.05834372,-0.05834372,0.004158974,0.004158974,0.004158974
2584,2023-01-20 10:49:58.165284,118167312,-0.812546,-0.812546,-0.05923188,-0.05923188,-0.05923188,-0.001461983,-0.001461983,-0.001461983
2624,2023-01-20 10:49:58.265260,118267279,-0.8221784,-0.8221784,-0.06122065,-0.06122065,-0.06122065,0.001589775,0.001589775,0.001589775
2664,2023-01-20 10:49:58.365250,118367299,-0.8314248,-0.8314248,-0.06271531,-0.06271531,-0.06271531,0.0003757477,0.0003757477,0.0003757477
2703,2023-01-20 10:49:58.465275,118467336,-0.8415545,-0.8415545,-0.06362752,-0.06362752,-0.06362752,0.01106548,0.01106548,0.01106548
2744,2023-01-20 10:49:58.565215,118567278,-0.8505016,-0.8505016,-0.0651248,-0.0651248,-0.0651248,0.005358696,0.005358696,0.005358696
2786,2023-01-20 10:49:58.665224,118667305,-0.8596936,-0.8596936,-0.0670505,-0.0670505,-0.0670505,0.002857208,0.002857208,0.002857208
2825,2023-01-20 10:49:58.765238,118767346,-0.8677279,-0.8677279,-0.0681276,-0.0681276,-0.0681276,0.004464149,0.004464149,0.004464149
2869,2023-01-20 10:49:58.865186,118867302,-0.8750277,-0.8750277,-0.06889751,-0.06889751,-0.06889751,-4.386902E-05,-4.386902E-05,-4.386902E-05
2908,2023-01-20 10:49:58.965162,118967276,-0.8809326,-0.8809326,-0.06910205,-0.06910205,-0.06910205,0.01332951,0.01332951,0.01332951
2947,2023-01-20 10:49:59.065230,119067327,-0.8889166,-0.8889166,-0.06994396,-0.06994396,-0.06994396,0.008211136,0.008211136,0.008211136
2988,2023-01-20 10:49:59.165239,119167309,-0.8963207,-0.8963207,-0.06903117,-0.06903117,-0.06903117,-0.0005989075,-0.0005989075,-0.0005989075
3027,2023-01-20 10:49:59.265210,119267272,-0.9041128,-0.9041128,-0.07186146,-0.07186146,-0.07186146,-0.05822277,-0.05822277,-0.05822277
3066,2023-01-20 10:49:59.365245,119367308,-0.9105298,-0.9105298,-0.07147845,-0.07147845,-0.07147845,-0.057477,-0.057477,-0.057477
3106,2023-01-20 10:49:59.465248,119467315,-0.9171809,-0.9171809,-0.07114223,-0.07114223,-0.07114223,0.01163387,0.01163387,0.01163387
3147,2023-01-20 10:49:59.565209,119567280,-0.9223962,-0.9223962,-0.07682136,-0.07682136,-0.07682136,0.0504818,0.0504818,0.0504818
3188,2023-01-20 10:49:59.665240,119667324,-0.928717,-0.928717,-0.07593465,-0.07593465,-0.07593465,-0.02874947,-0.02874947,-0.02874947
3227,2023-01-20 10:49:59.765246,119767349,-0.933974,-0.933974,-0.07459607,-0.07459607,-0.07459607,0.02892399,0.02892399,0.02892399
3266,2023-01-20 10:49:59.865175,119867287,-0.936923,-0.936923,-0.07773236,-0.07773236,-0.07773236,0.06260777,0.06260777,0.06260777
3305,2023-01-20 10:49:59.965172,119967289,-0.9380639,-0.9380639,-0.07777854,-0.07777854,-0.07777854,-0.03524017,-0.03524017,-0.03524017
3344,2023-01-20 10:50:00.065207,120067308,-0.9374986,-0.9374986,-0.07451708,-0.07451708,-0.07451708,-0.03924942,-0.03924942,-0.03924942
3386,2023-01-20 10:50:00.165235,120167309,-0.9356146,-0.9356146,-0.07071295,-0.07071295,-0.07071295,0.04010868,0.04010868,0.04010868
3425,2023-01-20 10:50:00.265211,120267281,-0.9335658,-0.9335658,-0.07226944,-0.07226944,-0.07226944,-0.002569199,-0.002569199,-0.002569199
3464,2023-01-20 10:50:00.365222,120367300,-0.9312696,-0.9312696,-0.06677964,-0.06677964,-0.06677964,0.004440308,0.004440308,0.004440308
3504,2023-01-20 10:50:00.465205,120467281,-0.9296562,-0.9296562,-0.06906009,-0.06906009,-0.06906009,0.05824471,0.05824471,0.05824471
3544,2023-01-20 10:50:00.565216,120567285,-0.9280178,-0.9280178,-0.07082541,-0.07082541,-0.07082541,-0.03948307,-0.03948307,-0.03948307
3587,2023-01-20 10:50:00.665228,120667303,-0.9278606,-0.9278606,-0.06749161,-0.06749161,-0.06749161,-0.07892609,-0.07892609,-0.07892609
3626,2023-01-20 10:50:00.765256,120767343,-0.9276835,-0.9276835,-0.06215046,-0.06215046,-0.06215046,-0.0006904602,-0.0006904602,-0.0006904602
3667,2023-01-20 10:50:00.865186,120867289,-0.9264167,-0.9264167,-0.06587733,-0.06587733,-0.06587733,0.04588795,0.04588795,0.04588795
3704,2023-01-20 10:50:00.965157,120967278,-0.9241972,-0.9241972,-0.06319456,-0.06319456,-0.06319456,-0.003744125,-0.003744125,-0.003744125
3736,2023-01-20 10:50:01.065242,121067366,-0.9236029,-0.9236029,-0.06150464,-0.06150464,-0.06150464,0.03061581,0.03061581,0.03061581
3769,2023-01-20 10:50:01.165253,121167370,-0.922752,-0.922752,-0.06277212,-0.06277212,-0.06277212,0.04352379,0.04352379,0.04352379
3801,2023-01-20 10:50:01.265195,121267345,-0.9222555,-0.9222555,-0.062681,-0.062681,-0.062681,-0.04586983,-0.04586983,-0.04586983
3832,2023-01-20 10:50:01.365196,121367400,-0.921078,-0.921078,-0.06230055,-0.06230055,-0.06230055,-0.01265812,-0.01265812,-0.01265812
3864,2023-01-20 10:50:01.465137,121467326,-0.9217792,-0.9217792,-0.05983962,-0.05983962,-0.05983962,0.1091366,0.1091366,0.1091366
3897,2023-01-20 10:50:01.565193,121567331,-0.9222731,-0.9222731,-0.05858183,-0.05858183,-0.05858183,0.1249771,0.1249771,0.1249771
3932,2023-01-20 10:50:01.665283,121667402,-0.9264023,-0.9264023,-0.08053914,-0.08053914,-0.08053914,0.0781908,0.0781908,0.0781908
3963,2023-01-20 10:50:01.765529,121767646,-0.9302795,-0.9302795,-0.06167331,-0.06167331,-0.06167331,0.1847324,0.1847324,0.1847324
3996,2023-01-20 10:50:01.865474,121867640,-0.9352274,-0.9352274,-0.07859359,-0.07859359,-0.07859359,-0.3229971,-0.3229971,-0.3229971
4028,2023-01-20 10:50:01.965433,121967674,-0.9445217,-0.9434947,-0.1765859,-0.1776129,-0.1677164,-1.163223,-1.156263,-1.464077
4060,2023-01-20 10:50:02.065421,122067645,-0.9671942,-0.9643877,-0.2685332,-0.2713397,-0.3913116,-0.6632234,-0.2414381,-2.232136
4093,2023-01-20 10:50:02.165503,122167661,-0.9965615,-1.002754,-0.3104806,-0.3042881,-0.5421461,-0.1632234,0.851185,-1.058331
4125,2023-01-20 10:50:02.265558,122267694,-1.027623,-1.046764,-0.3024279,-0.2832867,-0.5053558,0.3367766,1.543898,0.2775002
4156,2023-01-20 10:50:02.365493,122367631,-1.055533,-1.087666,-0.2530031,-0.2208704,-0.4892796,0.5060062,1.805918,0.5684481
4188,2023-01-20 10:50:02.465229,122467628,-1.078459,-1.129614,-0.2070376,-0.1558823,-0.437738,0.4140752,1.782842,0.6794434
4221,2023-01-20 10:50:02.564614,122567410,-1.097279,-1.166013,-0.1707339,-0.102,-0.3642873,0.329506,1.657318,0.708952
4257,2023-01-20 10:50:02.664457,122667370,-1.112856,-1.200819,-0.1433949,-0.05543167,-0.2989053,0.2030578,1.384705,0.8486328
4287,2023-01-20 10:50:02.764485,122767361,-1.126503,-1.229334,-0.1321222,-0.02929191,-0.2093717,0.0608951,1.039168,0.7515564
4322,2023-01-20 10:50:02.864510,122867389,-1.139796,-1.269882,-0.1373187,-0.007232685,-0.1534027,-0.1081378,0.6778139,0.4639645
4352,2023-01-20 10:50:02.964441,122967345,-1.154364,-1.308114,-0.1577306,-0.003980465,-0.1500614,-0.2945866,0.3518259,0.4056215
4385,2023-01-20 10:50:03.064466,123067380,-1.171729,-1.356531,-0.1914091,-0.006607056,-0.1031772,-0.3995786,0.1163786,0.1771927
4417,2023-01-20 10:50:03.164533,123167449,-1.192958,-1.403251,-0.2336471,-0.0233539,-0.1201047,-0.429835,0.0416848,0.06604767
4450,2023-01-20 10:50:03.264439,123267352,-1.218538,-1.465759,-0.278527,-0.03130573,-0.1220376,-0.4716542,-0.07980156,0.02803326
4480,2023-01-20 10:50:03.364451,123367359,-1.248762,-1.516631,-0.3266294,-0.05876075,-0.1346377,-0.4950665,-0.1583424,-0.3254557
4513,2023-01-20 10:50:03.464458,123467355,-1.283854,-1.556368,-0.3760549,-0.1035407,-0.1048243,-0.5636797,-0.3307791,-0.2701292
4545,2023-01-20 10:50:03.564449,123567333,-1.324366,-1.582651,-0.4356554,-0.17737,-0.09602528,-0.6717514,-0.7010474,-0.177557
4581,2023-01-20 10:50:03.664496,123667377,-1.371592,-1.603681,-0.5118906,-0.2798013,-0.1960522,-0.8589798,-1.192691,-0.3064127
4611,2023-01-20 10:50:03.764487,123767372,-1.427613,-1.624629,-0.6090313,-0.4120159,-0.2552218,-0.9230857,-1.539951,-0.8234348
4645,2023-01-20 10:50:03.864680,123867365,-1.492772,-1.657107,-0.6913168,-0.5269815,-0.3560404,-0.7465529,-1.47976,-1.114585
4677,2023-01-20 10:50:03.965014,123967388,-1.565311,-1.698404,-0.7541258,-0.621033,-0.5137908,-0.4166168,-1.146093,-0.9320878
4710,2023-01-20 10:50:04.065129,124067350,-1.642169,-1.753739,-0.7766733,-0.6651038,-0.5885608,-0.003674011,-0.5776374,-0.9595442
4742,2023-01-20 10:50:04.165226,124167380,-1.719275,-1.815533,-0.760806,-0.6645474,-0.5836631,0.3054599,-0.01197277,-0.2950354
4775,2023-01-20 10:50:04.265268,124267401,-1.793455,-1.880106,-0.7181027,-0.631452,-0.6355532,0.6192849,0.583033,-0.179492
4805,2023-01-20 10:50:04.365228,124367365,-1.861787,-1.943599,-0.6501096,-0.5682979,-0.6019672,0.5466308,0.7915053,0.2122688
4838,2023-01-20 10:50:04.465172,124467337,-1.924654,-2.002394,-0.6138231,-0.5360829,-0.5970803,0.1444044,0.453164,0.4439983
4871,2023-01-20 10:50:04.565146,124567351,-1.985675,-2.055571,-0.6090585,-0.5391628,-0.5874676,-0.01394035,0.1763666,0.291584
4907,2023-01-20 10:50:04.665182,124667373,-2.046618,-2.10946,-0.6097524,-0.5469103,-0.5532284,-0.01255257,0.0255579,0.1385708
4937,2023-01-20 10:50:04.765219,124767368,-2.107888,-2.164021,-0.6168123,-0.5606794,-0.5517859,-0.09412643,-0.1478804,0.08199787
4971,2023-01-20 10:50:04.865236,124867401,-2.170169,-2.225831,-0.6292253,-0.573563,-0.5741182,-0.1171475,-0.1481131,-0.1873913
5001,2023-01-20 10:50:04.965137,124967350,-2.233897,-2.292733,-0.6469122,-0.5880763,-0.6170662,-0.2013908,-0.166728,-0.2497463
5034,2023-01-20 10:50:05.065175,125067372,-2.299509,-2.361711,-0.6648155,-0.6026132,-0.6583373,-0.1536226,-0.05642841,0.08094025
5066,2023-01-20 10:50:05.165222,125167371,-2.366655,-2.42954,-0.6775184,-0.6146337,-0.6448954,-0.1042934,-0.04242588,-0.07775116
5099,2023-01-20 10:50:05.265209,125267344,-2.434802,-2.498652,-0.684239,-0.6203888,-0.6250624,-0.007120056,0.004702074,-0.03667355
5129,2023-01-20 10:50:05.365557,125367697,-2.503167,-2.569741,-0.6811592,-0.6145843,-0.6647969,0.09532821,0.1703406,-0.02986908
5162,2023-01-20 10:50:05.465209,125467342,-2.570628,-2.645111,-0.6662605,-0.5917775,-0.6456988,0.2081191,0.3810835,0.1904478
5194,2023-01-20 10:50:05.565236,125567355,-2.636012,-2.718355,-0.6394202,-0.5570771,-0.6050029,0.3099409,0.553847,0.4619465
5231,2023-01-20 10:50:05.665256,125667368,-2.69841,-2.789838,-0.6093651,-0.5179378,-0.5686444,0.275608,0.5541029,0.3910847
5261,2023-01-20 10:50:05.765542,125767652,-2.75799,-2.85799,-0.5832316,-0.4832316,-0.5666867,0.2573723,0.5806482,0.370265
5295,2023-01-20 10:50:05.859595,125867652,-2.814544,-2.920269,-0.5453839,-0.4396591,-0.5009331,0.3850261,0.769143,0.4054956
5325,2023-01-20 10:50:05.950492,125967621,-2.867337,-2.97923,-0.5104828,-0.3985895,-0.4930431,0.3630708,0.7592294,0.4949236
5358,2023-01-20 10:50:06.045599,126067653,-2.917021,-3.038685,-0.4889594,-0.367295,-0.4250347,0.1047131,0.482523,0.1970472
5390,2023-01-20 10:50:06.145356,126167374,-2.964737,-3.097031,-0.4601679,-0.3278749,-0.4139376,0.3820584,0.7485594,0.5288305
5423,2023-01-20 10:50:06.244795,126267353,-3.009211,-3.153085,-0.4326723,-0.2887987,-0.3861346,0.2209924,0.5828825,0.4762325
5455,2023-01-20 10:50:06.343812,126367608,-3.051232,-3.20811,-0.4074532,-0.2505758,-0.3377076,0.228782,0.6169678,0.3620348
5488,2023-01-20 10:50:06.442842,126467346,-3.090789,-3.261197,-0.3830808,-0.2126725,-0.2873432,0.275731,0.6783891,0.4918594
5520,2023-01-20 10:50:06.542837,126567353,-3.127887,-3.312184,-0.3593476,-0.1750502,-0.1855695,0.3163005,0.5890553,0.7919626
5556,2023-01-20 10:50:06.642869,126667420,-3.161981,-3.361886,-0.3233916,-0.1234874,-0.1935056,0.311855,0.6050385,0.2205534
5586,2023-01-20 10:50:06.742746,126767361,-3.19228,-3.410961,-0.2793687,-0.06068798,-0.1626443,0.4750053,0.9191151,0.4595089
5620,2023-01-20 10:50:06.842670,126867360,-3.218184,-3.456838,-0.2397967,-0.001142178,-0.1416134,0.4197847,0.9539641,0.626482
5650,2023-01-20 10:50:06.942582,126967362,-3.240242,-3.497493,-0.2037385,0.05351213,-0.03666822,0.2527627,0.7239143,0.8829336
5683,2023-01-20 10:50:07.042576,127067415,-3.25937,-3.531922,-0.1761138,0.09643772,0.02742585,0.3522277,0.705975,0.4843168
5715,2023-01-20 10:50:07.142504,127167361,-3.27533,-3.56282,-0.1441175,0.1433727,0.07553482,0.2882351,0.624518,0.4369345
5748,2023-01-20 10:50:07.242503,127267343,-3.288388,-3.591093,-0.1179343,0.1847708,0.1290243,0.2358686,0.4645043,0.6361971
5778,2023-01-20 10:50:07.342851,127367628,-3.299075,-3.618992,-0.09650797,0.2234093,0.1960587,0.1930159,0.3504544,0.2524614
5811,2023-01-20 10:50:07.442552,127467330,-3.30782,-3.642664,-0.07897443,0.2558696,0.2014042,0.1579489,0.3418339,0.3538485
5843,2023-01-20 10:50:07.542478,127567342,-3.314976,-3.662887,-0.06462637,0.2832844,0.2770042,0.1292527,0.3000526,0.4869194
5879,2023-01-20 10:50:07.647246,127667374,-3.320836,-3.677258,-0.05332633,0.3030952,0.3298415,0.08272921,0.1488573,0.3672466
5909,2023-01-20 10:50:07.758492,127767349,-3.325734,-3.689199,-0.04530934,0.3181562,0.3268073,0.0184649,0.05748547,0.3510818
5943,2023-01-20 10:50:07.856930,127867359,-3.330696,-3.698265,-0.06018486,0.3073838,0.3195904,-0.2743671,-0.2855014,-0.02959728
5975,2023-01-20 10:50:07.947722,127967365,-3.338004,-3.707456,-0.08451687,0.2849344,0.3004668,-0.1898179,-0.2804921,0.02513885
6008,2023-01-20 10:50:08.042405,128067361,-3.347243,-3.719132,-0.09834822,0.2735408,0.2431714,-0.116361,-0.1903577,-0.2391558
6040,2023-01-20 10:50:08.142452,128167426,-3.357879,-3.733826,-0.1155864,0.2603609,0.2770667,-0.2583565,-0.2888066,-0.1264429
6073,2023-01-20 10:50:08.242368,128267335,-3.370941,-3.748645,-0.145185,0.2325189,0.264565,-0.271831,-0.4091607,0.02558422
6103,2023-01-20 10:50:08.342704,128367629,-3.386753,-3.766811,-0.1710571,0.2090012,0.2462667,-0.2679336,-0.40663,-0.1109695
6136,2023-01-20 10:50:08.442440,128467344,-3.405165,-3.78574,-0.1977131,0.1828621,0.1933818,-0.2633093,-0.3752422,-0.06693268
6168,2023-01-20 10:50:08.542435,128567345,-3.425962,-3.804852,-0.2138344,0.1650554,0.1832336,-0.002953224,-0.1503401,-0.008066177
6204,2023-01-20 10:50:08.642455,128667373,-3.447292,-3.825121,-0.2124058,0.1654229,0.1497955,0.01811298,-0.09346622,-0.0723753
6234,2023-01-20 10:50:08.742433,128767359,-3.468497,-3.84798,-0.2128234,0.166659,0.1571905,-0.0288987,-0.0780459,-0.1182508
6268,2023-01-20 10:50:08.842511,128867400,-3.489902,-3.871888,-0.2143946,0.1675909,0.1748514,0.02209061,-0.02555701,-0.02808094
6301,2023-01-20 10:50:08.942547,128967338,-3.511401,-3.900279,-0.2184484,0.1704295,0.1858385,-0.1253041,-0.03918425,-0.239706
6334,2023-01-20 10:50:09.042644,129067362,-3.533869,-3.929392,-0.2317876,0.1637358,0.1444205,-0.1584345,0.03472688,-0.0338583
6366,2023-01-20 10:50:09.142690,129167370,-3.557685,-3.962438,-0.2416858,0.163067,0.1066627,-0.01863808,0.1952916,0.2118568
6399,2023-01-20 10:50:09.242608,129267343,-3.581871,-3.993508,-0.2402811,0.1713559,0.1357786,0.07386356,0.296973,-0.1233864
6429,2023-01-20 10:50:09.342711,129367626,-3.605411,-4.025538,-0.2275397,0.1925879,0.1194044,0.2446783,0.6032267,-0.05212498
6462,2023-01-20 10:50:09.442420,129467962,-3.626622,-4.063118,-0.1935887,0.2429061,0.1809963,0.3871773,0.8325285,0.5357647
6494,2023-01-20 10:50:09.541267,129568028,-3.644165,-4.093099,-0.1584175,0.2905162,0.1876245,0.316835,0.788293,0.6591587
6530,2023-01-20 10:50:09.640547,129668034,-3.65852,-4.121478,-0.1296362,0.3333212,0.2349733,0.2592724,0.7233896,0.557476
6560,2023-01-20 10:50:09.740531,129768019,-3.670267,-4.148262,-0.1060839,0.3719111,0.2493387,0.2121678,0.744109,0.4597673
6594,2023-01-20 10:50:09.840591,129868089,-3.679879,-4.172822,-0.08681063,0.4061319,0.2884432,0.1736213,0.691154,0.6068182
6625,2023-01-20 10:50:09.940524,129968044,-3.687744,-4.193881,-0.0710389,0.4350982,0.3449197,0.1420778,0.602711,0.6354513
6658,2023-01-20 10:50:10.040535,130068058,-3.69418,-4.212042,-0.05813256,0.4597291,0.3823816,0.1162651,0.4961642,0.6162033
6690,2023-01-20 10:50:10.140618,130168116,-3.699449,-4.229203,-0.04757105,0.482183,0.4026956,0.0951421,0.4638136,0.4581413
6723,2023-01-20 10:50:10.240443,130268031,-3.70376,-4.246885,-0.03892834,0.5041966,0.4211622,0.07785669,0.4566362,0.3413744
6753,2023-01-20 10:50:10.340279,130368125,-3.707288,-4.262687,-0.03185585,0.5235433,0.4494162,0.0637117,0.4236515,0.3806438
6786,2023-01-20 10:50:10.440038,130468050,-3.710174,-4.279103,-0.02606829,0.5428609,0.4970149,0.05213657,0.4060172,0.1587429
6818,2023-01-20 10:50:10.540030,130568069,-3.712538,-4.296932,-0.02133221,0.5630611,0.477099,0.04266442,0.3631045,0.418313
6854,2023-01-20 10:50:10.640033,130668095,-3.714471,-4.310343,-0.01745657,0.5784156,0.5426512,0.03491315,0.2991707,0.2610025
6884,2023-01-20 10:50:10.739978,130768058,-3.716053,-4.322495,-0.01428507,0.5921566,0.5786273,0.02857013,0.2515353,0.3754616
6918,2023-01-20 10:50:10.840003,130868129,-3.717346,-4.330682,-0.01168976,0.6016461,0.6047367,0.02337951,0.1302851,0.3118839
6948,2023-01-20 10:50:10.939863,130968078,-3.718406,-4.336989,-0.009565964,0.6090168,0.5916287,0.01913193,0.1420354,0.0938549
6981,2023-01-20 10:50:11.039865,131068098,-3.719273,-4.342267,-0.00782802,0.6151661,0.5604312,0.01565604,0.2102827,0.1887732
7013,2023-01-20 10:50:11.140033,131168180,-3.719982,-4.348119,-0.006405827,0.621731,0.5798851,0.01281165,0.2414355,0.1401281
7047,2023-01-20 10:50:11.239967,131268065,-3.720563,-4.355623,-0.005242018,0.6298184,0.5912732,0.01048404,0.2644986,0.2923365
7077,2023-01-20 10:50:11.339973,131368078,-3.721038,-4.367096,-0.004289649,0.6417684,0.6034869,0.008579298,0.2855066,0.117012
7110,2023-01-20 10:50:11.439954,131468060,-3.721427,-4.37869,-0.003510306,0.6537529,0.5788723,0.007020612,0.2800278,0.04641724
7141,2023-01-20 10:50:11.539967,131568068,-3.721745,-4.391984,-0.002872554,0.6673658,0.6100128,0.005745109,0.3392294,0.02929401
7177,2023-01-20 10:50:11.639988,131668085,-3.722005,-4.40569,-0.002350669,0.6813343,0.5461891,0.004701338,0.4454392,0.07111359
7207,2023-01-20 10:50:11.739965,131768063,-3.722218,-4.421884,-0.0019236,0.6977416,0.6027797,0.0038472,0.49626,0.3391256
7241,2023-01-20 10:50:11.839995,131868123,-3.722393,-4.437853,-0.001574121,0.7138867,0.5792553,0.003148242,0.5787968,0.1713438
7271,2023-01-20 10:50:11.939855,131968058,-3.722536,-4.454434,-0.001288135,0.73061,0.5987324,0.00257627,0.6507758,0.3587027
7304,2023-01-20 10:50:12.039873,132068089,-3.722652,-4.466397,-0.001054107,0.7426904,0.6275607,0.002108213,0.563955,0.5669136
7336,2023-01-20 10:50:12.140013,132168147,-3.722747,-4.477339,-0.0008625968,0.7537294,0.6370443,0.001725194,0.5095794,0.4745598
7369,2023-01-20 10:50:12.239985,132268072,-3.722826,-4.484939,-0.0007058803,0.7614071,0.7064929,0.001411761,0.419851,0.3308764
7399,2023-01-20 10:50:12.339996,132368087,-3.72289,-4.492284,-0.0005776361,0.7688166,0.6935802,0.001155272,0.318674,0.6042271
7432,2023-01-20 10:50:12.439956,132468052,-3.722941,-4.496898,-0.0004726912,0.7734839,0.7174572,0.0009453824,0.2257616,0.1002178
7464,2023-01-20 10:50:12.539962,132568065,-3.722984,-4.499512,-0.0003868127,0.7761412,0.7364175,0.0007736254,0.1994461,0.2413149
7500,2023-01-20 10:50:12.639979,132668083,-3.723021,-4.497066,-0.0003165367,0.7737291,0.7690368,0.0006330734,0.1094837,0.471283
7530,2023-01-20 10:50:12.739962,132768055,-3.723047,-4.491862,-0.0002590284,0.7685553,0.7701913,0.0005180567,0.00172449,0.395997
7564,2023-01-20 10:50:12.839961,132868077,-3.723072,-4.481859,-0.0002119682,0.758575,0.7749534,0.0004239363,-0.0778895,-0.009210587
7595,2023-01-20 10:50:12.939888,132968078,-3.723093,-4.474569,-0.0001734578,0.7513023,0.7634235,0.0003469157,-0.0707725,0.1753416
7628,2023-01-20 10:50:13.039869,133068073,-3.723105,-4.469176,-0.000141944,0.7459286,0.7676253,0.0002838881,-0.05557015,0.233367
7660,2023-01-20 10:50:13.140077,133168207,-3.723117,-4.465361,-0.0001161556,0.7421275,0.7198291,0.0002323113,0.01695789,-0.06241703
7693,2023-01-20 10:50:13.239967,133268054,-3.72313,-4.463426,-9.505248E-05,0.7402009,0.7030905,0.000190105,0.05394924,0.06556034
7723,2023-01-20 10:50:13.339984,133368074,-3.723142,-4.463823,-7.778336E-05,0.7406033,0.741857,0.0001555667,0.07434625,0.2655916
7756,2023-01-20 10:50:13.439965,133468057,-3.723154,-4.465575,-6.365169E-05,0.742357,0.7125183,0.0001273034,0.1479834,0.1436825
7788,2023-01-20 10:50:13.539973,133568064,-3.723156,-4.469211,-5.208745E-05,0.746002,0.7195652,0.0001041749,0.1745599,0.2511206
7824,2023-01-20 10:50:13.639995,133668087,-3.723156,-4.467699,-4.262421E-05,0.7444999,0.7056119,8.524842E-05,0.1460154,0.1672516
7854,2023-01-20 10:50:13.739967,133768060,-3.723156,-4.463022,-3.488025E-05,0.7398309,0.7161855,6.97605E-05,0.206678,0.1884794
7888,2023-01-20 10:50:13.839974,133868101,-3.723156,-4.450819,-2.854321E-05,0.7276344,0.6772654,5.708642E-05,0.1598079,0.2548342
7920,2023-01-20 10:50:13.939860,133968070,-3.723156,-4.436472,-2.335748E-05,0.7132921,0.659519,4.671497E-05,0.1034982,0.2127552
7953,2023-01-20 10:50:14.039863,134068094,-3.723156,-4.422189,-1.91139E-05,0.6990131,0.6773109,3.82278E-05,0.1504661,-0.1721964
7985,2023-01-20 10:50:14.139987,134168144,-3.723156,-4.406552,-1.564129E-05,0.6833804,0.6832694,3.128258E-05,0.08415103,0.3111486
8018,2023-01-20 10:50:14.239942,134268052,-3.723156,-4.380218,-1.279958E-05,0.6570486,0.719056,2.559916E-05,-0.2253727,0.3319263
8048,2023-01-20 10:50:14.339985,134368087,-3.723156,-4.351318,-1.047415E-05,0.6281508,0.7533423,2.094831E-05,-0.4543106,0.09328938
8081,2023-01-20 10:50:14.439970,134468068,-3.723156,-4.323496,-8.571209E-06,0.6003308,0.7185021,1.714242E-05,-0.5812346,-0.0006074905
8114,2023-01-20 10:50:14.539962,134568060,-3.723156,-4.301558,-7.013993E-06,0.5783951,0.6997919,1.402799E-05,-0.5475876,-0.131156
8150,2023-01-20 10:50:14.639985,134668083,-3.723156,-4.285029,-5.73969E-06,0.5618671,0.6591121,1.147938E-05,-0.5062704,0.1414289
8180,2023-01-20 10:50:14.739997,134768095,-3.723156,-4.272533,-4.696903E-06,0.5493718,0.650067,9.393805E-06,-0.4593432,-0.1223965
8214,2023-01-20 10:50:14.839960,134868092,-3.723156,-4.265801,-3.84357E-06,0.5426408,0.5846611,7.68714E-06,-0.3172825,-0.3641691
8244,2023-01-20 10:50:14.939857,134968073,-3.723156,-4.265692,-3.145271E-06,0.5425323,0.5613195,6.290542E-06,-0.1359556,-0.01756859
8277,2023-01-20 10:50:15.039845,135068085,-3.723156,-4.266477,-2.573838E-06,0.543318,0.5773348,5.147676E-06,-0.05797252,-0.264595
8309,2023-01-20 10:50:15.139959,135168134,-3.723156,-4.273113,-2.106224E-06,0.5499548,0.5133433,4.212448E-06,0.1261466,-0.03092289
8342,2023-01-20 10:50:15.239933,135268061,-3.723156,-4.281675,-1.723565E-06,0.5585166,0.4992492,3.447131E-06,0.2127495,0.1840372
8372,2023-01-20 10:50:15.339984,135368092,-3.723156,-4.289751,-1.410429E-06,0.5665928,0.5351263,2.820857E-06,0.1907228,0.1525002
8405,2023-01-20 10:50:15.440002,135468099,-3.723156,-4.297526,-1.154182E-06,0.5743687,0.479683,2.308364E-06,0.2753823,0.1603708
8437,2023-01-20 10:50:15.539961,135568061,-3.723156,-4.307205,-9.444904E-07,0.5840478,0.4918179,1.888981E-06,0.3162295,0.2081375
8473,2023-01-20 10:50:15.639989,135668090,-3.723156,-4.316285,-7.728956E-07,0.5931276,0.5396136,1.545791E-06,0.3683143,-0.1312294
8503,2023-01-20 10:50:15.739971,135768070,-3.723156,-4.326967,-6.324761E-07,0.6038098,0.5084341,1.264952E-06,0.4819709,0.08258629
8537,2023-01-20 10:50:15.839983,135868092,-3.723156,-4.334786,-5.175679E-07,0.6116291,0.5094945,1.035136E-06,0.4366474,0.5030146
8567,2023-01-20 10:50:15.939952,135968092,-3.723156,-4.341314,-4.235362E-07,0.6181569,0.5831402,8.470724E-07,0.3734986,0.194253
8600,2023-01-20 10:50:16.039948,136068094,-3.723156,-4.344873,-3.465883E-07,0.6217163,0.525149,6.931766E-07,0.3570933,0.2030163
8632,2023-01-20 10:50:16.139990,136168106,-3.723156,-4.346278,-2.836202E-07,0.6231211,0.565055,5.672403E-07,0.3006796,0.4576769
8665,2023-01-20 10:50:16.239943,136268062,-3.723156,-4.342437,-2.32092E-07,0.6192802,0.5959681,4.641841E-07,0.2174366,0.2589636
8695,2023-01-20 10:50:16.339892,136368065,-3.723156,-4.333182,-1.899256E-07,0.6100251,0.5640653,3.798511E-07,0.1245692,0.246315
8728,2023-01-20 10:50:16.439876,136468059,-3.723156,-4.319008,-1.554199E-07,0.5958513,0.5762607,3.108399E-07,-0.009032249,0.1924572
8760,2023-01-20 10:50:16.539979,136568104,-3.723156,-4.303561,-1.271832E-07,0.5804045,0.6231995,2.543665E-07,-0.09859209,-0.1269665
8796,2023-01-20 10:50:16.639988,136668079,-3.723156,-4.288003,-1.040766E-07,0.5648464,0.6057576,2.081532E-07,-0.1418914,-0.002239227
8826,2023-01-20 10:50:16.739969,136768062,-3.723156,-4.274513,-8.516798E-08,0.5513561,0.5738373,1.70336E-07,-0.1631391,-0.1062803
8860,2023-01-20 10:50:16.839972,136868077,-3.723156,-4.264422,-6.969469E-08,0.5412655,0.5521759,1.393894E-07,-0.1224258,-0.06555462
8890,2023-01-20 10:50:16.939932,136968060,-3.723156,-4.25698,-5.703255E-08,0.5338238,0.5484222,1.140651E-07,-0.08924638,0.03040028
8923,2023-01-20 10:50:17.039937,137068068,-3.723156,-4.252018,-4.667089E-08,0.5288619,0.5284882,9.334178E-08,-0.06037677,0.04963112
8955,2023-01-20 10:50:17.139998,137168100,-3.723156,-4.25208,-3.819173E-08,0.5289236,0.5063372,7.638346E-08,0.08925588,-0.2631779
8988,2023-01-20 10:50:17.240020,137268108,-3.723156,-4.255115,-3.125306E-08,0.531958,0.513311,6.250612E-08,0.09455114,0.2183104
9018,2023-01-20 10:50:17.340010,137368107,-3.723156,-4.257733,-2.557501E-08,0.5345764,0.5187104,5.115002E-08,0.03556805,-0.02533817
9051,2023-01-20 10:50:17.439962,137468060,-3.723156,-4.262096,-2.092855E-08,0.5389395,0.4959553,4.185709E-08,0.09045614,0.07938385
9083,2023-01-20 10:50:17.539970,137568057,-3.723156,-4.269618,-1.712625E-08,0.5464612,0.5023682,3.42525E-08,0.1758383,0.1660042
9119,2023-01-20 10:50:17.640049,137668130,-3.723156,-4.276466,-1.401476E-08,0.5533093,0.5151767,2.802952E-08,0.1976363,0.1499701
9149,2023-01-20 10:50:17.739989,137768070,-3.723156,-4.282806,-1.146856E-08,0.5596493,0.519038,2.293712E-08,0.237208,0.1896553
9183,2023-01-20 10:50:17.836440,137868085,-3.723156,-4.287185,-9.384956E-09,0.5640286,0.506443,1.876991E-08,0.2685152,0.01623249
9213,2023-01-20 10:50:17.927511,137968062,-3.723156,-4.290479,-7.679898E-09,0.5673224,0.5144067,1.53598E-08,0.2972826,0.0984211
9247,2023-01-20 10:50:18.022687,138068115,-3.723156,-4.291262,-6.284615E-09,0.5681058,0.5274925,1.256923E-08,0.2470942,0.4139738
9279,2023-01-20 10:50:18.133449,138168081,-3.723156,-4.291419,-5.142826E-09,0.5682626,0.5348759,1.028565E-08,0.230954,-0.08968258
9312,2023-01-20 10:50:18.239931,138268061,-3.723156,-4.292839,-4.208477E-09,0.5696826,0.5505196,8.416954E-09,0.2529555,0.01852894
9342,2023-01-20 10:50:18.340042,138368131,-3.723156,-4.298224,-3.443881E-09,0.5750681,0.5517476,6.887762E-09,0.2138047,0.4952793
9375,2023-01-20 10:50:18.436427,138468049,-3.723156,-4.304341,-2.818197E-09,0.5811844,0.561908,5.636395E-09,0.1133241,0.253952
9407,2023-01-20 10:50:18.527536,138568056,-3.723156,-4.310621,-2.306188E-09,0.5874649,0.5553668,4.612376E-09,0.09473537,0.1491051
9443,2023-01-20 10:50:18.620480,138668084,-3.723156,-4.31632,-1.8872E-09,0.5931634,0.5649586,3.774399E-09,0.122258,0.02640343
9473,2023-01-20 10:50:18.720438,138768076,-3.723156,-4.327189,-1.544333E-09,0.6040329,0.5365614,3.088666E-09,0.2160279,0.1931
9507,2023-01-20 10:50:18.820395,138868067,-3.723156,-4.33359,-1.263759E-09,0.610433,0.5644087,2.527518E-09,0.2174419,0.1841984
9539,2023-01-20 10:50:18.920356,138968064,-3.723156,-4.339773,-1.034159E-09,0.6166168,0.5636104,2.068319E-09,0.2348828,0.1782618
9572,2023-01-20 10:50:19.020385,139068115,-3.723156,-4.341725,-8.462736E-10,0.618569,0.5748392,1.692547E-09,0.2519503,0.125411
9604,2023-01-20 10:50:19.120394,139168088,-3.723156,-4.342971,-6.925229E-10,0.6198145,0.5789652,1.385046E-09,0.273827,0.1164932
9637,2023-01-20 10:50:19.220384,139268055,-3.723156,-4.340453,-5.667055E-10,0.6172961,0.5997143,1.133411E-09,0.1946793,0.2051907
9667,2023-01-20 10:50:19.320380,139368077,-3.723156,-4.338377,-4.637465E-10,0.6152206,0.5917763,9.27493E-10,0.1028578,0.1783457
9700,2023-01-20 10:50:19.420356,139468084,-3.723156,-4.333026,-3.794931E-10,0.6098694,0.6087102,7.589863E-10,0.06739065,0.163393
9732,2023-01-20 10:50:19.520294,139568075,-3.723156,-4.328854,-3.105469E-10,0.6056973,0.5892308,6.210938E-10,0.07980483,-0.09628963
9768,2023-01-20 10:50:19.620263,139668087,-3.723156,-4.32239,-2.541267E-10,0.5992337,0.5967976,5.082535E-10,0.05956337,0.1718025
9798,2023-01-20 10:50:19.720229,139768055,-3.723156,-4.312849,-2.07957E-10,0.5896921,0.6152543,4.15914E-10,-0.01365863,0.1925373
9832,2023-01-20 10:50:19.820233,139868064,-3.723156,-4.300395,-1.701754E-10,0.5772381,0.5714701,3.403508E-10,-0.1259147,0.1516161
9862,2023-01-20 10:50:19.920222,139968070,-3.723156,-4.288994,-1.39258E-10,0.5658374,0.5892019,2.785159E-10,-0.1555959,-0.1041698
9895,2023-01-20 10:50:20.020315,140068175,-3.723156,-4.275601,-1.139576E-10,0.5524451,0.5769482,2.279151E-10,-0.1186796,-0.0082798
9927,2023-01-20 10:50:20.120247,140168097,-3.723156,-4.261839,-9.325375E-11,0.5386829,0.5607519,1.865075E-10,-0.06389067,-0.2699871
9960,2023-01-20 10:50:20.220228,140268057,-3.723156,-4.247675,-7.631139E-11,0.524519,0.545018,1.526228E-10,-0.07052014,-0.03774452
9993,2023-01-20 10:50:20.320305,140368070,-3.729019,-4.232174,-1.129443E-06,0.5031537,0.5136034,-0.0001000249,-0.1115996,-0.1035089
10026,2023-01-20 10:50:20.420322,140468037,-3.729023,-4.214545,-0.0001134632,0.4854093,0.496277,-0.003011561,-0.1267792,0.0001955032
10058,2023-01-20 10:50:20.520324,140568044,-3.72906,-4.198141,-0.0007873013,0.4682932,0.478292,-0.01155633,-0.1456473,-0.01332855
10094,2023-01-20 10:50:20.620395,140668110,-3.729205,-4.185172,-0.002428164,0.4535392,0.4787987,-0.02295551,-0.1564235,-0.2567368
10124,2023-01-20 10:50:20.720365,140768042,-3.729542,-4.177235,-0.005058122,0.4426353,0.4435932,-0.03414384,-0.1200871,-0.1354418
10158,2023-01-20 10:50:20.820379,140868050,-3.73014,-4.171035,-0.008573334,0.4323214,0.476238,-0.04494093,-0.1202122,-0.05667686
10188,2023-01-20 10:50:20.920251,140968041,-3.731055,-4.169999,-0.01288032,0.4260634,0.4031031,-0.0553706,-0.04735008,-0.07803249
10221,2023-01-20 10:50:21.020188,141068062,-3.732331,-4.170523,-0.01791091,0.4202812,0.4339877,-0.065482,0.01627702,-0.2002001
10253,2023-01-20 10:50:21.120239,141168057,-3.734019,-4.17337,-0.02365118,0.4157,0.3749598,-0.07538083,0.08398751,0.02050304
10286,2023-01-20 10:50:21.220308,141268087,-3.736183,-4.175053,-0.0301268,0.4087434,0.3726152,-0.08517787,0.09373227,-0.05399513
10316,2023-01-20 10:50:21.320312,141368115,-3.738894,-4.177732,-0.03737625,0.401461,0.35468,-0.09495391,0.08474137,-0.0332222
10349,2023-01-20 10:50:21.420219,141468035,-3.742237,-4.180121,-0.04544859,0.3924362,0.3705945,-0.1047717,0.08893086,-0.1201153
10381,2023-01-20 10:50:21.520268,141568048,-3.746297,-4.187158,-0.05438605,0.3864742,0.3052189,-0.1146652,0.1521422,-0.06064129
10417,2023-01-20 10:50:21.620291,141668054,-3.751165,-4.19242,-0.06421924,0.3770356,0.3211919,-0.1246464,0.1198159,0.2199907
10447,2023-01-20 10:50:21.720224,141768049,-3.756927,-4.199223,-0.0749668,0.3673293,0.323952,-0.1347124,0.06814826,0.1051092
10481,2023-01-20 10:50:21.820186,141868063,-3.763672,-4.204583,-0.08664583,0.3542648,0.342664,-0.1448599,-0.01133758,-0.007635117
10511,2023-01-20 10:50:21.920201,141968091,-3.771493,-4.210886,-0.09927283,0.3401198,0.3051664,-0.1550859,-0.07042313,0.05892181
10544,2023-01-20 10:50:22.020171,142068062,-3.780483,-4.217486,-0.1128633,0.3241399,0.3538151,-0.1653871,-0.1207812,-0.07365894
10576,2023-01-20 10:50:22.120233,142168073,-3.790738,-4.226669,-0.1274321,0.3084981,0.3211319,-0.1757607,-0.1444906,-0.02283669
10609,2023-01-20 10:50:22.220239,142268046,-3.802358,-4.236152,-0.1429934,0.2908002,0.308087,-0.1862038,-0.2124685,0.2460327
10639,2023-01-20 10:50:22.320241,142368083,-3.815439,-4.249967,-0.1595577,0.2749698,0.29524,-0.1967118,-0.2874926,-0.2210455
10672,2023-01-20 10:50:22.420177,142468037,-3.830064,-4.263943,-0.1771137,0.2567653,0.25776,-0.2072681,-0.2349539,-0.1165562
10704,2023-01-20 10:50:22.520225,142568039,-3.8463,-4.282355,-0.1956384,0.2404172,0.2256092,-0.217853,-0.1594957,-0.1204853
10740,2023-01-20 10:50:22.620331,142668111,-3.864213,-4.302692,-0.2151094,0.2233696,0.220616,-0.2284506,-0.1673177,-0.1027117
10770,2023-01-20 10:50:22.720244,142768042,-3.883871,-4.330265,-0.2355111,0.2108827,0.1960313,-0.2390512,-0.1612569,-0.1471415
10804,2023-01-20 10:50:22.820237,142868054,-3.905349,-4.354358,-0.2568368,0.1921723,0.2001968,-0.2496512,-0.2329374,-0.06430721
10834,2023-01-20 10:50:22.920192,142968041,-3.928728,-4.377553,-0.2790871,0.169738,0.202221,-0.260251,-0.3405319,0.05351543
10867,2023-01-20 10:50:23.020215,143068079,-3.954098,-4.395258,-0.3022703,0.1388894,0.1577294,-0.2708543,-0.4347631,-0.1577845
10900,2023-01-20 10:50:23.120299,143168112,-3.981552,-4.412477,-0.3263962,0.1045279,0.1403719,-0.2814649,-0.4855137,-0.2351856
10933,2023-01-20 10:50:23.220308,143268086,-4.011187,-4.430862,-0.3514747,0.06820087,0.1071293,-0.2919863,-0.4953692,-0.2022285
10963,2023-01-20 10:50:23.320267,143368074,-4.043095,-4.452613,-0.3774379,0.03207966,0.07898237,-0.3003719,-0.5334532,0.0285902
10996,2023-01-20 10:50:23.420208,143468035,-4.077353,-4.477334,-0.403982,-0.004000931,0.05621185,-0.3042909,-0.5580539,-0.1058092
11028,2023-01-20 10:50:23.520231,143568044,-4.114008,-4.506258,-0.4307438,-0.03849464,-0.01476544,-0.3048329,-0.5251204,-0.4118967
11064,2023-01-20 10:50:23.620278,143668082,-4.153099,-4.541744,-0.4575493,-0.06890339,-0.07933196,-0.303896,-0.4229831,-0.5459614
11094,2023-01-20 10:50:23.720216,143768034,-4.19465,-4.584458,-0.4841868,-0.09437878,-0.0955996,-0.299064,-0.3485861,-0.3911963
11128,2023-01-20 10:50:23.820242,143868074,-4.238663,-4.633673,-0.5102735,-0.1152638,-0.1096782,-0.2898867,-0.3095561,-0.2304163
11161,2023-01-20 10:50:23.920252,143968101,-4.285105,-4.693986,-0.535539,-0.1266584,-0.1829443,-0.2791233,-0.139337,-0.3402109
11194,2023-01-20 10:50:24.020214,144068064,-4.333927,-4.75805,-0.5599324,-0.1358091,-0.1636046,-0.268299,-0.008472843,-0.3390865
11226,2023-01-20 10:50:24.120277,144168065,-4.385076,-4.826094,-0.5834476,-0.1424302,-0.1874972,-0.257434,0.09551162,-0.1021252
11259,2023-01-20 10:50:24.220281,144268033,-4.4385,-4.897556,-0.6060786,-0.1470234,-0.2636687,-0.2465257,0.1757033,-0.06553555
11289,2023-01-20 10:50:24.320242,144368056,-4.494139,-4.975702,-0.6278143,-0.1462512,-0.2496948,-0.2355739,0.2357017,0.2488956
11322,2023-01-20 10:50:24.420182,144468032,-4.551912,-5.050183,-0.6486385,-0.1503673,-0.2580815,-0.224581,0.1849603,-0.2669449
11355,2023-01-20 10:50:24.520303,144568088,-4.611747,-5.128839,-0.6685387,-0.1514471,-0.2853605,-0.2135477,0.3976587,-0.09333992
11392,2023-01-20 10:50:24.620308,144668057,-4.673571,-5.209296,-0.6875036,-0.1517791,-0.2763877,-0.2024744,0.4529482,0.242569
11422,2023-01-20 10:50:24.720209,144768039,-4.737296,-5.29443,-0.7055179,-0.1483835,-0.2814404,-0.1913635,0.4801239,0.2961893
11456,2023-01-20 10:50:24.820208,144868103,-4.807292,-5.382269,-0.7076984,-0.1327219,-0.2657013,0.2230846,0.9595959,0.08555794
11487,2023-01-20 10:50:24.920168,144968062,-4.876145,-5.472277,-0.6610151,-0.06488289,-0.2639527,0.7230846,1.666029,0.7603998
11520,2023-01-20 10:50:25.020181,145068069,-4.937831,-5.552749,-0.5648168,0.05010143,-0.2288575,1.129634,2.259547,0.6492682
11552,2023-01-20 10:50:25.120239,145168098,-4.98901,-5.624632,-0.462201,0.1734209,-0.1009646,0.924402,2.292449,1.145996
11586,2023-01-20 10:50:25.220230,145268067,-5.030891,-5.681502,-0.3782283,0.2723829,0.01237207,0.7564567,2.119114,1.084787
11616,2023-01-20 10:50:25.320232,145368075,-5.065164,-5.724366,-0.3095119,0.3496906,0.08689039,0.6190239,1.933743,0.6351337
11649,2023-01-20 10:50:25.420222,145468067,-5.09321,-5.758991,-0.2532799,0.4125007,0.1416162,0.5065597,1.844219,0.8479528
11681,2023-01-20 10:50:25.520295,145568127,-5.116161,-5.781966,-0.207264,0.4585416,0.2029592,0.4145281,1.730224,0.5112734
11717,2023-01-20 10:50:25.620268,145668092,-5.13494,-5.780106,-0.1696084,0.4755576,0.2450954,0.3392168,1.483653,0.9813089
11747,2023-01-20 10:50:25.720226,145768062,-5.150308,-5.753879,-0.1387939,0.4647766,0.4456706,0.2775879,0.8013225,1.640072
11780,2023-01-20 10:50:25.820265,145868116,-5.162884,-5.709447,-0.1135779,0.4329852,0.5342936,0.2271558,-0.02309069,0.975668
11812,2023-01-20 10:50:25.920186,145968061,-5.173174,-5.655749,-0.09294307,0.389632,0.5449383,0.1858861,-0.5921368,0.2468538
11845,2023-01-20 10:50:26.020187,146068073,-5.181595,-5.605326,-0.07605717,0.3476745,0.5161324,0.1521143,-0.7132997,-0.2422419
11877,2023-01-20 10:50:26.120238,146168087,-5.188488,-5.561626,-0.06223911,0.3108993,0.47596,0.1244782,-0.7268478,-0.2040052
11910,2023-01-20 10:50:26.220228,146268054,-5.194127,-5.517928,-0.05093151,0.2728691,0.5557935,0.101863,-1.12974,0.7679548
11940,2023-01-20 10:50:26.320201,146368063,-5.198742,-5.473555,-0.04167828,0.2331343,0.5571377,0.08335657,-1.483756,-0.3435192
11973,2023-01-20 10:50:26.420190,146468075,-5.202556,-5.439555,-0.03689982,0.2000997,0.4981829,-0.05854782,-1.61322,-0.3731337
12005,2023-01-20 10:50:26.520221,146568076,-5.206934,-5.414364,-0.05494912,0.1524813,0.4523304,-0.3572145,-1.913718,-0.3313141
12041,2023-01-20 10:50:26.620261,146668093,-5.214907,-5.393788,-0.112367,0.06651357,0.4064347,-0.8244109,-2.480607,-0.5231142
12071,2023-01-20 10:50:26.720236,146768073,-5.231066,-5.378674,-0.2191831,-0.07157513,0.2760705,-1.324411,-3.089047,-1.443211
12104,2023-01-20 10:50:26.820302,146868148,-5.259733,-5.375975,-0.3564864,-0.2402437,0.09071127,-1.404252,-3.112629,-1.978276
12135,2023-01-20 10:50:26.920193,146968064,-5.302302,-5.389486,-0.4940961,-0.4069123,-0.1168169,-1.32042,-2.844731,-1.877722
12168,2023-01-20 10:50:27.020333,147068221,-5.358096,-5.418663,-0.6222776,-0.5617099,-0.2830528,-1.303292,-2.648522,-2.042611
12200,2023-01-20 10:50:27.120219,147168097,-5.426316,-5.463048,-0.7379416,-0.7012101,-0.4783593,-1.095887,-2.205105,-1.849748
12233,2023-01-20 10:50:27.220192,147268060,-5.505318,-5.524413,-0.8417338,-0.8226383,-0.6413661,-1.06155,-1.915856,-1.424021
12263,2023-01-20 10:50:27.320259,147368112,-5.594956,-5.599837,-0.9538581,-0.9489772,-0.7880067,-1.178408,-1.89346,-1.495131
12296,2023-01-20 10:50:27.418430,147468088,-5.696028,-5.687106,-1.064881,-1.073804,-0.9540777,-1.01617,-1.673067,-1.478659
12328,2023-01-20 10:50:27.509468,147568098,-5.807605,-5.789225,-1.167714,-1.186093,-1.117925,-1.037779,-1.527258,-1.525818
12364,2023-01-20 10:50:27.600692,147668243,-5.929311,-5.90506,-1.263965,-1.288215,-1.271203,-0.905085,-1.187652,-1.482773
12394,2023-01-20 10:50:27.700508,147768067,-6.060179,-6.032499,-1.353958,-1.381638,-1.369801,-0.933591,-1.070869,-1.02968
12427,2023-01-20 10:50:27.800668,147868234,-6.199975,-6.171738,-1.437805,-1.466042,-1.436916,-0.7009454,-0.7949042,-0.9624185
12459,2023-01-20 10:50:27.900429,147968059,-6.347082,-6.319376,-1.502739,-1.530444,-1.528167,-0.5759469,-0.5892066,-0.7772226
12492,2023-01-20 10:50:28.000661,148068355,-6.499915,-6.471282,-1.552881,-1.581514,-1.596169,-0.4707935,-0.4332321,-0.7280073
12524,2023-01-20 10:50:28.100409,148168078,-6.657279,-6.628094,-1.592344,-1.621529,-1.653529,-0.344021,-0.218081,-0.6019125
12558,2023-01-20 10:50:28.200668,148268312,-6.818233,-6.791758,-1.626644,-1.653119,-1.678971,-0.3614349,-0.1121918,-0.5346642
12588,2023-01-20 10:50:28.300481,148368100,-6.982908,-6.96138,-1.66696,-1.688487,-1.755164,-0.3861767,-0.09210724,-0.424674
12621,2023-01-20 10:50:28.400743,148468263,-7.151402,-7.133651,-1.701689,-1.71944,-1.775402,-0.3449808,-0.1038707,-0.1981249
12653,2023-01-20 10:50:28.511481,148568061,-7.323241,-7.315419,-1.734243,-1.742066,-1.80064,-0.2994568,-0.04714306,-0.302886
12689,2023-01-20 10:50:28.618434,148668091,-7.498071,-7.49994,-1.761445,-1.759576,-1.826797,-0.2450519,0.05407953,-0.1486597
12719,2023-01-20 10:50:28.709437,148768094,-7.67542,-7.685022,-1.785365,-1.775763,-1.846807,-0.2330972,0.1273978,-0.2048197
12752,2023-01-20 10:50:28.800653,148868268,-7.855116,-7.871261,-1.808732,-1.792588,-1.80808,-0.2102862,0.04943947,0.5632114
12785,2023-01-20 10:50:28.900337,148968065,-8.036985,-8.056669,-1.828446,-1.808762,-1.854655,-0.1947818,-0.03476534,-0.20467
12818,2023-01-20 10:50:29.000595,149068437,-8.220724,-8.241045,-1.84546,-1.825139,-1.850313,-0.136832,0.005352917,-0.139884
12850,2023-01-20 10:50:29.100322,149168110,-8.405694,-8.429303,-1.852603,-1.828994,-1.85546,-0.03881348,0.126551,-0.08677578
12884,2023-01-20 10:50:29.200647,149268381,-8.59129,-8.618483,-1.860177,-1.832984,-1.885494,-0.08347412,0.1090522,0.05722332
12914,2023-01-20 10:50:29.300288,149368087,-8.777967,-8.806595,-1.874732,-1.846105,-1.837953,-0.1620193,-0.07159466,-0.08292866
12947,2023-01-20 10:50:29.400587,149468451,-8.966193,-8.994409,-1.889045,-1.86083,-1.879767,-0.1214313,-0.09136803,-0.1842251
12979,2023-01-20 10:50:29.500207,149568052,-9.155668,-9.185211,-1.89821,-1.868668,-1.879148,0.004554749,0.07270845,-0.04354095
13015,2023-01-20 10:50:29.600607,149668432,-9.3455,-9.375263,-1.898606,-1.868842,-1.915961,0.00585022,0.1612762,-0.07372379
13045,2023-01-20 10:50:29.700228,149768062,-9.535044,-9.568722,-1.892305,-1.858627,-1.858168,0.02862915,0.2234211,0.1903734
13078,2023-01-20 10:50:29.800586,149868429,-9.724046,-9.759481,-1.886743,-1.851308,-1.83601,0.06535156,0.1713759,0.2454243
13109,2023-01-20 10:50:29.900234,149968100,-9.912481,-9.951063,-1.882348,-1.843765,-1.857765,0.04459991,0.1332303,0.1461058
13142,2023-01-20 10:50:30.000603,150068491,-10.10018,-10.14246,-1.867541,-1.825262,-1.875866,0.2302978,0.3832216,0.0728817
13174,2023-01-20 10:50:30.100242,150168096,-10.28588,-10.33778,-1.847786,-1.79589,-1.874178,0.1788254,0.4462286,0.1621981
13207,2023-01-20 10:50:30.200582,150268402,-10.46969,-10.52768,-1.828044,-1.770055,-1.849677,0.223074,0.521947,0.1774502
13237,2023-01-20 10:50:30.300278,150368097,-10.65124,-10.72235,-1.804045,-1.732934,-1.788044,0.175076,0.5361126,0.1921968
13270,2023-01-20 10:50:30.400597,150468415,-10.8309,-10.91258,-1.791251,-1.709576,-1.784424,0.0777182,0.4423782,0.4477682
13302,2023-01-20 10:50:30.500242,150568066,-11.0096,-11.10224,-1.781343,-1.688699,-1.769995,0.1416345,0.4928204,0.1972265
13338,2023-01-20 10:50:30.600608,150668437,-11.18695,-11.28958,-1.765586,-1.662959,-1.717013,0.1699283,0.5545802,0.1378489
13369,2023-01-20 10:50:30.700226,150768057,-11.36272,-11.47756,-1.750351,-1.635516,-1.718962,0.1394586,0.5535139,0.5012064
13402,2023-01-20 10:50:30.800578,150868411,-11.53714,-11.65852,-1.738925,-1.617541,-1.695345,0.09268158,0.4628248,0.27948
13433,2023-01-20 10:50:30.900199,150968066,-11.71054,-11.84432,-1.728673,-1.594888,-1.646147,0.1080643,0.4296025,0.1347799
13466,2023-01-20 10:50:31.000598,151068498,-11.88292,-12.02602,-1.719319,-1.576215,-1.622815,0.06543212,0.376957,0.2838707
13498,2023-01-20 10:50:31.100333,151168145,-12.05465,-12.20941,-1.715499,-1.560741,-1.656723,0.05779266,0.3693321,0.4372358
13531,2023-01-20 10:50:31.200643,151268367,-12.22593,-12.38915,-1.710399,-1.547173,-1.608035,0.03563049,0.2948403,0.4648685
13561,2023-01-20 10:50:31.300330,151368104,-12.39679,-12.56845,-1.706773,-1.535104,-1.516246,0.0283786,0.1668401,0.2735357
13594,2023-01-20 10:50:31.400581,151468405,-12.56734,-12.74244,-1.704748,-1.529646,-1.559598,-0.01155609,0.0979441,0.2836676
13626,2023-01-20 10:50:31.500237,151568081,-12.738,-12.91871,-1.709928,-1.529211,-1.557505,-0.0485318,0.05199957,0.1781845
13661,2023-01-20 10:50:31.600605,151668468,-12.90855,-13.09293,-1.693131,-1.508757,-1.519241,0.4204712,0.5651693,-0.02873135
13692,2023-01-20 10:50:31.700199,151768049,-13.07496,-13.26915,-1.626709,-1.432523,-1.493656,0.9204712,1.277062,0.4202957
13725,2023-01-20 10:50:31.800581,151868418,-13.23223,-13.43844,-1.510287,-1.304077,-1.481301,1.420471,2.148354,0.6555977
13757,2023-01-20 10:50:31.900246,151968106,-13.37536,-13.60462,-1.343865,-1.114597,-1.356384,1.920471,3.033121,1.353578
13790,2023-01-20 10:50:32.000594,152068477,-13.49935,-13.75301,-1.128634,-0.8749756,-1.157726,2.257268,3.657316,1.985076
13822,2023-01-20 10:50:32.100226,152168082,-13.60162,-13.88379,-0.923584,-0.6414051,-0.9642064,1.847168,3.372937,2.635618
13855,2023-01-20 10:50:32.200587,152268416,-13.68531,-13.98885,-0.7557876,-0.4522451,-0.708396,1.511575,2.869095,2.536958
13885,2023-01-20 10:50:32.300274,152368096,-13.75379,-14.07717,-0.6184761,-0.2950972,-0.5170177,1.236952,2.385651,1.691053
13918,2023-01-20 10:50:32.400587,152468403,-13.80984,-14.1443,-0.5061114,-0.1716473,-0.329979,1.012223,1.931127,1.65685
13950,2023-01-20 10:50:32.500222,152568063,-13.8557,-14.20051,-0.4141613,-0.06934436,-0.18696,0.8283225,1.491597,1.548214
13985,2023-01-20 10:50:32.600600,152668466,-13.89323,-14.2397,-0.3389164,0.007560615,-0.06220443,0.6778328,1.097299,1.019504
14016,2023-01-20 10:50:32.700197,152768050,-13.92394,-14.27134,-0.2773421,0.07005775,0.03524425,0.5546843,0.7386078,1.070415
14049,2023-01-20 10:50:32.800583,152868422,-13.94907,-14.2912,-0.2269547,0.1151754,0.162653,0.4539094,0.3868962,0.9181786
14080,2023-01-20 10:50:32.900240,152968100,-13.96963,-14.30737,-0.1857216,0.1520176,0.2263269,0.3714432,0.1012765,0.7900247
14113,2023-01-20 10:50:33.000594,153068475,-13.98646,-14.31489,-0.1519798,0.1764516,0.2703124,0.3039596,-0.166216,0.810791
14145,2023-01-20 10:50:33.100244,153168097,-14.00023,-14.32346,-0.1243681,0.198857,0.3255121,0.2487362,-0.3683077,0.4286108
14178,2023-01-20 10:50:33.200581,153268406,-14.0115,-14.32624,-0.1017729,0.2129707,0.3499615,0.2035459,-0.4219508,0.1031542
14209,2023-01-20 10:50:33.300285,153368106,-14.02073,-14.33143,-0.08328285,0.2274239,0.3410024,0.1665657,-0.408013,0.01759815
14242,2023-01-20 10:50:33.400588,153468405,-14.02827,-14.33405,-0.06815203,0.2376268,0.3313173,0.1363041,-0.3210953,0.1280022
14275,2023-01-20 10:50:33.500252,153568073,-14.03445,-14.34037,-0.05577017,0.2501515,0.3012018,0.1115403,-0.189971,-0.01721764
14311,2023-01-20 10:50:33.600601,153668427,-14.0395,-14.34472,-0.04563785,0.2595806,0.2616105,0.09127571,-0.04592915,-0.09065151
14342,2023-01-20 10:50:33.700221,153768054,-14.04364,-14.3541,-0.03734636,0.2731163,0.2951685,0.07469273,0.04128727,-0.007896423
14375,2023-01-20 10:50:33.800573,153868412,-14.04702,-14.35995,-0.03056129,0.2823721,0.2718135,0.06112257,0.1085553,0.1169348
14408,2023-01-20 10:50:33.900231,153968097,-14.04979,-14.36974,-0.02500892,0.2949373,0.2535935,0.05001784,0.1791614,-0.05169582
14441,2023-01-20 10:50:34.000573,154068465,-14.05206,-14.37555,-0.02046531,0.303032,0.2795005,0.04093061,0.1921473,0.2314882
14473,2023-01-20 10:50:34.100205,154168083,-14.05391,-14.38226,-0.01674717,0.3115976,0.2622282,0.03349435,0.2070032,0.232235
14506,2023-01-20 10:50:34.200600,154268464,-14.05543,-14.38603,-0.01370455,0.3168997,0.2844843,0.02740909,0.2062435,0.06733513
14536,2023-01-20 10:50:34.300244,154368084,-14.05667,-14.39141,-0.0112147,0.3235277,0.3016238,0.02242941,0.1698409,0.2265577
14569,2023-01-20 10:50:34.400580,154468396,-14.05769,-14.39206,-0.009177214,0.325199,0.3311504,0.01835443,0.08543564,0.2385216
14602,2023-01-20 10:50:34.500267,154568046,-14.05852,-14.39438,-0.007509901,0.3283531,0.3235714,0.0150198,0.01626414,0.2137871
14636,2023-01-20 10:50:34.600676,154668419,-14.0592,-14.39232,-0.006145504,0.3269783,0.3435127,0.01229101,-0.0750608,0.1487532
14668,2023-01-20 10:50:34.700267,154768059,-14.05975,-14.39333,-0.005028989,0.3285489,0.3304307,0.01005798,-0.0728322,0.02891636
14701,2023-01-20 10:50:34.800580,154868421,-14.06021,-14.39248,-0.004115322,0.3281515,0.3781646,0.008230643,-0.06272585,0.04448795
14734,2023-01-20 10:50:34.900202,154968076,-14.05063,-14.39225,-2.318967E-09,0.3416223,0.3404799,-9.2302E-07,-0.03907856,0.02341557
14767,2023-01-20 10:50:35.000602,155068509,-14.05063,-14.38885,-3.178626E-05,0.3381897,0.3374384,-0.001135629,-0.01140512,-0.003540039
14799,2023-01-20 10:50:35.100288,155168109,-14.05065,-14.38792,-0.000363694,0.3369105,0.3695928,-0.006479542,0.003645561,0.02713203
14832,2023-01-20 10:50:35.200652,155268388,-14.05072,-14.38558,-0.001399208,0.3334592,0.3500395,-0.01546823,-0.007986439,0.1065435
14862,2023-01-20 10:50:35.300326,155368064,-14.05094,-14.38563,-0.003321352,0.331371,0.3100295,-0.02505488,-0.01135662,0.1826687
14895,2023-01-20 10:50:35.400643,155468384,-14.05138,-14.38387,-0.006112176,0.3263805,0.314615,-0.03452239,-0.0422247,-0.07670212
14927,2023-01-20 10:50:35.500320,155568060,-14.0521,-14.38755,-0.009742849,0.3257039,0.3103255,-0.04388147,0.01300311,-0.09566116
14962,2023-01-20 10:50:35.600675,155668414,-14.05319,-14.39128,-0.01415681,0.3239401,0.2837149,-0.05308184,0.09051624,0.1090803
14993,2023-01-20 10:50:35.700321,155768081,-14.05468,-14.40128,-0.01930583,0.3273018,0.2735291,-0.06211552,0.1728121,-0.1722326
15026,2023-01-20 10:50:35.800615,155868395,-14.05662,-14.40977,-0.0251526,0.3279944,0.251651,-0.0709931,0.2091703,0.03533649
15057,2023-01-20 10:50:35.900216,155968037,-14.05908,-14.42098,-0.03167933,0.3302213,0.2646212,-0.07974412,0.1884223,0.1297235
15090,2023-01-20 10:50:36.000584,156068446,-14.0621,-14.43015,-0.03888506,0.3291667,0.3123558,-0.08840508,0.1443738,0.1342945
15122,2023-01-20 10:50:36.100262,156168066,-14.06574,-14.44332,-0.04678049,0.3308037,0.2663723,-0.0970113,0.1229171,0.066679
15155,2023-01-20 10:50:36.200651,156268397,-14.07007,-14.45406,-0.05537624,0.3286203,0.2956715,-0.1055863,0.1429121,0.02843189
15185,2023-01-20 10:50:36.300295,156368090,-14.07515,-14.46761,-0.06468504,0.3277795,0.2515097,-0.1141484,0.1165855,0.3029709
15218,2023-01-20 10:50:36.400585,156468428,-14.08104,-14.4785,-0.07470984,0.3227474,0.3133449,-0.1227026,-0.01042174,-0.03312492
15250,2023-01-20 10:50:36.500263,156568049,-14.08782,-14.4918,-0.08545714,0.3185236,0.2867515,-0.1312557,0.004654923,-0.02781868
15285,2023-01-20 10:50:36.600671,156668401,-14.09553,-14.5028,-0.09692834,0.3103458,0.2652261,-0.1398087,-0.06158466,0.4253998
15316,2023-01-20 10:50:36.700305,156768031,-14.10425,-14.51626,-0.1091257,0.3028824,0.3315622,-0.1483633,-0.1440305,-0.04325676
15349,2023-01-20 10:50:36.800683,156868406,-14.11403,-14.52791,-0.1220523,0.2918234,0.2838311,-0.1569211,-0.2666466,0.2608395
15380,2023-01-20 10:50:36.900231,156968046,-14.12495,-14.53954,-0.1357203,0.2788622,0.3100948,-0.1654891,-0.391829,0.3409595
15413,2023-01-20 10:50:37.000584,157068492,-14.13709,-14.55031,-0.1501477,0.26307,0.3190576,-0.1740763,-0.4203674,-0.155489
15445,2023-01-20 10:50:37.100241,157168069,-14.15054,-14.56316,-0.1653612,0.2472524,0.2945413,-0.1826946,-0.3416597,-0.5501432
15478,2023-01-20 10:50:37.200641,157268389,-14.16539,-14.57836,-0.1813877,0.2315725,0.2193164,-0.1913541,-0.2053782,-0.4693003
15508,2023-01-20 10:50:37.300328,157368074,-14.18175,-14.60227,-0.1982541,0.2222647,0.1657139,-0.2000631,-0.06033215,-0.3587246
15541,2023-01-20 10:50:37.400641,157468384,-14.1997,-14.62952,-0.2159777,0.2138404,0.140983,-0.2088237,0.08117582,-0.1624575
15573,2023-01-20 10:50:37.500319,157568046,-14.21934,-14.66124,-0.2345733,0.2073273,0.1373479,-0.2176365,0.1414705,-0.02654839
15608,2023-01-20 10:50:37.601010,157668722,-14.24076,-14.69558,-0.2540506,0.2007663,0.1317485,-0.2264998,0.1685398,-0.0433569
15639,2023-01-20 10:50:37.700352,157768079,-14.26406,-14.73195,-0.2744173,0.1934758,0.1262673,-0.2354112,0.08157289,0.2127953
15672,2023-01-20 10:50:37.800662,157868404,-14.28931,-14.76683,-0.2956744,0.1818451,0.1278372,-0.2441578,-0.03027346,-0.05550385
15704,2023-01-20 10:50:37.900251,157968036,-14.31662,-14.80654,-0.3177272,0.1721959,0.1601275,-0.2505887,-0.08500101,0.1341181
15737,2023-01-20 10:50:38.000576,158068461,-14.34603,-14.84505,-0.3402719,0.1587442,0.1792731,-0.2531238,-0.1862335,0.1592979
15769,2023-01-20 10:50:38.091224,158168065,-14.37758,-14.88611,-0.3630009,0.1455232,0.1482855,-0.2532972,-0.2829933,0.4137354
15800,2023-01-20 10:50:38.182507,158268367,-14.41129,-14.92379,-0.3857626,0.1267386,0.1646137,-0.2518603,-0.5146297,0.1940107
15832,2023-01-20 10:50:38.280504,158368091,-14.44714,-14.96368,-0.4082969,0.1082375,0.1449602,-0.2466226,-0.5366189,-0.45051
15864,2023-01-20 10:50:38.380853,158468438,-14.4851,-15.00732,-0.4302502,0.09197509,0.1311188,-0.2381217,-0.4058472,0.01327038
15898,2023-01-20 10:50:38.480441,158568051,-14.52511,-15.05259,-0.4514414,0.07603905,0.09593372,-0.228952,-0.3820688,-0.1483297
15932,2023-01-20 10:50:38.580905,158668547,-14.56709,-15.09968,-0.4718441,0.06074375,0.05690868,-0.2197623,-0.288372,-0.4143019
15965,2023-01-20 10:50:38.680377,158768029,-14.611,-15.15276,-0.491453,0.05031578,0.04623997,-0.2105525,-0.1254711,0.03476238
15996,2023-01-20 10:50:38.780653,158868310,-14.65675,-15.20812,-0.510263,0.04110542,-0.007889688,-0.2013224,-0.07264159,0.2601929
16031,2023-01-20 10:50:38.889219,158968048,-14.70429,-15.26188,-0.528269,0.02931766,0.0643175,-0.1920717,-0.1950313,0.1652365
16064,2023-01-20 10:50:39.000518,159068436,-14.75356,-15.31359,-0.5454664,0.01456657,0.01617799,-0.1828,-0.2614379,-0.05916214
16096,2023-01-20 10:50:39.091180,159168063,-14.80449,-15.36611,-0.5618534,-0.0002359772,-0.02129955,-0.1735047,-0.1548876,-0.4261055
16128,2023-01-20 10:50:39.182410,159268313,-14.85704,-15.42164,-0.5774285,-0.01283504,-0.06066871,-0.1641829,-0.05684487,0.2919664
16160,2023-01-20 10:50:39.280378,159368049,-14.91116,-15.47585,-0.5921867,-0.02749069,-0.03343442,-0.154833,-0.1100343,-0.001302719
16191,2023-01-20 10:50:39.380549,159468256,-14.96677,-15.53214,-0.6061209,-0.04075107,-0.03820672,-0.1454546,-0.1296082,0.0281229
16225,2023-01-20 10:50:39.480306,159568033,-15.02381,-15.59123,-0.6192228,-0.05180454,-0.07760248,-0.136048,-0.07146872,-0.4033747
16258,2023-01-20 10:50:39.580698,159668441,-15.0822,-15.65651,-0.6314834,-0.05716583,-0.1224033,-0.1266139,0.109438,-0.542346
16291,2023-01-20 10:50:39.680304,159768097,-15.14185,-15.73113,-0.6428937,-0.05361641,-0.1411795,-0.1171536,0.3516686,-0.04507351
16322,2023-01-20 10:50:39.780304,159868155,-15.2027,-15.8073,-0.6534454,-0.04885071,-0.1460906,-0.1076679,0.3965835,0.3409605
16356,2023-01-20 10:50:39.880174,159968032,-15.26466,-15.87783,-0.6631304,-0.04996025,-0.1491818,-0.09815787,0.3599969,0.4129343
16387,2023-01-20 10:50:39.980218,160068071,-15.32764,-15.9446,-0.6719409,-0.05498535,-0.08746963,-0.08862449,0.1344041,0.604558
16421,2023-01-20 10:50:40.080268,160168076,-15.39156,-16.00558,-0.6798695,-0.06585456,-0.09671921,-0.07906877,-0.05759302,0.2755766
16453,2023-01-20 10:50:40.180300,160268053,-15.45634,-16.06838,-0.6869093,-0.07486466,-0.0525545,-0.06949134,-0.07118408,-0.1871986
16485,2023-01-20 10:50:40.280315,160368098,-15.52188,-16.13402,-0.6930538,-0.0809188,-0.1071534,-0.05989321,0.04590862,-0.2691154
16516,2023-01-20 10:50:40.380203,160468038,-15.5881,-16.20435,-0.6982965,-0.08205025,-0.1410881,-0.05027522,0.2038976,-0.06084061
16550,2023-01-20 10:50:40.480204,160568039,-15.65491,-16.27679,-0.7026316,-0.08074684,-0.1581884,-0.04063809,0.2839376,0.1488581
16584,2023-01-20 10:50:40.580519,160668341,-15.72221,-16.34783,-0.7060532,-0.08043434,-0.1631773,-0.03098257,0.301141,-0.03522682
16617,2023-01-20 10:50:40.680239,160768044,-15.78993,-16.42057,-0.708556,-0.0779139,-0.1927975,-0.0213094,0.436397,-0.3588581
16648,2023-01-20 10:50:40.780279,160868066,-15.85795,-16.49462,-0.7101351,-0.07347008,-0.170062,-0.0116587,0.5451732,-0.04044724
16682,2023-01-20 10:50:40.880216,160968034,-15.9262,-16.57143,-0.7108486,-0.06561668,-0.1507062,-0.003805037,0.531167,0.2524319
16713,2023-01-20 10:50:40.980247,161068108,-15.9946,-16.64499,-0.7110117,-0.06062721,-0.1457559,-0.0003450297,0.5066112,0.1330242
16747,2023-01-20 10:50:41.080253,161168075,-16.06311,-16.72346,-0.7110181,-0.05066902,-0.1379783,0,0.5074528,0.4275913
16779,2023-01-20 10:50:41.180268,161268031,-16.13172,-16.7978,-0.7110181,-0.0449427,-0.1162821,0,0.4793202,0.4419365
16811,2023-01-20 10:50:41.280329,161368076,-16.20043,-16.86392,-0.7110181,-0.04752571,-0.05949293,0,0.2871636,0.5690403
16842,2023-01-20 10:50:41.380314,161468054,-16.26924,-16.92326,-0.7110181,-0.05699226,-0.08025323,0,0.1429869,0.1559944
16876,2023-01-20 10:50:41.480261,161568034,-16.33813,-16.98265,-0.7110181,-0.06649666,-0.1278059,0,0.2134321,-0.3000002
16910,2023-01-20 10:50:41.580663,161668478,-16.40711,-17.04378,-0.7110181,-0.07435066,-0.1655842,0,0.3047377,-0.1567764
16943,2023-01-20 10:50:41.680261,161768052,-16.47617,-17.10318,-0.7110181,-0.08401497,-0.0835021,0,0.2450962,0.1361322
16974,2023-01-20 10:50:41.780296,161868048,-16.54532,-17.16129,-0.7110181,-0.0950489,-0.1074973,0,0.1735279,0.02359009
17008,2023-01-20 10:50:41.880248,161968034,-16.61454,-17.21587,-0.7110181,-0.1096888,-0.1205369,0,0.1366501,0.100564
17039,2023-01-20 10:50:41.980198,162068036,-16.68383,-17.27123,-0.7110181,-0.1236207,-0.1321343,0,0.1756007,0.003477097
17073,2023-01-20 10:50:42.080279,162168088,-16.75319,-17.32738,-0.7110181,-0.1368323,-0.1875186,0,0.2519912,-0.06153107
17105,2023-01-20 10:50:42.180288,162268048,-16.82263,-17.3816,-0.7110181,-0.1520521,-0.1602187,0,0.04789334,0.4147024
17137,2023-01-20 10:50:42.280322,162368111,-16.89213,-17.42915,-0.7110181,-0.1739942,-0.1379595,0,-0.05035131,-0.2521811
17168,2023-01-20 10:50:42.380195,162468032,-16.96169,-17.48122,-0.7110181,-0.1914893,-0.1593565,0,-0.03485197,-0.1287518
17202,2023-01-20 10:50:42.480205,162568040,-17.03131,-17.53136,-0.7110181,-0.2109669,-0.1458236,0,-0.1205967,0.1589718
17236,2023-01-20 10:50:42.580489,162668310,-17.10099,-17.58136,-0.7110181,-0.2306519,-0.1394709,0,-0.3130685,0.05303764
17269,2023-01-20 10:50:42.680212,162768032,-17.17073,-17.62582,-0.7110181,-0.2559254,-0.1376803,0,-0.4909574,-0.1406813
17300,2023-01-20 10:50:42.780226,162868048,-17.24052,-17.67603,-0.7110181,-0.275503,-0.2256282,0,-0.421358,-0.5306797
17334,2023-01-20 10:50:42.880232,162968085,-17.31036,-17.72579,-0.7110181,-0.295586,-0.2711343,0,-0.2411972,-0.3656263
17365,2023-01-20 10:50:42.980142,163068033,-17.38025,-17.78155,-0.7110181,-0.3097169,-0.279795,0,-0.2448525,0.02497101
17399,2023-01-20 10:50:43.080229,163168064,-17.45019,-17.82609,-0.7110181,-0.3351173,-0.2446627,0,-0.3905958,-0.1580544
