LineNo,UTC_Approx,TimeUS,TPE,PE,DVE,TVE,VE,DAE,TAE,AE
380,2023-01-20 10:49:56.259327,116248348,-0.3641514,-0.3641514,-0.05524498,-0.05524498,-0.05524498,0,-0.0006857148,-0.00134744
970,2023-01-20 10:49:56.350328,116348398,-0.3727289,-0.3727289,-0.05674209,-0.05674209,-0.05674209,0,-0.0003688147,-0.001487864
1128,2023-01-20 10:49:56.452325,116454866,-0.3806837,-0.3806837,-0.05749848,-0.05749848,-0.05749848,0,-0.0001983686,-0.001700345
1347,2023-01-20 10:49:56.564969,116566502,-0.3880846,-0.3880846,-0.05771517,-0.05771517,-0.05771517,0,-0.0001066934,-0.001953929
1567,2023-01-20 10:49:56.665830,116667297,-0.3964916,-0.3964916,-0.05930052,-0.05930052,-0.05930052,0,-5.738552E-05,-0.001938437
1887,2023-01-20 10:49:56.765432,116767273,-0.4055727,-0.4055727,-0.06161651,-0.06161651,-0.06161651,0,-3.086506E-05,-0.001653238
1932,2023-01-20 10:49:56.865314,116867285,-0.4161433,-0.4161433,-0.06453757,-0.06453757,-0.06453757,0,-1.660091E-05,-0.001521435
1980,2023-01-20 10:49:56.965285,116967257,-0.4268971,-0.4268971,-0.06774444,-0.06774444,-0.06774444,0,-8.928871E-06,-0.001343837
2030,2023-01-20 10:49:57.065325,117067284,-0.4362289,-0.4362289,-0.06992977,-0.06992977,-0.06992977,0,-4.802433E-06,-0.001218528
2076,2023-01-20 10:49:57.165358,117167296,-0.4446959,-0.4446959,-0.07084243,-0.07084243,-0.07084243,0,-2.583009E-06,-0.00108726
2126,2023-01-20 10:49:57.272526,117267255,-0.4483723,-0.4483723,-0.06789022,-0.06789022,-0.06789022,0,-1.389283E-06,-0.0009732615
2185,2023-01-20 10:49:57.383586,117367287,-0.4502469,-0.4502469,-0.06481873,-0.06481873,-0.06481873,0,-7.472318E-07,-0.0008830869
2241,2023-01-20 10:49:57.477491,117467307,-0.4528073,-0.4528073,-0.06179043,-0.06179043,-0.06179043,0,-4.01902E-07,-0.0008553315
2300,2023-01-20 10:49:57.568360,117567258,-0.4559528,-0.4559528,-0.05988283,-0.05988283,-0.05988283,0,-2.161648E-07,-0.0007648191
2356,2023-01-20 10:49:57.665217,117667291,-0.4593209,-0.4593209,-0.05808853,-0.05808853,-0.05808853,0,-1.162652E-07,-0.0006950118
2414,2023-01-20 10:49:57.765239,117767336,-0.4630058,-0.4630058,-0.05731583,-0.05731583,-0.05731583,0,-6.253374E-08,-0.0006151612
2457,2023-01-20 10:49:57.865160,117867283,-0.4681031,-0.4681031,-0.05767038,-0.05767038,-0.05767038,0,-3.363405E-08,-0.0005137803
2502,2023-01-20 10:49:57.965106,117967259,-0.4739306,-0.4739306,-0.05850834,-0.05850834,-0.05850834,0,-1.809022E-08,-0.0004757931
2541,2023-01-20 10:49:58.065193,118067303,-0.478917,-0.478917,-0.05887357,-0.05887357,-0.05887357,0,-9.729906E-09,-0.0004652626
2583,2023-01-20 10:49:58.165268,118167296,-0.4836585,-0.4836585,-0.05856252,-0.05856252,-0.05856252,0,-5.233272E-09,-0.0004251447
2623,2023-01-20 10:49:58.265244,118267263,-0.4877086,-0.4877086,-0.05731781,-0.05731781,-0.05731781,0,-2.814738E-09,-0.0004263451
2663,2023-01-20 10:49:58.365234,118367283,-0.4917088,-0.4917088,-0.05593515,-0.05593515,-0.05593515,0,-1.51392E-09,-0.0004276795
2702,2023-01-20 10:49:58.465258,118467319,-0.4999929,-0.4999929,-0.05838745,-0.05838745,-0.05838745,0,-8.142684E-10,-0.0004291154
2743,2023-01-20 10:49:58.565198,118567261,-0.510218,-0.510218,-0.06515661,-0.06515661,-0.06515661,0,-4.379578E-10,-0.0004299881
2785,2023-01-20 10:49:58.665208,118667289,-0.5160888,-0.5160888,-0.06678367,-0.06678367,-0.06678367,0,-2.355575E-10,-0.0004310725
2824,2023-01-20 10:49:58.765222,118767330,-0.5199459,-0.5199459,-0.06544361,-0.06544361,-0.06544361,0,-1.266956E-10,-0.0004321937
2868,2023-01-20 10:49:58.865170,118867286,-0.5215098,-0.5215098,-0.06182865,-0.06182865,-0.06182865,0,-6.814376E-11,-0.0004334667
2907,2023-01-20 10:49:58.965144,118967259,-0.5224524,-0.5224524,-0.05534559,-0.05534559,-0.05534559,0,-3.665143E-11,-0.0004340078
2946,2023-01-20 10:49:59.065213,119067310,-0.5207576,-0.5207576,-0.04658228,-0.04658228,-0.04658228,0,-1.971313E-11,-0.0004345509
2987,2023-01-20 10:49:59.165223,119167293,-0.5184913,-0.5184913,-0.04264847,-0.04264847,-0.04264847,0,-1.060279E-11,-0.0004341486
3026,2023-01-20 10:49:59.265194,119267256,-0.5241886,-0.5241886,-0.04233303,-0.04233303,-0.04233303,0,-5.70276E-12,-0.0004345214
3065,2023-01-20 10:49:59.365220,119367283,-0.5335766,-0.5335766,-0.04065249,-0.04065249,-0.04065249,0,-3.067254E-12,-0.0004342875
3105,2023-01-20 10:49:59.465232,119467299,-0.5403186,-0.5403186,-0.05212331,-0.05212331,-0.05212331,0,-1.649736E-12,-0.0004338862
3146,2023-01-20 10:49:59.565193,119567264,-0.5458573,-0.5458573,-0.05990361,-0.05990361,-0.05990361,0,-8.873177E-13,-0.0004343238
3187,2023-01-20 10:49:59.665224,119667308,-0.5500014,-0.5500014,-0.04505022,-0.04505022,-0.04505022,0,-4.772477E-13,-0.0004343194
3226,2023-01-20 10:49:59.765230,119767333,-0.5536937,-0.5536937,-0.05238932,-0.05238932,-0.05238932,0,-2.566898E-13,-0.0004338383
3265,2023-01-20 10:49:59.865159,119867271,-0.5499544,-0.5499544,-0.06238125,-0.06238125,-0.06238125,0,-1.380617E-13,-0.0004342474
3304,2023-01-20 10:49:59.965156,119967273,-0.5437767,-0.5437767,-0.04283287,-0.04283287,-0.04283287,0,-7.42571E-14,-0.0004344482
3343,2023-01-20 10:50:00.065191,120067292,-0.5370764,-0.5370764,-0.02782945,-0.02782945,-0.02782945,0,-3.99395E-14,-0.0004339682
3385,2023-01-20 10:50:00.165219,120167293,-0.5312479,-0.5312479,-0.0306772,-0.0306772,-0.0306772,0,-2.148164E-14,-0.0004344156
3424,2023-01-20 10:50:00.265195,120267265,-0.5240792,-0.5240792,-0.01211813,-0.01211813,-0.01211813,0,-1.155399E-14,-0.0004348193
3463,2023-01-20 10:50:00.365206,120367284,-0.517249,-0.517249,-0.01587976,-0.01587976,-0.01587976,0,-6.214366E-15,-0.0004341268
3503,2023-01-20 10:50:00.465188,120467264,-0.5118957,-0.5118957,-0.02861856,-0.02861856,-0.02861856,0,-3.342424E-15,-0.000434116
3543,2023-01-20 10:50:00.565198,120567268,-0.5080413,-0.5080413,-0.0170012,-0.0170012,-0.0170012,0,-1.797738E-15,-0.0004343404
3586,2023-01-20 10:50:00.665212,120667287,-0.5043781,-0.5043781,0.00306371,0.00306371,0.00306371,0,-9.66921E-16,-0.0004342851
3625,2023-01-20 10:50:00.765236,120767323,-0.5014384,-0.5014384,-0.00305154,-0.00305154,-0.00305154,0,-5.200627E-16,-0.0004344861
3666,2023-01-20 10:50:00.865170,120867273,-0.4936018,-0.4936018,-0.0007858251,-0.0007858251,-0.0007858251,0,-2.79718E-16,-0.0004347221
3703,2023-01-20 10:50:00.965140,120967262,-0.4843817,-0.4843817,0.00834957,0.00834957,0.00834957,0,-1.504476E-16,-0.0004343222
3735,2023-01-20 10:50:01.065226,121067350,-0.4787893,-0.4787893,0.0001062689,0.0001062689,0.0001062689,0,-8.091888E-17,-0.0004339565
3768,2023-01-20 10:50:01.165237,121167354,-0.4770057,-0.4754573,0.000393387,-0.001155075,0.003860297,-0.0003946554,-0.05781612,-0.02482001
3800,2023-01-20 10:50:01.265164,121267314,-0.4751487,-0.4710712,0.0003270213,-0.003750547,0.01123869,-0.0003280757,-0.05589592,-0.04329932
3831,2023-01-20 10:50:01.365180,121367384,-0.4720272,-0.4668306,0.0002778966,-0.004918713,0.007152534,-0.0002787926,-0.04512333,-0.0491231
3863,2023-01-20 10:50:01.465121,121467310,-0.4687059,-0.4636873,0.0002394089,-0.004779245,0.005967269,-0.0002401807,-0.02946412,-0.04901664
3896,2023-01-20 10:50:01.565177,121567315,-0.4657002,-0.4612717,0.0002079731,-0.004220509,0.02409677,-0.0002086436,-0.04762652,-0.04630359
3931,2023-01-20 10:50:01.665267,121667386,-0.4632558,-0.4601465,0.0001815696,-0.002927714,-0.04856827,-0.0001821551,-0.01082739,-0.05720168
3962,2023-01-20 10:50:01.765508,121767625,-0.4619353,-0.4605736,0.0001589818,-0.001202674,0.02821032,-0.0001594944,-0.06178636,-0.0317569
3995,2023-01-20 10:50:01.865458,121867623,-0.4601263,-0.4544369,0.0001394539,-0.0055499,0.02650742,-0.0001399035,-0.1565614,-0.05900034
4027,2023-01-20 10:50:01.965416,121967657,-0.4566461,-0.4460396,0.0001224457,-0.01048405,0.05585768,-0.0001228405,-0.2182714,-0.1256573
4059,2023-01-20 10:50:02.065405,122067629,-0.4566347,-0.4368232,0.0001076304,-0.01970389,0.05532436,-0.0001079774,-0.2253385,-0.1810366
4092,2023-01-20 10:50:02.165487,122167645,-0.4566246,-0.4285013,9.460762E-05,-0.02802864,0.03509939,-9.491266E-05,-0.1858644,-0.1986604
4124,2023-01-20 10:50:02.265542,122267678,-0.4566155,-0.4084243,8.315792E-05,-0.04810807,0.04722354,-8.342604E-05,-0.2751133,-0.203817
4155,2023-01-20 10:50:02.365477,122367615,-0.4566079,-0.3894059,7.309079E-05,-0.0671289,0.05484652,-7.332646E-05,-0.2898,-0.2428749
4187,2023-01-20 10:50:02.465212,122467611,-0.4566011,-0.3775203,6.423989E-05,-0.07901649,0.01259041,-6.444701E-05,-0.1454712,-0.2216162
4220,2023-01-20 10:50:02.564598,122567394,-0.4565949,-0.3713295,5.645977E-05,-0.085209,-0.0370649,-5.664181E-05,-0.1180352,-0.1775941
4256,2023-01-20 10:50:02.664441,122667354,-0.4565897,-0.3721351,4.962215E-05,-0.08440499,-0.0143629,-4.978214E-05,-0.1217934,-0.1418035
4286,2023-01-20 10:50:02.764469,122767345,-0.4565851,-0.3762771,4.361326E-05,-0.08026438,-0.04663396,-4.375388E-05,-0.08904471,-0.1180762
4321,2023-01-20 10:50:02.864494,122867373,-0.4565806,-0.3686318,3.833254E-05,-0.08791047,-0.03763137,-3.845614E-05,-0.1820135,-0.104962
4351,2023-01-20 10:50:02.964425,122967329,-0.4565775,-0.358209,3.369089E-05,-0.0983348,-0.03819243,-3.379952E-05,-0.1934216,-0.1432073
4384,2023-01-20 10:50:03.064446,123067360,-0.4565744,-0.3390896,2.961001E-05,-0.1174552,-0.0513285,-2.970548E-05,-0.27039,-0.1688733
4416,2023-01-20 10:50:03.164517,123167433,-0.4565714,-0.3204383,2.602107E-05,-0.1361071,-0.05478899,-2.610497E-05,-0.2948064,-0.2144759
4449,2023-01-20 10:50:03.264422,123267335,-0.4565684,-0.2890632,2.286426E-05,-0.1674823,-0.05756791,-2.293798E-05,-0.434562,-0.2550962
4479,2023-01-20 10:50:03.364431,123367339,-0.4565668,-0.2575435,2.008848E-05,-0.1990032,-0.06594239,-2.015325E-05,-0.5178879,-0.3607661
4512,2023-01-20 10:50:03.464442,123467339,-0.4565653,-0.2340632,1.764941E-05,-0.2224845,-0.09282784,-1.770631E-05,-0.4867602,-0.4219215
4544,2023-01-20 10:50:03.564433,123567317,-0.4565638,-0.2186993,1.550731E-05,-0.237849,-0.0972499,-1.555731E-05,-0.446104,-0.4410784
4580,2023-01-20 10:50:03.664479,123667360,-0.4565623,-0.2134983,1.36272E-05,-0.2430503,-0.07707935,-1.367114E-05,-0.4060058,-0.4254781
4610,2023-01-20 10:50:03.764471,123767356,-0.4565607,-0.2160604,1.197733E-05,-0.2404883,-0.1549092,-1.201595E-05,-0.2809,-0.3706946
4644,2023-01-20 10:50:03.864664,123867349,-0.4565592,-0.2323856,1.052912E-05,-0.2241631,-0.1523329,-1.056306E-05,-0.1688161,-0.3002835
4676,2023-01-20 10:50:03.964998,123967372,-0.4565562,-0.2548354,0.0001439633,-0.2015768,-0.1191966,0.05042708,-0.09830398,-0.2016488
4709,2023-01-20 10:50:04.065113,124067334,-0.4563651,-0.2828883,0.005399923,-0.1680769,-0.1474676,0.3292828,0.2774937,-0.03607392
4741,2023-01-20 10:50:04.165210,124167363,-0.4549665,-0.310807,0.0246161,-0.1195434,-0.1531377,0.4929441,0.5222508,0.170437
4774,2023-01-20 10:50:04.265252,124267385,-0.4508835,-0.3355897,0.05860699,-0.05668674,-0.10424,0.6311259,0.6769168,0.3630325
4804,2023-01-20 10:50:04.365212,124367349,-0.442735,-0.3548816,0.1046264,0.01677301,-0.07000415,0.593586,0.7013803,0.5062168
4837,2023-01-20 10:50:04.465156,124467321,-0.4297496,-0.3628468,0.1530621,0.08615928,-0.007504058,0.3270163,0.4402328,0.5153464
4870,2023-01-20 10:50:04.565130,124567335,-0.4124282,-0.363967,0.1894929,0.1410318,0.02934303,0.04677074,0.1929298,0.410029
4906,2023-01-20 10:50:04.665166,124667357,-0.3924007,-0.3665388,0.2078859,0.182024,0.02441449,0,0.2401354,0.2931682
4936,2023-01-20 10:50:04.765203,124767352,-0.3712159,-0.3690687,0.2142604,0.2121132,0.0646932,0,0.2984803,0.2782474
4970,2023-01-20 10:50:04.865219,124867384,-0.3497402,-0.3802668,0.2145452,0.2450718,0.04895192,0,0.4794694,0.326942
5000,2023-01-20 10:50:04.965122,124967334,-0.3284107,-0.3931251,0.2117614,0.2764758,0.04419143,0,0.5239723,0.4138243
5033,2023-01-20 10:50:05.065156,125067353,-0.3074466,-0.3962031,0.2074605,0.2962171,0.08196979,0,0.4498837,0.461699
5065,2023-01-20 10:50:05.165206,125167355,-0.2869532,-0.3928614,0.2024593,0.3083675,0.0819174,0,0.3786145,0.4373286
5098,2023-01-20 10:50:05.265193,125267328,-0.2669766,-0.3849176,0.1971812,0.3151222,0.1222879,0,0.3115627,0.3919709
5128,2023-01-20 10:50:05.365522,125367662,-0.2475322,-0.3734256,0.1918419,0.3177353,0.1467028,0,0.2646582,0.3506865
5161,2023-01-20 10:50:05.465193,125467326,-0.2286199,-0.3556252,0.1865478,0.313553,0.1432807,0,0.231334,0.3112576
5193,2023-01-20 10:50:05.565220,125567339,-0.2102603,-0.3351471,0.1801519,0.3050387,0.1597065,-0.1563645,0.0628014,0.2286187
5230,2023-01-20 10:50:05.665240,125667352,-0.1928489,-0.3213838,0.1669371,0.2954721,0.1611133,-0.2937257,-0.03283373,0.1171727
5260,2023-01-20 10:50:05.765525,125767635,-0.1772511,-0.3118757,0.1437845,0.2784091,0.1338692,-0.4317432,-0.06449234,0.02691601
5294,2023-01-20 10:50:05.859581,125867636,-0.1645022,-0.2939829,0.1109364,0.2404171,0.1056931,-0.3563704,-0.03324329,-0.0160404
5324,2023-01-20 10:50:05.950478,125967605,-0.155211,-0.2785068,0.07583697,0.1991328,0.08414006,-0.3485805,-0.03105425,-0.0144466
5357,2023-01-20 10:50:06.045583,126067636,-0.1494146,-0.2720245,0.04091154,0.1635214,0.01509943,-0.3842751,0.06561722,-0.001855669
5389,2023-01-20 10:50:06.145340,126167358,-0.1471457,-0.2740917,0.00521322,0.1321592,-0.04906391,-0.4172553,0.1435598,0.05705529
5422,2023-01-20 10:50:06.244779,126267337,-0.1485345,-0.2855383,-0.03268571,0.1043181,-0.1074679,-0.4925301,0.2093963,0.1147477
5454,2023-01-20 10:50:06.343796,126367592,-0.1538148,-0.3053345,-0.07156389,0.07995585,-0.1658877,-0.4476516,0.3449172,0.2225375
5487,2023-01-20 10:50:06.442825,126467329,-0.16299,-0.3291316,-0.1113009,0.05484071,-0.2305198,-0.510112,0.3740946,0.3096404
5519,2023-01-20 10:50:06.542821,126567337,-0.1763013,-0.3562351,-0.1547022,0.0252316,-0.2546947,-0.6262864,0.1699664,0.3032476
5555,2023-01-20 10:50:06.642853,126667404,-0.1942837,-0.3775996,-0.2049596,-0.02164368,-0.2745408,-0.6844169,-0.01178886,0.2018389
5585,2023-01-20 10:50:06.742730,126767345,-0.217582,-0.3955144,-0.2599677,-0.08203529,-0.2818165,-0.7068924,-0.1770701,0.05990068
5619,2023-01-20 10:50:06.842654,126867344,-0.2465035,-0.4179184,-0.317174,-0.1457592,-0.3311486,-0.6432263,-0.1479968,-0.03870833
5649,2023-01-20 10:50:06.942566,126967346,-0.2810916,-0.4452365,-0.3730935,-0.2089486,-0.3603866,-0.7719693,-0.2289602,-0.09799099
5682,2023-01-20 10:50:07.042560,127067399,-0.321349,-0.4784206,-0.4311153,-0.2740438,-0.4210345,-0.779131,-0.2089995,-0.1416718
5714,2023-01-20 10:50:07.142488,127167345,-0.3675162,-0.5164267,-0.4909103,-0.3419998,-0.4952594,-0.7939509,-0.2146511,-0.162616
5747,2023-01-20 10:50:07.242487,127267327,-0.4196998,-0.5658568,-0.5512294,-0.4050724,-0.5452051,-0.7836903,-0.1963597,-0.1711735
5777,2023-01-20 10:50:07.342835,127367612,-0.4778899,-0.6264169,-0.6107058,-0.4621788,-0.6059061,-0.7165394,-0.09755192,-0.1390663
5810,2023-01-20 10:50:07.442536,127467314,-0.5418605,-0.6881338,-0.6664844,-0.5202112,-0.6375154,-0.6764334,-0.1209906,-0.1042265
5842,2023-01-20 10:50:07.542458,127567322,-0.6111849,-0.7511352,-0.7183424,-0.578392,-0.6915115,-0.7063174,-0.1873913,-0.1220871
5878,2023-01-20 10:50:07.647229,127667358,-0.6856068,-0.8149392,-0.7686659,-0.6393334,-0.7228613,-0.7483816,-0.2892621,-0.1611156
5908,2023-01-20 10:50:07.758474,127767333,-0.765043,-0.8775644,-0.8188889,-0.7063675,-0.7552107,-0.8015007,-0.41078,-0.2439754
5942,2023-01-20 10:50:07.856915,127867343,-0.8496023,-0.9406248,-0.8717933,-0.7807708,-0.8136622,-0.8775551,-0.5735488,-0.3588714
5974,2023-01-20 10:50:07.947708,127967349,-0.9396331,-1.005867,-0.9273933,-0.861159,-0.8570296,-0.8571677,-0.5998656,-0.4538597
6007,2023-01-20 10:50:08.042389,128067345,-1.035244,-1.078324,-0.9834525,-0.9403728,-0.899931,-0.7851923,-0.5441485,-0.5083579
6039,2023-01-20 10:50:08.142428,128167402,-1.136348,-1.158941,-1.036538,-1.013945,-0.9805086,-0.7546327,-0.4810844,-0.5072753
6072,2023-01-20 10:50:08.242352,128267319,-1.242502,-1.2486,-1.084179,-1.078081,-1.033085,-0.5924513,-0.3043992,-0.4539498
6102,2023-01-20 10:50:08.342688,128367613,-1.352981,-1.344736,-1.12291,-1.131155,-1.096608,-0.5586337,-0.2559028,-0.3677202
6135,2023-01-20 10:50:08.442424,128467328,-1.466963,-1.446421,-1.15553,-1.176072,-1.131074,-0.6354273,-0.355354,-0.3454762
6167,2023-01-20 10:50:08.542419,128567329,-1.584139,-1.550588,-1.187144,-1.220695,-1.142461,-0.6669258,-0.4669069,-0.3744761
6203,2023-01-20 10:50:08.642438,128667356,-1.704477,-1.658503,-1.218787,-1.264761,-1.185743,-0.6560249,-0.4449368,-0.4039004
6233,2023-01-20 10:50:08.742417,128767343,-1.827946,-1.772001,-1.249607,-1.305551,-1.241677,-0.6647686,-0.4127511,-0.4148274
6267,2023-01-20 10:50:08.842495,128867384,-1.954437,-1.89368,-1.279212,-1.33997,-1.297387,-0.6401638,-0.3012444,-0.3830602
6300,2023-01-20 10:50:08.942531,128967322,-2.083768,-2.021954,-1.306188,-1.368002,-1.350532,-0.5906741,-0.1883225,-0.3050473
6333,2023-01-20 10:50:09.042627,129067346,-2.215612,-2.157522,-1.329549,-1.38764,-1.378832,-0.5755754,-0.1663604,-0.2367603
6365,2023-01-20 10:50:09.142674,129167354,-2.349645,-2.297653,-1.3501,-1.402092,-1.400057,-0.493379,-0.1087789,-0.1906678
6398,2023-01-20 10:50:09.242592,129267327,-2.485532,-2.440081,-1.366523,-1.411974,-1.405862,-0.4754488,-0.1662093,-0.1673669
6428,2023-01-20 10:50:09.342695,129367610,-2.622797,-2.58199,-1.376729,-1.417537,-1.392869,-0.1802033,0.04854315,-0.1177579
6461,2023-01-20 10:50:09.442405,129467946,-2.760378,-2.721403,-1.372098,-1.411072,-1.364131,0,0.1316866,-0.01314908
6493,2023-01-20 10:50:09.541251,129568012,-2.896655,-2.853015,-1.352002,-1.395642,-1.298129,0,0.0426789,0.03764579
6529,2023-01-20 10:50:09.640530,129668017,-3.030445,-2.972503,-1.323601,-1.381543,-1.243321,0,-0.03786793,0.0418605
6559,2023-01-20 10:50:09.740507,129767995,-3.161173,-3.084278,-1.291354,-1.368249,-1.201036,0,-0.1256433,-0.01987733
6593,2023-01-20 10:50:09.840575,129868073,-3.288584,-3.200522,-1.257583,-1.345645,-1.179251,0,-0.084922,-0.0629954
6624,2023-01-20 10:50:09.940489,129968009,-3.412595,-3.318618,-1.223504,-1.31748,-1.147425,0,-0.04202902,-0.05101202
6657,2023-01-20 10:50:10.040519,130068042,-3.53321,-3.42964,-1.189733,-1.293303,-1.117361,0,-0.07435571,-0.05093873
6689,2023-01-20 10:50:10.140602,130168100,-3.650479,-3.534083,-1.15658,-1.272975,-1.099681,0,-0.127113,-0.08075143
6722,2023-01-20 10:50:10.240427,130268015,-3.764469,-3.637182,-1.124189,-1.251476,-1.061971,0,-0.1604591,-0.1109971
6752,2023-01-20 10:50:10.340263,130368109,-3.875264,-3.741135,-1.092623,-1.226752,-1.050816,0,-0.1052777,-0.1172071
6785,2023-01-20 10:50:10.440022,130468034,-3.982917,-3.844766,-1.059897,-1.198047,-1.063027,0.1005529,0.07290722,-0.08402006
6817,2023-01-20 10:50:10.540014,130568053,-4.086382,-3.947076,-1.006541,-1.145847,-1.030081,0.3686953,0.4198232,0.09865026
6853,2023-01-20 10:50:10.640017,130668079,-4.183227,-4.045821,-0.9282315,-1.065638,-1.000376,0.6368387,0.8564638,0.4040051
6883,2023-01-20 10:50:10.739962,130768042,-4.271,-4.137683,-0.8265355,-0.9598528,-0.9434043,0.8292005,1.158615,0.750892
6917,2023-01-20 10:50:10.839987,130868113,-4.348429,-4.224369,-0.7266793,-0.8507394,-0.8622514,0.7290223,1.080552,0.951566
6947,2023-01-20 10:50:10.939847,130968062,-4.416504,-4.30605,-0.6388862,-0.7493399,-0.7600368,0.6409461,0.9056902,0.9872578
6980,2023-01-20 10:50:11.039849,131068082,-4.476353,-4.382902,-0.5616992,-0.6551504,-0.6722194,0.5635102,0.8197943,0.9307294
7012,2023-01-20 10:50:11.140017,131168164,-4.528973,-4.456757,-0.4938366,-0.5660528,-0.6063557,0.4954289,0.8486331,0.8886811
7046,2023-01-20 10:50:11.239951,131268049,-4.575235,-4.525304,-0.434173,-0.4841041,-0.5641802,0.4355729,0.9074239,0.8748201
7076,2023-01-20 10:50:11.339957,131368062,-4.615908,-4.592312,-0.3817179,-0.4053138,-0.5351996,0.3829486,0.959031,0.892402
7109,2023-01-20 10:50:11.439937,131468044,-4.651668,-4.650965,-0.3356001,-0.3363023,-0.4631319,0.3366821,0.9096879,0.9108746
7140,2023-01-20 10:50:11.539951,131568052,-4.683106,-4.700844,-0.295054,-0.2773156,-0.4339322,0.2960053,0.8977122,0.8955781
7176,2023-01-20 10:50:11.639971,131668068,-4.710747,-4.74755,-0.2594065,-0.2226042,-0.363608,0.2602429,0.8283877,0.8647968
7206,2023-01-20 10:50:11.739949,131768047,-4.735047,-4.79267,-0.228066,-0.1704436,-0.3497262,0.2288013,0.9333592,0.872647
7240,2023-01-20 10:50:11.839979,131868107,-4.756412,-4.834181,-0.2005118,-0.1227427,-0.3290237,0.2011583,0.9534172,0.8886412
7270,2023-01-20 10:50:11.939839,131968042,-4.775195,-4.874838,-0.1762867,-0.07664379,-0.2778663,0.1768551,0.9773178,0.9348026
7303,2023-01-20 10:50:12.039857,132068073,-4.791709,-4.914661,-0.1549884,-0.03203611,-0.276914,0.1554881,0.9922377,0.9649556
7335,2023-01-20 10:50:12.139997,132168131,-4.806227,-4.954445,-0.1362632,0.01195453,-0.2310197,0.1367026,1.004544,0.9959075
7368,2023-01-20 10:50:12.239969,132268056,-4.818992,-4.990652,-0.1198004,0.05185884,-0.2078334,0.1201867,0.9596386,0.9945874
7398,2023-01-20 10:50:12.339980,132368071,-4.830214,-5.024498,-0.1053265,0.08895721,-0.1424382,0.1056661,0.9162847,0.9827909
7431,2023-01-20 10:50:12.439939,132468035,-4.840081,-5.051948,-0.09260135,0.1192654,-0.1006328,0.09289992,0.8421352,0.9357308
7463,2023-01-20 10:50:12.539945,132568049,-4.848756,-5.07498,-0.08141361,0.1448108,-0.038082,0.08167611,0.7611619,0.8802196
7499,2023-01-20 10:50:12.639962,132668066,-4.856382,-5.08672,-0.07157747,0.1587607,0.01648879,0.07180825,0.6441991,0.8041974
7529,2023-01-20 10:50:12.739946,132768039,-4.863088,-5.087899,-0.06292972,0.1618817,0.0635713,0.06313262,0.4866331,0.7041632
7563,2023-01-20 10:50:12.839945,132868061,-4.868983,-5.0861,-0.05532679,0.1617899,0.1109027,0.05550518,0.4416586,0.5873805
7594,2023-01-20 10:50:12.939863,132968053,-4.874166,-5.084463,-0.0486424,0.1616536,0.1137003,0.04879923,0.4785141,0.5266987
7627,2023-01-20 10:50:13.039853,133068057,-4.878723,-5.077123,-0.04276559,0.1556347,0.1520496,0.04290348,0.4322583,0.4923676
7659,2023-01-20 10:50:13.140011,133168141,-4.882729,-5.064705,-0.03759881,0.1443775,0.166326,0.03772004,0.373852,0.4477895
7692,2023-01-20 10:50:13.239951,133268038,-4.88625,-5.057724,-0.03305625,0.138418,0.1551691,0.03316283,0.3652371,0.3952036
7722,2023-01-20 10:50:13.339968,133368058,-4.889347,-5.058714,-0.0290625,0.1403046,0.1890872,0.02915621,0.3777716,0.382576
7755,2023-01-20 10:50:13.439948,133468040,-4.89207,-5.055038,-0.02555127,0.1374175,0.1861074,0.02563366,0.3591965,0.3472665
7787,2023-01-20 10:50:13.539953,133568044,-4.894464,-5.048256,-0.02246426,0.1313288,0.1827281,0.02253669,0.3367881,0.3111304
7823,2023-01-20 10:50:13.639979,133668071,-4.896567,-5.03883,-0.0197502,0.1225121,0.1936563,0.01981388,0.3567501,0.2876214
7853,2023-01-20 10:50:13.739950,133768043,-4.898418,-5.029211,-0.01736405,0.1134291,0.1588371,0.01742004,0.4042374,0.3082165
7887,2023-01-20 10:50:13.839950,133868077,-4.900044,-5.010872,-0.01526619,0.09556114,0.1625602,0.01531541,0.2871256,0.310883
7919,2023-01-20 10:50:13.939829,133968039,-4.901474,-4.982981,-0.01342178,0.06808425,0.1538429,0.01346506,0.2108462,0.2502624
7952,2023-01-20 10:50:14.039847,134068078,-4.902732,-4.958508,-0.01180021,0.04397555,0.1125551,0.01183826,0.2433961,0.2183814
7984,2023-01-20 10:50:14.139970,134168127,-4.903837,-4.936674,-0.01037455,0.02246176,0.08583186,0.010408,0.2782535,0.2101364
8017,2023-01-20 10:50:14.239926,134268036,-4.904809,-4.925159,-0.00912113,0.01122921,0.06310799,0.009150539,0.3502938,0.235257
8047,2023-01-20 10:50:14.339967,134368070,-4.905663,-4.924296,-0.008019147,0.01061305,0.03597882,0.008045002,0.4317584,0.297686
8080,2023-01-20 10:50:14.439946,134468044,-4.906415,-4.924445,-0.0070503,0.0109804,0.04390016,0.007073033,0.4486059,0.3520213
8113,2023-01-20 10:50:14.539945,134568043,-4.907075,-4.925715,-0.006198508,0.01244132,0.02991461,0.006218493,0.4414374,0.3902754
8149,2023-01-20 10:50:14.639969,134668067,-4.907656,-4.921668,-0.005449626,0.008561909,0.0312497,0.005467197,0.3848291,0.4021371
8179,2023-01-20 10:50:14.739958,134768056,-4.908166,-4.911595,-0.004791221,-0.001362266,-0.00117415,0.004806669,0.3520539,0.3807898
8213,2023-01-20 10:50:14.839944,134868076,-4.908616,-4.908491,-0.004212364,-0.004336875,0.01360568,0.004225946,0.3316648,0.3519083
8243,2023-01-20 10:50:14.939842,134968057,-4.90901,-4.91308,-0.003703441,0.0003663835,0.01796031,0.003715381,0.4068242,0.3588892
8276,2023-01-20 10:50:15.039829,135068069,-4.909357,-4.912849,-0.003256004,0.0002361223,-0.01395024,0.003266502,0.4285833,0.3806856
8308,2023-01-20 10:50:15.139943,135168118,-4.909662,-4.908121,-0.002862624,-0.004404068,0.01647841,0.002871854,0.4147844,0.3842839
8341,2023-01-20 10:50:15.239917,135268045,-4.90993,-4.903331,-0.002516772,-0.009116503,0.004080686,0.002524887,0.379134,0.3873039
8371,2023-01-20 10:50:15.339968,135368076,-4.910166,-4.898074,-0.002212704,-0.01430438,-0.02828842,0.002219839,0.4176223,0.3888083
8404,2023-01-20 10:50:15.439986,135468083,-4.910373,-4.896068,-0.001945374,-0.01625018,-0.0140799,0.001951646,0.4237456,0.389621
8436,2023-01-20 10:50:15.539945,135568045,-4.910555,-4.897322,-0.001710341,-0.01494337,-0.034311,0.001715855,0.4609905,0.4163665
8472,2023-01-20 10:50:15.639973,135668074,-4.910716,-4.898153,-0.001503704,-0.01406596,-0.06150172,0.001508552,0.543318,0.4665785
8502,2023-01-20 10:50:15.739955,135768054,-4.910856,-4.897627,-0.001322031,-0.0145514,-0.06723624,0.001326294,0.5194852,0.4977869
8536,2023-01-20 10:50:15.839962,135868072,-4.910981,-4.893929,-0.001162308,-0.01821492,-0.03322046,0.001166056,0.4280594,0.5220077
8566,2023-01-20 10:50:15.939936,135968076,-4.911089,-4.884861,-0.001021882,-0.02725052,-0.06125436,0.001025177,0.374857,0.4945502
8599,2023-01-20 10:50:16.039931,136068078,-4.911185,-4.873191,-0.0008984217,-0.03889281,-0.03636817,0.0009013184,0.3024985,0.4602505
8631,2023-01-20 10:50:16.139974,136168090,-4.91127,-4.857738,-0.0007898774,-0.05432198,-0.02157708,0.0007924241,0.2866951,0.4169644
8664,2023-01-20 10:50:16.239919,136268038,-4.911343,-4.843409,-0.0006944471,-0.06862932,-0.06606175,0.0006966862,0.3528315,0.4029134
8694,2023-01-20 10:50:16.339876,136368049,-4.911407,-4.829003,-0.0006105466,-0.08301502,-0.07383449,0.0006125151,0.3668931,0.3986955
8727,2023-01-20 10:50:16.439860,136468043,-4.911466,-4.818496,-0.0005367823,-0.09350706,-0.07959822,0.000538513,0.4289688,0.4218046
8759,2023-01-20 10:50:16.539962,136568087,-4.911515,-4.809653,-0.00047193,-0.1023341,-0.1255563,0.0004734516,0.5008914,0.4499055
8795,2023-01-20 10:50:16.639972,136668063,-4.911561,-4.808711,-0.000414913,-0.103265,-0.1463364,0.0004162508,0.5736682,0.5041661
8825,2023-01-20 10:50:16.739952,136768046,-4.911597,-4.813865,-0.0003647846,-0.09809702,-0.1597719,0.0003659607,0.653941,0.5740032
8859,2023-01-20 10:50:16.839957,136868061,-4.911634,-4.820799,-0.0003207126,-0.09115537,-0.1685176,0.0003217467,0.7025589,0.6634753
8889,2023-01-20 10:50:16.939916,136968044,-4.911663,-4.827764,-0.0002819652,-0.08418088,-0.1778097,0.0002828743,0.7152617,0.7201629
8922,2023-01-20 10:50:17.039920,137068051,-4.911687,-4.838027,-0.0002478992,-0.07390817,-0.2132135,0.0002486985,0.8431768,0.7866647
8954,2023-01-20 10:50:17.139978,137168080,-4.911712,-4.850443,-0.0002179489,-0.06148626,-0.2241125,0.0002186516,0.9067571,0.8724409
8987,2023-01-20 10:50:17.240004,137268092,-4.911736,-4.863393,-0.0001916172,-0.04853451,-0.2506934,0.000192235,0.9192601,0.9500234
9017,2023-01-20 10:50:17.339994,137368091,-4.911753,-4.87359,-0.0001684666,-0.038331,-0.249211,0.0001690098,0.9012389,0.9696932
9050,2023-01-20 10:50:17.439946,137468044,-4.911765,-4.884175,-0.0001481131,-0.02773814,-0.1949746,0.0001485907,0.8456303,0.9741173
9082,2023-01-20 10:50:17.539954,137568041,-4.911777,-4.894272,-0.0001302185,-0.01763541,-0.1955759,0.0001306384,0.8792052,0.9736283
9118,2023-01-20 10:50:17.640033,137668113,-4.911789,-4.903141,-0.000114486,-0.008762863,-0.1743913,0.0001148551,0.8604484,0.9664376
9148,2023-01-20 10:50:17.739973,137768054,-4.911801,-4.909295,-0.0001006542,-0.002607063,-0.1819947,0.0001009787,0.8937231,0.951002
9182,2023-01-20 10:50:17.836425,137868069,-4.911814,-4.914442,-8.849349E-05,0.002539375,-0.1664034,8.877882E-05,0.8920878,0.9554409
9212,2023-01-20 10:50:17.927497,137968046,-4.911826,-4.91583,-7.7802E-05,0.003926409,-0.1427492,7.805285E-05,0.8405531,0.92825
9246,2023-01-20 10:50:18.022670,138068099,-4.911838,-4.91644,-6.840225E-05,0.004533648,-0.1335129,6.862279E-05,0.828123,0.9078579
9278,2023-01-20 10:50:18.133431,138168065,-4.911849,-4.910266,-6.013813E-05,-0.001643085,-0.1065994,6.033203E-05,0.715309,0.8600581
9311,2023-01-20 10:50:18.239915,138268045,-4.911849,-4.902498,-5.287246E-05,-0.009403763,-0.093179,5.304294E-05,0.7113237,0.8001345
9341,2023-01-20 10:50:18.340026,138368115,-4.911849,-4.891358,-4.648459E-05,-0.02053721,-0.09595694,4.663446E-05,0.6731546,0.732925
9374,2023-01-20 10:50:18.436412,138468033,-4.911849,-4.878696,-4.086848E-05,-0.03319333,-0.09473676,4.100025E-05,0.6811498,0.6757372
9406,2023-01-20 10:50:18.527520,138568039,-4.911849,-4.86259,-3.593088E-05,-0.04929496,-0.05988512,3.604673E-05,0.6569887,0.606525
9442,2023-01-20 10:50:18.620464,138668068,-4.911849,-4.850328,-3.158985E-05,-0.06155228,-0.1010111,3.16917E-05,0.7638956,0.615608
9472,2023-01-20 10:50:18.720418,138768056,-4.911849,-4.834006,-2.777327E-05,-0.07786987,-0.09197243,2.786282E-05,0.7196898,0.6253679
9506,2023-01-20 10:50:18.820379,138868051,-4.911849,-4.822924,-2.441781E-05,-0.08894958,-0.1223652,2.449654E-05,0.7351869,0.6519774
9538,2023-01-20 10:50:18.920340,138968048,-4.911849,-4.808893,-2.146773E-05,-0.1029774,-0.1112789,2.153695E-05,0.6213077,0.6746446
9571,2023-01-20 10:50:19.020369,139068099,-4.911849,-4.798626,-1.887408E-05,-0.1132412,-0.07621101,1.893493E-05,0.5138931,0.6603148
9603,2023-01-20 10:50:19.120370,139168064,-4.911849,-4.786528,-1.659378E-05,-0.1253376,-0.07931833,1.664728E-05,0.4214188,0.5709644
9636,2023-01-20 10:50:19.220368,139268039,-4.911849,-4.776826,-1.458897E-05,-0.1350369,-0.03828117,1.463601E-05,0.3673396,0.4836431
9666,2023-01-20 10:50:19.320364,139368061,-4.911849,-4.765784,-1.282638E-05,-0.1460779,-0.04379762,1.286774E-05,0.3133056,0.4058871
9699,2023-01-20 10:50:19.420318,139468046,-4.911849,-4.756513,-1.127674E-05,-0.1553473,-0.03862849,1.13131E-05,0.3129382,0.3616723
9731,2023-01-20 10:50:19.520277,139568058,-4.911849,-4.744928,-9.91433E-06,-0.1669307,-0.05101099,9.946297E-06,0.2923425,0.3124633
9767,2023-01-20 10:50:19.620247,139668071,-4.911849,-4.732153,-8.716514E-06,-0.1797041,-0.001903992,8.744618E-06,0.2048178,0.2774312
9797,2023-01-20 10:50:19.720212,139768038,-4.911849,-4.709995,-7.663414E-06,-0.2018613,-0.00379554,7.688123E-06,0.09024182,0.1943441
9831,2023-01-20 10:50:19.820216,139868048,-4.911849,-4.69104,-6.737547E-06,-0.2208161,0.01533842,6.75927E-06,0.01963456,0.1467422
9861,2023-01-20 10:50:19.920206,139968054,-4.911849,-4.668691,-5.923539E-06,-0.2431636,-0.0311961,5.942637E-06,0.009794017,0.0674936
9894,2023-01-20 10:50:20.020251,140068111,-4.911849,-4.651345,-5.20788E-06,-0.2605087,0.00353645,5.224671E-06,-0.06663471,0.02773299
9926,2023-01-20 10:50:20.120231,140168081,-4.911849,-4.634937,-4.578681E-06,-0.2769162,-0.04269056,4.593444E-06,-0.0392343,-0.01394542
9959,2023-01-20 10:50:20.220212,140268041,-4.911849,-4.619657,-4.025501E-06,-0.2921958,0.01432008,4.03848E-06,-0.1555346,-0.03965662
9992,2023-01-20 10:50:20.320277,140368042,-4.674768,-4.598995,8.937762E-06,-0.07576407,-0.04834699,0.0007915389,-0.03451954,-0.06697977
10025,2023-01-20 10:50:20.420306,140468021,-4.674742,-4.585323,0.0008978823,-0.08852044,-0.06490379,0.02383175,0.01809781,-0.03481033
10057,2023-01-20 10:50:20.520308,140568028,-4.674446,-4.573298,0.006230247,-0.0949169,-0.1132468,0.09145011,0.1702645,0.03461116
10093,2023-01-20 10:50:20.620378,140668093,-4.6733,-4.568387,0.01921509,-0.08569763,-0.1229602,0.1816566,0.3252981,0.1448254
10123,2023-01-20 10:50:20.720349,140768026,-4.670633,-4.564989,0.04002706,-0.06561778,-0.1416591,0.2701946,0.4373653,0.2644224
10157,2023-01-20 10:50:20.820363,140868034,-4.665895,-4.564624,0.06784441,-0.03342604,-0.1179924,0.3556365,0.5243738,0.3804676
10187,2023-01-20 10:50:20.920235,140968025,-4.658657,-4.561492,0.1019274,0.004762792,-0.09587632,0.4381709,0.5778442,0.4680671
10220,2023-01-20 10:50:21.020171,141068045,-4.64856,-4.556209,0.1417366,0.04938553,-0.03678631,0.5181867,0.6521733,0.55763
10252,2023-01-20 10:50:21.120223,141168041,-4.635201,-4.542716,0.1871618,0.09467733,0.01427843,0.5965203,0.6632487,0.6213164
10285,2023-01-20 10:50:21.220292,141268071,-4.618079,-4.524807,0.238406,0.1451349,0.08386002,0.6740484,0.7140951,0.6771464
10315,2023-01-20 10:50:21.320296,141368099,-4.596622,-4.495835,0.295774,0.194987,0.1609254,0.7514104,0.7153836,0.7095879
10348,2023-01-20 10:50:21.420203,141468019,-4.570174,-4.46137,0.3596539,0.2508499,0.2563672,0.8291027,0.7719306,0.7585262
10380,2023-01-20 10:50:21.520251,141568031,-4.53804,-4.415108,0.4303797,0.3074476,0.28036,0.9073945,0.8134636,0.8230788
10416,2023-01-20 10:50:21.620275,141668038,-4.499519,-4.36274,0.5081939,0.371415,0.3845918,0.9863792,0.8797867,0.918693
10446,2023-01-20 10:50:21.720208,141768033,-4.453922,-4.296572,0.593244,0.4358935,0.4352141,1.066036,0.9106013,0.9785464
10480,2023-01-20 10:50:21.820169,141868046,-4.400543,-4.227829,0.685665,0.5129511,0.5684528,1.146338,1.022148,1.053144
10510,2023-01-20 10:50:21.920185,141968075,-4.338655,-4.152878,0.7855878,0.5998118,0.6205157,1.22726,1.197172,1.162155
10543,2023-01-20 10:50:22.020155,142068046,-4.267513,-4.07164,0.8931346,0.6972609,0.7069983,1.308778,1.383412,1.299314
10575,2023-01-20 10:50:22.120217,142168057,-4.186356,-3.977315,1.008424,0.7993826,0.7780307,1.390869,1.500387,1.388288
10608,2023-01-20 10:50:22.220204,142268011,-4.094406,-3.881007,1.131567,0.9181686,0.8597942,1.47351,1.745772,1.497226
10638,2023-01-20 10:50:22.320222,142368064,-3.990888,-3.782598,1.262648,1.054357,0.9152061,1.556663,2.101134,1.659218
10671,2023-01-20 10:50:22.420152,142468013,-3.87516,-3.681557,1.401576,1.207973,1.012529,1.6402,2.342837,1.849227
10703,2023-01-20 10:50:22.520209,142568023,-3.746677,-3.57413,1.548169,1.375622,1.1043,1.723963,2.588277,2.04735
10739,2023-01-20 10:50:22.620314,142668095,-3.604924,-3.454484,1.702252,1.551811,1.245292,1.807826,2.769925,2.247777
10769,2023-01-20 10:50:22.720228,142768026,-3.44936,-3.316915,1.863698,1.731254,1.375418,1.891713,2.83768,2.397898
10803,2023-01-20 10:50:22.820220,142868038,-3.279395,-3.163237,2.032458,1.9163,1.512301,1.975595,3.035602,2.551101
10833,2023-01-20 10:50:22.920176,142968025,-3.094387,-2.987927,2.208534,2.102074,1.709894,2.059476,3.064451,2.688903
10866,2023-01-20 10:50:23.020196,143068060,-2.893623,-2.794744,2.391992,2.293113,1.877462,2.143384,3.203855,2.841252
10899,2023-01-20 10:50:23.120282,143168095,-2.676367,-2.578824,2.582911,2.485368,2.078099,2.22735,3.308718,2.99335
10932,2023-01-20 10:50:23.220291,143268069,-2.441857,-2.347606,2.781368,2.687117,2.295419,2.310611,3.458292,3.147221
10962,2023-01-20 10:50:23.320251,143368058,-2.18935,-2.100857,2.986825,2.898332,2.462896,2.376969,3.675679,3.327384
10995,2023-01-20 10:50:23.420192,143468019,-1.918256,-1.839499,3.19688,3.118123,2.654869,2.407982,3.783897,3.514124
11027,2023-01-20 10:50:23.520216,143568028,-1.628185,-1.553714,3.408657,3.334187,2.861142,2.412272,3.73848,3.62063
11063,2023-01-20 10:50:23.620261,143668065,-1.318849,-1.246456,3.620781,3.548388,3.074726,2.404858,3.723954,3.656008
11093,2023-01-20 10:50:23.720200,143768018,-0.9900326,-0.9166543,3.831575,3.758196,3.351727,2.366619,3.592145,3.63904
11127,2023-01-20 10:50:23.820226,143868058,-0.6417401,-0.5626862,4.03801,3.958956,3.605212,2.293996,3.432951,3.573109
11160,2023-01-20 10:50:23.920232,143968081,-0.2742236,-0.1863278,4.237946,4.15005,3.812198,2.20882,3.348442,3.463128
11193,2023-01-20 10:50:24.020196,144068046,0.1121243,0.2094729,4.430981,4.333632,4.024521,2.123163,3.2923,3.363875
11225,2023-01-20 10:50:24.120261,144168049,0.5168875,0.6369789,4.617067,4.496976,4.215637,2.037184,3.113389,3.253022
11258,2023-01-20 10:50:24.220265,144268017,0.9396585,1.073089,4.796155,4.662725,4.361154,1.950862,3.096534,3.15115
11288,2023-01-20 10:50:24.320226,144368040,1.379946,1.505276,4.96816,4.84283,4.516635,1.864196,3.222712,3.130328
11321,2023-01-20 10:50:24.420165,144468016,1.837131,1.963534,5.13295,5.006548,4.710959,1.777204,3.103612,3.119059
11354,2023-01-20 10:50:24.520287,144568072,2.310629,2.446466,5.29043,5.154593,4.877506,1.689893,2.976637,3.030842
11391,2023-01-20 10:50:24.620292,144668041,2.799871,2.935034,5.440506,5.305343,5.025077,1.602265,3.079825,2.983534
11421,2023-01-20 10:50:24.720193,144768023,3.304154,3.435128,5.583061,5.452087,5.119764,1.51434,3.151865,3.004565
11455,2023-01-20 10:50:24.820192,144868087,3.956606,3.947665,5.246669,5.25561,5.240326,-0.3989238,2.715,2.908303
11486,2023-01-20 10:50:24.920151,144968046,4.480438,4.466002,5.203494,5.217931,5.289015,-0.8800753,1.656546,2.462981
11519,2023-01-20 10:50:25.020165,145068053,4.99275,4.995739,5.030226,5.027237,5.344443,-1.360325,0.1818663,1.606212
11551,2023-01-20 10:50:25.120223,145168082,5.483169,5.525851,4.772941,4.730259,5.322246,-1.840414,-1.131491,0.5170099
11585,2023-01-20 10:50:25.220213,145268050,5.944593,6.045141,4.454525,4.353978,5.211795,-2.320581,-2.312725,-0.6087143
11615,2023-01-20 10:50:25.320216,145368059,6.372075,6.55367,4.103757,3.922162,5.009681,-2.404189,-2.680633,-1.551973
11648,2023-01-20 10:50:25.420206,145468051,6.764618,7.032484,3.756812,3.488946,4.743166,-2.403877,-2.882658,-2.161456
11680,2023-01-20 10:50:25.520279,145568111,7.122813,7.467859,3.416876,3.07183,4.450723,-2.403705,-3.011154,-2.532996
11716,2023-01-20 10:50:25.620252,145668076,7.447428,7.872605,3.085114,2.659936,4.121881,-2.403615,-3.201204,-2.787966
11746,2023-01-20 10:50:25.720210,145768046,7.739305,8.254133,2.761968,2.247139,3.77688,-2.403566,-3.48591,-3.062411
11779,2023-01-20 10:50:25.820249,145868100,7.999316,8.607548,2.447546,1.839315,3.428504,-2.403539,-3.71626,-3.345461
11811,2023-01-20 10:50:25.920170,145968045,8.228643,8.924635,2.152363,1.456371,3.052462,-2.159302,-3.381509,-3.457971
11844,2023-01-20 10:50:26.020169,146068056,8.430281,9.207357,1.892421,1.115345,2.653851,-1.898523,-2.879472,-3.291806
11876,2023-01-20 10:50:26.120222,146168071,8.607563,9.452619,1.663836,0.8187801,2.285801,-1.6692,-2.557375,-2.985185
11909,2023-01-20 10:50:26.220211,146268037,8.76343,9.662373,1.462843,0.5639008,1.986336,-1.467559,-2.439671,-2.73933
11939,2023-01-20 10:50:26.320185,146368047,8.900466,9.843443,1.286121,0.3431438,1.713608,-1.290268,-2.221628,-2.5136
11972,2023-01-20 10:50:26.420174,146468059,9.020949,9.997147,1.130743,0.1545459,1.353232,-1.134389,-1.844281,-2.274598
12004,2023-01-20 10:50:26.520205,146568060,9.126876,10.12688,0.9941342,-0.00587059,1.124923,-0.9973396,-1.689005,-2.039895
12040,2023-01-20 10:50:26.620245,146668077,9.220005,10.22933,0.8740287,-0.1352987,0.969333,-0.8768467,-1.577096,-1.845327
12070,2023-01-20 10:50:26.720219,146768056,9.301882,10.30158,0.7684316,-0.2312705,0.7230838,-0.7709092,-1.318348,-1.653
12103,2023-01-20 10:50:26.820286,146868132,9.373864,10.36061,0.6755919,-0.3111536,0.5859134,-0.6777702,-1.278727,-1.499189
12134,2023-01-20 10:50:26.920177,146968048,9.437152,10.41158,0.5939692,-0.3804558,0.4277218,-0.5958843,-1.171249,-1.396409
12167,2023-01-20 10:50:27.020267,147068155,9.492796,10.45162,0.522208,-0.436617,0.3697287,-0.5238917,-1.23652,-1.335681
12199,2023-01-20 10:50:27.120194,147168073,9.541718,10.48393,0.4591167,-0.4830976,0.3043531,-0.460597,-1.266821,-1.323658
12232,2023-01-20 10:50:27.220176,147268044,9.584725,10.51049,0.403648,-0.5221168,0.2553785,-0.4049495,-1.279991,-1.299869
12262,2023-01-20 10:50:27.320242,147368096,9.622539,10.53341,0.3548808,-0.5559914,0.1929635,-0.356025,-1.227439,-1.272817
12295,2023-01-20 10:50:27.418404,147468059,9.655785,10.54883,0.3120052,-0.5810368,0.1391295,-0.3130112,-1.126697,-1.213706
12327,2023-01-20 10:50:27.509453,147568081,9.685014,10.55819,0.2743098,-0.5988696,0.0404417,-0.2751942,-1.031793,-1.138912
12363,2023-01-20 10:50:27.600676,147668227,9.710711,10.56136,0.2411686,-0.6094765,-0.0233876,-0.2419462,-0.9978281,-1.09162
12393,2023-01-20 10:50:27.700492,147768051,9.733301,10.56808,0.2120315,-0.6227493,-0.06223376,-0.2127151,-1.045448,-1.075723
12426,2023-01-20 10:50:27.800652,147868218,9.753164,10.56925,0.1864146,-0.6296724,-0.04746201,-0.1870157,-1.076294,-1.081236
12458,2023-01-20 10:50:27.900413,147968043,9.770628,10.5779,0.1638926,-0.643384,-0.07782897,-0.164421,-1.065735,-1.082734
12491,2023-01-20 10:50:28.000645,148068339,9.785981,10.57863,0.1440917,-0.6485547,-0.1371686,-0.1445563,-0.9946874,-1.067396
12523,2023-01-20 10:50:28.100392,148168061,9.79948,10.56712,0.126683,-0.6409555,-0.164957,-0.1270915,-0.8213346,-0.9900381
12557,2023-01-20 10:50:28.200652,148268296,9.811349,10.54953,0.1113776,-0.6268035,-0.2184895,-0.1117367,-0.7370026,-0.8836053
12587,2023-01-20 10:50:28.300465,148368084,9.821783,10.52132,0.09792136,-0.6016111,-0.237771,-0.09823708,-0.6181282,-0.7772779
12620,2023-01-20 10:50:28.400725,148468247,9.830957,10.49118,0.08609086,-0.5741295,-0.315293,-0.08636843,-0.5168104,-0.6865832
12652,2023-01-20 10:50:28.511464,148568045,9.839021,10.47541,0.07568969,-0.5607019,-0.3502217,-0.07593373,-0.5334911,-0.6267387
12688,2023-01-20 10:50:28.618419,148668075,9.84611,10.45458,0.06654514,-0.541921,-0.3160715,-0.06675969,-0.5444244,-0.5861557
12718,2023-01-20 10:50:28.709422,148768078,9.852344,10.43161,0.05850539,-0.5207573,-0.3189817,-0.05869403,-0.5162305,-0.5499887
12751,2023-01-20 10:50:28.800637,148868252,9.857824,10.40459,0.05143697,-0.4953257,-0.332305,-0.05160281,-0.4363914,-0.5076295
12784,2023-01-20 10:50:28.900321,148968049,9.862642,10.37338,0.04522256,-0.4655172,-0.3622997,-0.04536837,-0.341866,-0.4549914
12817,2023-01-20 10:50:29.000579,149068421,9.866879,10.34084,0.03975895,-0.4342016,-0.3309543,-0.03988715,-0.3420104,-0.3931725
12849,2023-01-20 10:50:29.100302,149168090,9.870604,10.31421,0.03495542,-0.4086554,-0.3158508,-0.03506812,-0.3615262,-0.3645192
12883,2023-01-20 10:50:29.200631,149268365,9.873879,10.28684,0.03073223,-0.3822267,-0.353419,-0.03083131,-0.3473584,-0.3645115
12913,2023-01-20 10:50:29.300272,149368071,9.876758,10.25742,0.02701927,-0.3536448,-0.2751403,-0.02710638,-0.3766822,-0.3694344
12946,2023-01-20 10:50:29.400571,149468435,9.879288,10.2292,0.0237549,-0.3261535,-0.3163325,-0.02383149,-0.3502027,-0.3792677
12978,2023-01-20 10:50:29.500191,149568036,9.881514,10.19767,0.02088493,-0.2952735,-0.2227431,-0.02095227,-0.3541767,-0.3652719
13014,2023-01-20 10:50:29.600591,149668416,9.883469,10.16894,0.01836168,-0.2671046,-0.2599441,-0.01842088,-0.3013629,-0.3447406
13044,2023-01-20 10:50:29.700212,149768046,9.88519,10.14262,0.0161433,-0.2412822,-0.2236449,-0.01619534,-0.2702431,-0.3231851
13077,2023-01-20 10:50:29.800569,149868412,9.886702,10.1179,0.01419292,-0.217007,-0.2249362,-0.01423868,-0.2218893,-0.2831312
13108,2023-01-20 10:50:29.900218,149968084,9.888031,10.09452,0.01247818,-0.1940092,-0.2177733,-0.01251841,-0.161212,-0.2323127
13141,2023-01-20 10:50:30.000587,150068475,9.889199,10.07069,0.01097061,-0.1705156,-0.213884,-0.01100598,-0.07813106,-0.1526386
13173,2023-01-20 10:50:30.100226,150168080,9.890228,10.04644,0.009645174,-0.1465688,-0.2118001,-0.009676272,-0.03888036,-0.0931077
13206,2023-01-20 10:50:30.200565,150268385,9.891132,10.02367,0.008479877,-0.1240622,-0.2347053,-0.008507217,-0.01895786,-0.06456943
13236,2023-01-20 10:50:30.300262,150368081,9.891928,10.00541,0.007455369,-0.1060218,-0.1804606,-0.007479406,-0.08873875,-0.06284976
13269,2023-01-20 10:50:30.400581,150468399,9.892626,9.988503,0.00655464,-0.08932304,-0.1753951,-0.006575773,-0.09562977,-0.07319445
13301,2023-01-20 10:50:30.500226,150568050,9.893241,9.967545,0.005762733,-0.06854086,-0.1970956,-0.005781312,0.04254518,-0.05231376
13337,2023-01-20 10:50:30.600592,150668421,9.893781,9.947711,0.005066501,-0.04886416,-0.1715831,-0.005082837,0.1094226,0.007912665
13368,2023-01-20 10:50:30.700210,150768041,9.894255,9.923236,0.004454383,-0.02452694,-0.1667962,-0.004468745,0.1957103,0.09099923
13401,2023-01-20 10:50:30.800562,150868395,9.894671,9.900672,0.00391622,-0.002084146,-0.1992421,-0.003928846,0.255963,0.1598758
13432,2023-01-20 10:50:30.900183,150968050,9.895039,9.876935,0.003443076,0.02154671,-0.1635899,-0.003454177,0.3019946,0.2141712
13465,2023-01-20 10:50:31.000582,151068481,9.895362,9.856108,0.003027096,0.04228124,-0.1522724,-0.003036856,0.2631798,0.2522219
13497,2023-01-20 10:50:31.100317,151168129,9.895644,9.82773,0.002661374,0.0705758,-0.1428101,-0.002669955,0.3391605,0.2851247
13530,2023-01-20 10:50:31.200619,151268343,9.895895,9.805378,0.002339836,0.09285741,-0.1479305,-0.00234738,0.339204,0.3065493
13560,2023-01-20 10:50:31.300314,151368088,9.896114,9.779907,0.002057146,0.1182644,-0.08810544,-0.002063778,0.3068906,0.3092043
13593,2023-01-20 10:50:31.400565,151468389,9.896307,9.761832,0.001808609,0.1362837,-0.06036904,-0.00181444,0.2524861,0.2918678
13625,2023-01-20 10:50:31.500221,151568065,9.896478,9.746854,0.001590099,0.1512147,-0.05377608,-0.001595226,0.2270238,0.2566792
13660,2023-01-20 10:50:31.600589,151668452,9.896625,9.738781,0.001397988,0.1592416,0.01988182,-0.001402496,0.1503734,0.2119555
13691,2023-01-20 10:50:31.700183,151768033,9.896754,9.734238,0.001229089,0.1637456,0.0437559,-0.001233052,0.08071145,0.1625737
13724,2023-01-20 10:50:31.800565,151868402,9.896873,9.735858,0.001080594,0.162095,0.07963467,-0.001084079,-0.01185316,0.1126941
13756,2023-01-20 10:50:31.900230,151968090,9.89697,9.739527,0.0009500407,0.1583933,0.1105823,-0.0009531038,-0.04781894,0.05791106
13789,2023-01-20 10:50:32.000578,152068461,9.897062,9.748661,0.0008352603,0.1492373,0.118857,-0.0008379534,-0.05635213,0.01593068
13821,2023-01-20 10:50:32.100210,152168066,9.897136,9.755164,0.0007343471,0.1427064,0.1404519,-0.0007367148,-0.04830631,-0.005603991
13854,2023-01-20 10:50:32.200571,152268400,9.897209,9.765734,0.0006456255,0.1321215,0.1302058,-0.0006477071,-0.04979344,-0.01532647
13884,2023-01-20 10:50:32.300258,152368080,9.897268,9.766932,0.0005676232,0.1309039,0.1272216,-0.0005694534,-0.01478537,-0.01800682
13917,2023-01-20 10:50:32.400571,152468387,9.897317,9.773244,0.0004990451,0.1245725,0.1368833,-0.0005006541,-0.0592797,-0.02542738
13949,2023-01-20 10:50:32.500206,152568047,9.897367,9.775312,0.0004387521,0.122492,0.1369536,-0.0004401667,-0.05054206,-0.03512633
13984,2023-01-20 10:50:32.600584,152668450,9.897415,9.78285,0.0003857436,0.1149506,0.1395066,-0.0003869873,-0.1158276,-0.06177862
14015,2023-01-20 10:50:32.700181,152768034,9.897449,9.790019,0.0003391395,0.1077696,0.1591292,-0.0003402329,-0.1545964,-0.09598211
14048,2023-01-20 10:50:32.800567,152868406,9.897473,9.800977,0.0002981659,0.09679536,0.1763172,-0.0002991272,-0.2136196,-0.1289291
14079,2023-01-20 10:50:32.900224,152968084,9.897498,9.801567,0.0002621425,0.09619293,0.1552157,-0.0002629878,-0.1315479,-0.1418082
14112,2023-01-20 10:50:33.000578,153068459,9.897522,9.806744,0.0002304714,0.09100928,0.1248099,-0.0002312145,-0.1404931,-0.1409225
14144,2023-01-20 10:50:33.100228,153168081,9.897547,9.80995,0.0002026267,0.08779906,0.1238907,-0.00020328,-0.1035865,-0.1418678
14177,2023-01-20 10:50:33.200564,153268389,9.897572,9.816737,0.000178146,0.08101249,0.1360705,-0.0001787204,-0.1448011,-0.1467261
14208,2023-01-20 10:50:33.300265,153368086,9.897595,9.821516,0.000156623,0.07623572,0.1582385,-0.000157128,-0.1840553,-0.1517847
14241,2023-01-20 10:50:33.400572,153468389,9.89762,9.829446,0.0001377003,0.06831214,0.1486643,-0.0001381443,-0.2267617,-0.1665178
14274,2023-01-20 10:50:33.500236,153568057,9.897642,9.83394,0.0001210639,0.06382407,0.1343036,-0.0001214542,-0.2533176,-0.184888
14310,2023-01-20 10:50:33.600584,153668410,9.897642,9.842209,0.0001064373,0.0555404,0.1195761,-0.0001067805,-0.2695837,-0.2157565
14341,2023-01-20 10:50:33.700205,153768038,9.897642,9.844905,9.357795E-05,0.05283162,0.1593187,-9.387966E-05,-0.2955336,-0.2296812
14374,2023-01-20 10:50:33.800557,153868396,9.897642,9.851891,8.227218E-05,0.04583422,0.1602474,-8.253746E-05,-0.3466124,-0.2490037
14407,2023-01-20 10:50:33.900214,153968080,9.897642,9.851826,7.233234E-05,0.04588959,0.1515797,-7.256556E-05,-0.3078794,-0.2525218
14440,2023-01-20 10:50:34.000556,154068448,9.897642,9.856632,6.35934E-05,0.04107434,0.1606141,-6.379844E-05,-0.3356475,-0.2496809
14472,2023-01-20 10:50:34.100189,154168067,9.897642,9.856418,5.591026E-05,0.04128088,0.138718,-5.609052E-05,-0.3011092,-0.2471063
14505,2023-01-20 10:50:34.200584,154268448,9.897642,9.860662,4.915539E-05,0.03703035,0.139101,-4.931387E-05,-0.3218453,-0.2485771
14535,2023-01-20 10:50:34.300228,154368068,9.897642,9.858732,4.321664E-05,0.03895374,0.1365346,-4.335598E-05,-0.2434862,-0.2395471
14568,2023-01-20 10:50:34.400563,154468379,9.897642,9.860397,3.799536E-05,0.03728348,0.1170774,-3.811787E-05,-0.2301731,-0.227659
14601,2023-01-20 10:50:34.500251,154568030,9.897642,9.854321,3.34049E-05,0.04335494,0.05987819,-3.351261E-05,-0.100281,-0.1839141
14635,2023-01-20 10:50:34.600660,154668403,9.897642,9.850706,2.936904E-05,0.0469654,0.05157017,-2.946374E-05,-0.03613998,-0.1225915
14667,2023-01-20 10:50:34.700251,154768043,9.897642,9.836448,2.582078E-05,0.06122089,0.00874876,-2.590403E-05,0.106298,-0.04966994
14700,2023-01-20 10:50:34.800563,154868404,9.897642,9.825725,2.27012E-05,0.07194103,0.007057964,-2.277439E-05,0.1250795,0.02166533
14733,2023-01-20 10:50:34.900186,154968060,9.816567,9.808451,2.21045E-08,0.008117087,-0.001497796,8.798268E-06,0.1980015,0.08397175
14766,2023-01-20 10:50:35.000586,155068492,9.816574,9.79621,0.000302988,0.02066737,-0.01165851,0.01082486,0.2979135,0.1616725
14798,2023-01-20 10:50:35.100272,155168093,9.816718,9.779638,0.003466747,0.04054683,0.0377221,0.06176329,0.3209783,0.2257987
14831,2023-01-20 10:50:35.200636,155268372,9.817457,9.770047,0.01333732,0.0607482,0.03525522,0.1474439,0.3734733,0.282454
14861,2023-01-20 10:50:35.300293,155368032,9.819524,9.748516,0.03165927,0.102667,0.04833479,0.2388242,0.5777951,0.3806583
14894,2023-01-20 10:50:35.400627,155468368,9.823669,9.736904,0.05826154,0.1450273,0.06383254,0.3290689,0.7135899,0.5052911
14926,2023-01-20 10:50:35.500300,155568040,9.830605,9.722997,0.09286927,0.2004773,0.1045331,0.4182801,0.9466992,0.6527964
14961,2023-01-20 10:50:35.600646,155668385,9.840914,9.718087,0.1349434,0.2577705,0.1178081,0.5059784,1.123853,0.8225564
14992,2023-01-20 10:50:35.700305,155768065,9.855114,9.715264,0.184024,0.3238738,0.1476441,0.592088,1.287386,0.9873836
15025,2023-01-20 10:50:35.800599,155868379,9.873674,9.721289,0.2397557,0.3921416,0.2191053,0.6767094,1.388027,1.141824
15056,2023-01-20 10:50:35.900200,155968021,9.897078,9.736353,0.3019688,0.4626938,0.2663619,0.7601244,1.456611,1.263212
15089,2023-01-20 10:50:36.000565,156068427,9.925851,9.761642,0.3706541,0.5348631,0.3499391,0.8426812,1.478961,1.349376
15121,2023-01-20 10:50:36.100246,156168050,9.960573,9.792557,0.4459138,0.6139301,0.4337326,0.924716,1.55304,1.424419
15154,2023-01-20 10:50:36.200635,156268381,10.00184,9.836169,0.5278488,0.6935183,0.5503579,1.006453,1.593405,1.496953
15184,2023-01-20 10:50:36.300256,156368051,10.05027,9.883243,0.6165807,0.7836102,0.6023259,1.088067,1.756602,1.583712
15217,2023-01-20 10:50:36.400569,156468412,10.10646,9.941965,0.7121375,0.8766346,0.7159905,1.169607,1.818131,1.691655
15249,2023-01-20 10:50:36.500247,156568033,10.17102,9.99818,0.8145813,0.9874237,0.7838261,1.251135,2.049871,1.800084
15284,2023-01-20 10:50:36.600655,156668385,10.24455,10.06992,0.9239252,1.098548,0.8916831,1.332663,2.15162,1.927132
15315,2023-01-20 10:50:36.700288,156768014,10.32763,10.14583,1.040191,1.221989,1.011087,1.414205,2.326715,2.060163
15348,2023-01-20 10:50:36.800667,156868390,10.42089,10.24005,1.163408,1.344244,1.112362,1.495779,2.370046,2.180864
15379,2023-01-20 10:50:36.900215,156968030,10.525,10.3379,1.293692,1.480799,1.27628,1.57745,2.407324,2.276725
15412,2023-01-20 10:50:37.000568,157068476,10.64073,10.45525,1.431215,1.616698,1.450983,1.659303,2.413863,2.335212
15444,2023-01-20 10:50:37.100220,157168048,10.76893,10.58329,1.57623,1.761865,1.60265,1.741453,2.460701,2.370278
15477,2023-01-20 10:50:37.200625,157268373,10.91049,10.73611,1.728996,1.903378,1.750896,1.823996,2.498513,2.390561
15507,2023-01-20 10:50:37.300297,157368043,11.06637,10.89725,1.889767,2.058888,1.904471,1.90701,2.653007,2.447828
15540,2023-01-20 10:50:37.400625,157468368,11.23747,11.08374,2.058709,2.21244,2.096152,1.990516,2.68251,2.51769
15572,2023-01-20 10:50:37.500303,157568030,11.42469,11.28937,2.235963,2.371279,2.268953,2.074521,2.819462,2.614895
15607,2023-01-20 10:50:37.600994,157668706,11.62889,11.51251,2.421622,2.537995,2.411568,2.159006,2.98747,2.723257
15638,2023-01-20 10:50:37.700336,157768063,11.85094,11.73722,2.615757,2.729479,2.573156,2.24395,3.215711,2.895302
15671,2023-01-20 10:50:37.800646,157868388,12.09169,11.98746,2.818381,2.922607,2.74122,2.327323,3.261728,3.03538
15703,2023-01-20 10:50:37.900235,157968020,12.35195,12.24262,3.02859,3.137917,2.960217,2.388623,3.417417,3.164262
15736,2023-01-20 10:50:38.000561,158068445,12.63231,12.52912,3.243487,3.346675,3.177475,2.412788,3.401292,3.275589
15768,2023-01-20 10:50:38.091205,158168045,12.93309,12.82642,3.460141,3.566812,3.330989,2.41444,3.539432,3.340256
15799,2023-01-20 10:50:38.182492,158268351,13.25438,13.14843,3.677106,3.78306,3.523538,2.400744,3.639706,3.409259
15831,2023-01-20 10:50:38.280488,158368075,13.5961,13.48176,3.891904,4.006247,3.74238,2.350817,3.631886,3.47488
15863,2023-01-20 10:50:38.380834,158468419,13.95791,13.84224,4.101164,4.216834,3.982363,2.269787,3.499152,3.489568
15897,2023-01-20 10:50:38.480425,158568035,14.33928,14.21406,4.30316,4.428375,4.151525,2.182381,3.607615,3.486497
15931,2023-01-20 10:50:38.580885,158668527,14.7395,14.60726,4.497639,4.629884,4.313646,2.094784,3.575079,3.513512
15964,2023-01-20 10:50:38.680361,158768013,15.15798,15.01823,4.684552,4.824306,4.521375,2.006996,3.52823,3.488296
15995,2023-01-20 10:50:38.780634,158868291,15.59411,15.45319,4.86385,5.004775,4.633679,1.919014,3.536779,3.484127
16030,2023-01-20 10:50:38.889201,158968032,16.04728,15.89221,5.035483,5.19055,4.836436,1.830836,3.48941,3.493942
16063,2023-01-20 10:50:39.000503,159068420,16.51687,16.36076,5.199409,5.355518,4.997675,1.742457,3.291419,3.441186
16095,2023-01-20 10:50:39.091166,159168047,17.00237,16.84028,5.355612,5.517701,5.197657,1.653854,3.121514,3.327799
16127,2023-01-20 10:50:39.182395,159268297,17.50331,17.34097,5.504075,5.666424,5.367075,1.564998,3.054689,3.21757
16159,2023-01-20 10:50:39.280359,159368030,18.01914,17.86358,5.64475,5.800314,5.510898,1.475875,3.044394,3.157968
16190,2023-01-20 10:50:39.380530,159468237,18.54923,18.40567,5.777572,5.92114,5.618395,1.38648,2.950799,3.080745
16224,2023-01-20 10:50:39.480290,159568017,19.09292,18.94675,5.902459,6.048622,5.726805,1.296816,2.956626,3.022388
16257,2023-01-20 10:50:39.580679,159668422,19.64948,19.51113,6.019329,6.157679,5.86118,1.206889,2.835081,2.954852
16290,2023-01-20 10:50:39.680288,159768081,20.21814,20.08245,6.128091,6.263781,5.989803,1.116713,2.811157,2.885706
16321,2023-01-20 10:50:39.780285,159868136,20.79816,20.66248,6.228671,6.364352,6.072657,1.026295,2.782754,2.863712
16355,2023-01-20 10:50:39.880158,159968016,21.38873,21.2601,6.320988,6.449625,6.126036,0.9356452,2.729884,2.808102
16386,2023-01-20 10:50:39.980202,160068055,21.98908,21.87033,6.404971,6.523721,6.236196,0.8447726,2.566308,2.725906
16420,2023-01-20 10:50:40.080252,160168060,22.59838,22.47767,6.480546,6.601254,6.30496,0.753687,2.546867,2.645329
16452,2023-01-20 10:50:40.180283,160268036,23.21582,23.10314,6.547651,6.660331,6.4,0.6623945,2.363989,2.539312
16484,2023-01-20 10:50:40.280298,160368081,23.84057,23.72933,6.60622,6.717463,6.442191,0.5709047,2.35688,2.447501
16515,2023-01-20 10:50:40.380187,160468022,24.47178,24.35875,6.656194,6.769219,6.512735,0.4792256,2.307994,2.385413
16549,2023-01-20 10:50:40.480188,160568023,25.10859,25.00788,6.697515,6.798225,6.564388,0.3873641,2.113801,2.291382
16583,2023-01-20 10:50:40.580495,160668317,25.75016,25.66365,6.730131,6.816638,6.563378,0.2953272,2.047163,2.17682
16616,2023-01-20 10:50:40.680223,160768028,26.39559,26.30836,6.753987,6.841224,6.621557,0.2031222,2.025029,2.071198
16647,2023-01-20 10:50:40.780263,160868050,27.04403,26.96412,6.76904,6.848945,6.645154,0.1111312,1.904768,2.011589
16681,2023-01-20 10:50:40.880200,160968018,27.69459,27.61064,6.775841,6.859784,6.660488,0.03626979,1.892366,1.947216
16712,2023-01-20 10:50:40.980231,161068091,28.34656,28.25486,6.777395,6.8691,6.647111,0.003288839,1.931437,1.926251
16746,2023-01-20 10:50:41.080237,161168059,28.9996,28.89067,6.777456,6.886387,6.66515,0,2.006276,1.938076
16778,2023-01-20 10:50:41.180252,161268015,29.65361,29.53253,6.777456,6.89854,6.675555,0,2.027841,1.991403
16810,2023-01-20 10:50:41.280313,161368060,30.30855,30.16465,6.777456,6.921365,6.651924,0,2.148319,2.023187
16841,2023-01-20 10:50:41.380298,161468038,30.9644,30.81164,6.777456,6.930213,6.690531,0,1.992451,2.057004
16875,2023-01-20 10:50:41.480245,161568018,31.62109,31.45812,6.777456,6.940423,6.677112,0,2.016076,2.029289
16909,2023-01-20 10:50:41.580643,161668458,32.27861,32.10574,6.777456,6.950333,6.673311,0,2.086326,2.02542
16942,2023-01-20 10:50:41.680245,161768036,32.93693,32.765,6.777456,6.949385,6.765974,0,1.898082,2.011233
16973,2023-01-20 10:50:41.780280,161868032,33.59601,33.4322,6.777456,6.941267,6.776211,0,1.828983,1.937058
17007,2023-01-20 10:50:41.880231,161968017,34.25582,34.09873,6.777456,6.934551,6.832627,0,1.755625,1.855626
17038,2023-01-20 10:50:41.980182,162068020,34.91634,34.77668,6.777456,6.91711,6.823385,0,1.739097,1.794037
17072,2023-01-20 10:50:42.080263,162168072,35.57753,35.45127,6.777456,6.903709,6.84383,0,1.690205,1.739137
17104,2023-01-20 10:50:42.180272,162268032,36.23937,36.12134,6.777456,6.895486,6.834785,0,1.794695,1.716339
17136,2023-01-20 10:50:42.280306,162368095,36.90183,36.79452,6.777456,6.884766,6.842593,0,1.729166,1.721025
17167,2023-01-20 10:50:42.380179,162468016,37.56489,37.47186,6.777456,6.870489,6.863195,0,1.657231,1.677529
17201,2023-01-20 10:50:42.480189,162568024,38.22853,38.15776,6.777456,6.848223,6.852293,0,1.553169,1.606514
17235,2023-01-20 10:50:42.580468,162668289,38.89272,38.8386,6.777456,6.83158,6.838905,0,1.573929,1.563604
17268,2023-01-20 10:50:42.680196,162768016,39.55745,39.52625,6.777456,6.808653,6.854122,0,1.536753,1.535465
17299,2023-01-20 10:50:42.780210,162868032,40.22268,40.21266,6.777456,6.787478,6.804277,0,1.587522,1.538972
17333,2023-01-20 10:50:42.880215,162968068,40.88841,40.88902,6.777456,6.776844,6.776562,0,1.682844,1.585547
17364,2023-01-20 10:50:42.980126,163068017,41.55461,41.57111,6.777456,6.760952,6.769731,0,1.643072,1.603229
17398,2023-01-20 10:50:43.080212,163168047,42.22126,42.24805,6.777456,6.750669,6.761231,0,1.692858,1.619469
17430,2023-01-20 10:50:43.180262,163268019,42.88834,42.91684,6.777456,6.748956,6.754997,0,1.733881,1.663533
17462,2023-01-20 10:50:43.280310,163368052,43.55584,43.57846,6.777456,6.754835,6.723392,0,1.857168,1.721505
17493,2023-01-20 10:50:43.380274,163468015,44.22375,44.239,6.777456,6.762203,6.666173,0,2.033756,1.832028
17528,2023-01-20 10:50:43.480270,163568046,44.89204,44.89284,6.777456,6.776656,6.648695,0,2.08209,1.94119
17562,2023-01-20 10:50:43.580471,163668291,45.5607,45.55425,6.777456,6.783912,6.666337,0,2.01093,1.990713
17595,2023-01-20 10:50:43.680190,163768016,46.22971,46.21584,6.777456,6.791328,6.677538,0,1.996644,2.009961
17626,2023-01-20 10:50:43.780210,163868033,46.89907,46.87244,6.777456,6.804087,6.687378,0,2.043503,2.009513
17662,2023-01-20 10:50:43.880175,163968011,47.56878,47.53475,6.777456,6.811485,6.671434,0,2.130173,2.026651
17693,2023-01-20 10:50:43.980160,164068013,48.23878,48.19598,6.777456,6.820264,6.613752,0,2.287798,2.110151
17727,2023-01-20 10:50:44.080231,164168044,48.90908,48.82885,6.777456,6.857691,6.639769,0,2.475896,2.225396
17759,2023-01-20 10:50:44.180308,164268066,49.57968,49.47144,6.777456,6.885689,6.616386,0,2.44687,2.338048
17791,2023-01-20 10:50:44.280292,164368039,50.25056,50.11881,6.777456,6.9092,6.635128,0,2.388266,2.350332
17822,2023-01-20 10:50:44.380265,164468013,50.92171,50.76732,6.777456,6.931841,6.658349,0,2.372781,2.335942
