LineNo,UTC_Approx,TimeUS,TPN,PN,DVN,TVN,VN,DAN,TAN,AN
379,2023-01-20 10:49:56.259314,116248333,-0.8328345,-0.8328345,-0.02263117,-0.02263117,-0.02263117,0,0.00105547,0.001957848
969,2023-01-20 10:49:56.350308,116348376,-0.830404,-0.830404,-0.02342067,-0.02342067,-0.02342067,0,0.0005676888,0.001853382
1127,2023-01-20 10:49:56.452309,116454851,-0.8287175,-0.8287175,-0.02355558,-0.02355558,-0.02355558,0,0.0003053339,0.001660599
1346,2023-01-20 10:49:56.564951,116566484,-0.8282635,-0.8282635,-0.02537738,-0.02537738,-0.02537738,0,0.0001642252,0.001353117
1566,2023-01-20 10:49:56.665815,116667282,-0.8293458,-0.8293458,-0.02692939,-0.02692939,-0.02692939,0,8.832922E-05,0.001173438
1886,2023-01-20 10:49:56.765417,116767258,-0.8312737,-0.8312737,-0.02842018,-0.02842018,-0.02842018,0,4.750826E-05,0.001137203
1931,2023-01-20 10:49:56.865297,116867268,-0.8302302,-0.8302302,-0.02853699,-0.02853699,-0.02853699,0,2.555253E-05,0.001119736
1979,2023-01-20 10:49:56.965271,116967243,-0.8283218,-0.8283218,-0.0274324,-0.0274324,-0.0274324,0,1.374354E-05,0.001098148
2029,2023-01-20 10:49:57.065311,117067270,-0.8242853,-0.8242853,-0.0246502,-0.0246502,-0.0246502,0,7.392022E-06,0.001084328
2075,2023-01-20 10:49:57.165343,117167281,-0.8198606,-0.8198606,-0.02066288,-0.02066288,-0.02066288,0,3.975832E-06,0.001069103
2125,2023-01-20 10:49:57.272509,117267240,-0.813089,-0.813089,-0.01527376,-0.01527376,-0.01527376,0,2.138419E-06,0.001055815
2184,2023-01-20 10:49:57.383571,117367273,-0.8059739,-0.8059739,-0.009398829,-0.009398829,-0.009398829,0,1.150158E-06,0.001045872
2240,2023-01-20 10:49:57.477479,117467293,-0.7957664,-0.7957664,-0.0005893547,-0.0005893547,-0.0005893547,0,6.186173E-07,0.001042496
2299,2023-01-20 10:49:57.568347,117567244,-0.7869272,-0.7869272,0.005404554,0.005404554,0.005404554,0,3.32726E-07,0.001032328
2355,2023-01-20 10:49:57.665202,117667276,-0.7778846,-0.7778846,0.01289383,0.01289383,0.01289383,0,1.789582E-07,0.001024213
2413,2023-01-20 10:49:57.765225,117767321,-0.7692624,-0.7692624,0.01924135,0.01924135,0.01924135,0,9.625344E-08,0.001015221
2456,2023-01-20 10:49:57.865145,117867269,-0.7615407,-0.7615407,0.02485674,0.02485674,0.02485674,0,5.177035E-08,0.001003263
2501,2023-01-20 10:49:57.965091,117967245,-0.7546003,-0.7546003,0.02945194,0.02945194,0.02945194,0,2.784491E-08,0.0009991787
2540,2023-01-20 10:49:58.065178,118067288,-0.7487621,-0.7487621,0.0337956,0.0337956,0.0337956,0,1.497651E-08,0.0009980764
2582,2023-01-20 10:49:58.165253,118167281,-0.7434958,-0.7434958,0.0371017,0.0371017,0.0371017,0,8.055183E-09,0.0009935566
2622,2023-01-20 10:49:58.265229,118267248,-0.7362378,-0.7362378,0.04229639,0.04229639,0.04229639,0,4.332513E-09,0.0009930421
2662,2023-01-20 10:49:58.365219,118367268,-0.7279478,-0.7279478,0.04997434,0.04997434,0.04997434,0,2.33026E-09,0.0009924694
2701,2023-01-20 10:49:58.465240,118467301,-0.7237719,-0.7237719,0.05291939,0.05291939,0.05291939,0,1.253341E-09,0.0009918516
2742,2023-01-20 10:49:58.565184,118567247,-0.7212974,-0.7212974,0.04994804,0.04994804,0.04994804,0,6.741151E-10,0.000991474
2784,2023-01-20 10:49:58.665193,118667274,-0.7159007,-0.7159007,0.05443495,0.05443495,0.05443495,0,3.625758E-10,0.000991003
2823,2023-01-20 10:49:58.765207,118767315,-0.7089291,-0.7089291,0.06192493,0.06192493,0.06192493,0,1.95013E-10,0.0009905148
2867,2023-01-20 10:49:58.865155,118867271,-0.7058581,-0.7058581,0.06327494,0.06327494,0.06327494,0,1.048886E-10,0.0009899586
2906,2023-01-20 10:49:58.965131,118967245,-0.7041278,-0.7041278,0.06198059,0.06198059,0.06198059,0,5.64148E-11,0.0009897217
2945,2023-01-20 10:49:59.065196,119067293,-0.7002465,-0.7002465,0.06723875,0.06723875,0.06723875,0,3.034295E-11,0.0009894832
2986,2023-01-20 10:49:59.165209,119167279,-0.6949826,-0.6949826,0.06193295,0.06193295,0.06193295,0,1.632008E-11,0.0009896598
3025,2023-01-20 10:49:59.265180,119267242,-0.6865655,-0.6865655,0.07099885,0.07099885,0.07099885,0,8.777831E-12,0.0009894961
3064,2023-01-20 10:49:59.365206,119367269,-0.6766195,-0.6766195,0.07348616,0.07348616,0.07348616,0,4.721195E-12,0.0009895987
3104,2023-01-20 10:49:59.465217,119467284,-0.6674694,-0.6674694,0.08344989,0.08344989,0.08344989,0,2.539315E-12,0.0009897748
3145,2023-01-20 10:49:59.565178,119567249,-0.6586205,-0.6586205,0.08947223,0.08947223,0.08947223,0,1.365782E-12,0.0009895827
3186,2023-01-20 10:49:59.665210,119667294,-0.6515533,-0.6515533,0.09278683,0.09278683,0.09278683,0,7.345914E-13,0.0009895847
3225,2023-01-20 10:49:59.765216,119767319,-0.6450551,-0.6450551,0.08918589,0.08918589,0.08918589,0,3.951031E-13,0.0009897958
3264,2023-01-20 10:49:59.865144,119867256,-0.6416953,-0.6416953,0.08677778,0.08677778,0.08677778,0,2.125079E-13,0.0009896163
3303,2023-01-20 10:49:59.965141,119967258,-0.6389567,-0.6389567,0.08688848,0.08688848,0.08688848,0,1.142983E-13,0.0009895283
3342,2023-01-20 10:50:00.065173,120067274,-0.6331717,-0.6331717,0.08876553,0.08876553,0.08876553,0,6.147582E-14,0.0009897387
3384,2023-01-20 10:50:00.165205,120167279,-0.6255721,-0.6255721,0.09405053,0.09405053,0.09405053,0,3.306504E-14,0.0009895425
3423,2023-01-20 10:50:00.265181,120267251,-0.6227173,-0.6227173,0.09250175,0.09250175,0.09250175,0,1.778418E-14,0.0009893652
3462,2023-01-20 10:50:00.365188,120367266,-0.6212267,-0.6212267,0.09102593,0.09102593,0.09102593,0,9.5653E-15,0.0009896692
3502,2023-01-20 10:50:00.465173,120467250,-0.623227,-0.623227,0.08572122,0.08572122,0.08572122,0,5.144737E-15,0.0009896741
3542,2023-01-20 10:50:00.565185,120567254,-0.6254635,-0.6254635,0.08032715,0.08032715,0.08032715,0,2.76712E-15,0.0009895754
3585,2023-01-20 10:50:00.665197,120667272,-0.6290742,-0.6290742,0.0762276,0.0762276,0.0762276,0,1.488307E-15,0.0009895997
3624,2023-01-20 10:50:00.765221,120767308,-0.6321114,-0.6321114,0.07128993,0.07128993,0.07128993,0,8.004925E-16,0.0009895115
3665,2023-01-20 10:50:00.865155,120867258,-0.6382893,-0.6382893,0.06614505,0.06614505,0.06614505,0,4.305486E-16,0.000989408
3702,2023-01-20 10:50:00.965126,120967247,-0.6443766,-0.6443766,0.06741954,0.06741954,0.06741954,0,2.315723E-16,0.0009895834
3734,2023-01-20 10:50:01.065194,121067318,-0.6503223,-0.6503223,0.05706969,0.05706969,0.05706969,0,1.245522E-16,0.0009897439
3767,2023-01-20 10:50:01.165207,121167324,-0.6504465,-0.6548086,0.04615474,0.05051685,0.05037591,-0.04630356,-0.03673101,-0.01453097
3799,2023-01-20 10:50:01.265150,121267300,-0.6498021,-0.6558549,0.04062142,0.0466742,0.04321525,-0.04075239,-0.04691228,-0.02637981
3830,2023-01-20 10:50:01.365166,121367370,-0.6495569,-0.6546234,0.03573559,0.04080211,0.04709806,-0.03585081,-0.05830314,-0.04447974
3862,2023-01-20 10:50:01.465106,121467295,-0.6481657,-0.648855,0.03142933,0.03211857,0.05842431,-0.03153067,-0.1174411,-0.06800738
3895,2023-01-20 10:50:01.565162,121567300,-0.6441809,-0.6409342,0.02763786,0.02439117,0.03878261,-0.02772697,-0.1455516,-0.1002016
3930,2023-01-20 10:50:01.665252,121667371,-0.6397449,-0.6384221,0.02430167,0.02297893,0.02846809,-0.02438002,-0.04874926,-0.1090898
3961,2023-01-20 10:50:01.765494,121767611,-0.6376809,-0.6391698,0.02136715,0.02285595,0.03322782,-0.02143604,0.00556294,-0.06809109
3994,2023-01-20 10:50:01.865443,121867609,-0.638034,-0.6458036,0.01878643,0.02655606,0.01908335,-0.01884701,0.02544415,-0.03555706
4026,2023-01-20 10:50:01.965402,121967643,-0.6405285,-0.6525103,0.01651714,0.02849903,0.03466633,-0.01657039,0.02456737,0.001999079
4058,2023-01-20 10:50:02.065385,122067609,-0.6389812,-0.6557218,0.01452191,0.03126252,0.04055775,-0.01456873,-0.03890783,0.002341714
4091,2023-01-20 10:50:02.165472,122167630,-0.6376206,-0.6547126,0.01276773,0.02985975,0.05590925,-0.0128089,-0.1804679,-0.06018503
4123,2023-01-20 10:50:02.265528,122267664,-0.6364245,-0.6538967,0.0112255,0.02869773,0.07661546,-0.01126169,-0.1577572,-0.09843473
4154,2023-01-20 10:50:02.365458,122367596,-0.6353728,-0.6520193,0.009869594,0.02651609,0.09338924,-0.009901416,-0.1373065,-0.1027325
4186,2023-01-20 10:50:02.465198,122467597,-0.6344483,-0.6520703,0.008677498,0.02629945,0.05656294,-0.008705476,-0.01138572,-0.08592946
4219,2023-01-20 10:50:02.564584,122567380,-0.6336355,-0.6527659,0.007629425,0.0267599,0.004275194,-0.007654024,0.07231079,-0.03153938
4255,2023-01-20 10:50:02.664426,122667339,-0.6329208,-0.6570359,0.006707976,0.03082316,0.01476099,-0.006729605,0.09131654,0.0231283
4285,2023-01-20 10:50:02.764455,122767331,-0.6322923,-0.6623635,0.005897857,0.03596904,-0.009812152,-0.005916873,0.1265366,0.06971311
4320,2023-01-20 10:50:02.864477,122867356,-0.6317399,-0.6654652,0.005185615,0.03891093,0.003213026,-0.005202335,0.1128808,0.09972596
4350,2023-01-20 10:50:02.964410,122967314,-0.6312537,-0.6673361,0.004559414,0.0406418,0.003587447,-0.004574115,0.1039924,0.1098007
4383,2023-01-20 10:50:03.064416,123067330,-0.6308267,-0.6933899,0.004008862,0.06657211,-0.03470282,-0.004021787,0.3240181,0.1431076
4415,2023-01-20 10:50:03.164502,123167418,-0.630451,-0.7260348,0.003524825,0.09910863,-0.01290207,-0.00353619,0.3850024,0.2655554
4448,2023-01-20 10:50:03.264393,123267306,-0.6301208,-0.7547835,0.00309927,0.1277619,0.00269355,-0.003109263,0.3900168,0.3357072
4478,2023-01-20 10:50:03.364417,123367325,-0.6298305,-0.7769375,0.002725131,0.1498322,0.02687989,-0.002733917,0.3031314,0.3629798
4511,2023-01-20 10:50:03.464427,123467324,-0.6295752,-0.8016475,0.002396194,0.1744685,0.0328158,-0.002403919,0.2977588,0.3399274
4543,2023-01-20 10:50:03.564418,123567302,-0.6293505,-0.8216417,0.002106995,0.1943982,0.0634573,-0.002113789,0.2693668,0.3324966
4579,2023-01-20 10:50:03.664465,123667346,-0.6291532,-0.8406582,0.001852736,0.2133577,0.09833691,-0.00185871,0.269099,0.3154599
4609,2023-01-20 10:50:03.764457,123767342,-0.6289796,-0.8537489,0.001629196,0.2263985,0.09885425,-0.001634449,0.2582619,0.3036742
4643,2023-01-20 10:50:03.864649,123867334,-0.6288271,-0.861244,0.001432665,0.2338496,0.1494149,-0.001437284,0.2098909,0.2711241
4675,2023-01-20 10:50:03.964984,123967358,-0.6286936,-0.8624462,0.001176025,0.2349287,0.1790186,-0.04962056,0.1233737,0.232447
4708,2023-01-20 10:50:04.065099,124067320,-0.6287513,-0.846546,-0.004018055,0.2137766,0.1962631,-0.3220123,-0.2663385,0.07114362
4740,2023-01-20 10:50:04.165195,124167349,-0.6299891,-0.8238278,-0.02266164,0.1711771,0.1729494,-0.4734091,-0.5364673,-0.1808858
4773,2023-01-20 10:50:04.265238,124267371,-0.6338037,-0.7921948,-0.05501957,0.1033716,0.1496229,-0.5958133,-0.7889459,-0.4256212
4803,2023-01-20 10:50:04.365198,124367335,-0.6414539,-0.7610526,-0.0981262,0.02147257,0.1042081,-0.5529487,-0.8341779,-0.6366707
4836,2023-01-20 10:50:04.465142,124467307,-0.6536068,-0.7356985,-0.1429711,-0.06087937,0.06895927,-0.301147,-0.5967268,-0.679976
4869,2023-01-20 10:50:04.565115,124567320,-0.6697461,-0.7184858,-0.1761806,-0.1274409,-0.01860823,-0.04241539,-0.2481052,-0.54721
4905,2023-01-20 10:50:04.665147,124667338,-0.6883298,-0.6991082,-0.1925954,-0.1818171,-0.07361779,0,-0.1808796,-0.3820815
4935,2023-01-20 10:50:04.765189,124767338,-0.7079294,-0.6839802,-0.1979932,-0.2219424,-0.1016643,0,-0.1936805,-0.3016142
4969,2023-01-20 10:50:04.865205,124867370,-0.727753,-0.6781645,-0.1978551,-0.2474436,-0.1084395,0,-0.2106271,-0.2632843
4999,2023-01-20 10:50:04.965104,124967316,-0.7474082,-0.6791887,-0.1950216,-0.263241,-0.1293173,0,-0.1836003,-0.2393589
5032,2023-01-20 10:50:05.065142,125067339,-0.7667072,-0.6860579,-0.1909288,-0.271578,-0.1560582,0,-0.1456797,-0.2077175
5064,2023-01-20 10:50:05.165192,125167341,-0.7855645,-0.6976799,-0.1862754,-0.27416,-0.1723039,0,-0.06353365,-0.1658384
5097,2023-01-20 10:50:05.265178,125267313,-0.8039432,-0.7146424,-0.1814058,-0.2707067,-0.1924461,0,0.009310741,-0.1064237
5127,2023-01-20 10:50:05.365508,125367648,-0.8218318,-0.7360787,-0.1764922,-0.2622454,-0.2337584,0,0.1054201,-0.02613549
5160,2023-01-20 10:50:05.465178,125467311,-0.8392303,-0.7551992,-0.1716223,-0.2556534,-0.2688656,0,0.09267236,0.02443973
5192,2023-01-20 10:50:05.565206,125567325,-0.8561767,-0.7742033,-0.1681344,-0.2501078,-0.2977514,-0.1694013,-0.0563253,0.008001166
5229,2023-01-20 10:50:05.665225,125667337,-0.8731237,-0.7978291,-0.172374,-0.2476685,-0.2694253,-0.3245029,-0.2159542,-0.06121569
5259,2023-01-20 10:50:05.765511,125767621,-0.8910658,-0.8247228,-0.1882533,-0.2545963,-0.2949668,-0.4907697,-0.3001697,-0.1594352
5293,2023-01-20 10:50:05.859568,125867622,-0.9112549,-0.8612326,-0.2163014,-0.2663237,-0.3399383,-0.4186688,-0.1316101,-0.1926052
5323,2023-01-20 10:50:05.950464,125967590,-0.9345258,-0.9028118,-0.2485097,-0.2802237,-0.3752709,-0.4251764,-0.08129074,-0.137695
5356,2023-01-20 10:50:06.045568,126067622,-0.9610924,-0.9417877,-0.2823723,-0.301677,-0.4019741,-0.4885437,-0.1059459,-0.09461203
5388,2023-01-20 10:50:06.145326,126167344,-0.9911977,-0.9795741,-0.3193678,-0.3309914,-0.4928603,-0.5537969,-0.1835979,-0.1205257
5421,2023-01-20 10:50:06.244761,126267319,-1.025233,-1.017991,-0.3615012,-0.3687431,-0.5209301,-0.6770886,-0.3303067,-0.2037499
5453,2023-01-20 10:50:06.343782,126367578,-1.063887,-1.058106,-0.4116336,-0.4174148,-0.5479593,-0.7075613,-0.4432229,-0.2833168
5486,2023-01-20 10:50:06.442811,126467315,-1.107797,-1.095747,-0.4657511,-0.4778016,-0.611031,-0.8014645,-0.5266563,-0.3599902
5518,2023-01-20 10:50:06.542807,126567323,-1.157361,-1.136741,-0.5251747,-0.5457952,-0.6376466,-0.9655274,-0.7111062,-0.4657976
5554,2023-01-20 10:50:06.642834,126667385,-1.213291,-1.199803,-0.593267,-0.6067553,-0.7285918,-1.024296,-0.5922248,-0.5658328
5584,2023-01-20 10:50:06.742715,126767330,-1.27636,-1.280742,-0.6665362,-0.6621546,-0.8088456,-1.038973,-0.4357944,-0.5002206
5618,2023-01-20 10:50:06.842640,126867330,-1.346892,-1.376766,-0.7424415,-0.7125677,-0.9454153,-0.9450126,-0.1443668,-0.4096687
5648,2023-01-20 10:50:06.942537,126967317,-1.424985,-1.484353,-0.8177957,-0.758427,-1.03065,-1.160435,-0.2843394,-0.3156826
5681,2023-01-20 10:50:07.042543,127067382,-1.510876,-1.597501,-0.8993089,-0.8126845,-1.074621,-1.204956,-0.3633145,-0.3169072
5713,2023-01-20 10:50:07.142473,127167330,-1.605237,-1.714252,-0.986438,-0.877423,-1.139471,-1.253628,-0.4264189,-0.3573937
5746,2023-01-20 10:50:07.242472,127267312,-1.708486,-1.832663,-1.076496,-0.9523188,-1.203548,-1.249979,-0.4367805,-0.3785284
5776,2023-01-20 10:50:07.342821,127367598,-1.820738,-1.950468,-1.165668,-1.035939,-1.308622,-1.139033,-0.3678921,-0.3947791
5809,2023-01-20 10:50:07.442522,127467300,-1.941616,-2.074542,-1.248386,-1.115459,-1.369487,-1.06822,-0.3321973,-0.3620833
5841,2023-01-20 10:50:07.542443,127567307,-2.070382,-2.205846,-1.324347,-1.188883,-1.421468,-1.106992,-0.3831271,-0.3626187
5877,2023-01-20 10:50:07.647213,127667344,-2.206566,-2.348697,-1.397186,-1.255056,-1.485316,-1.166577,-0.42288,-0.3777713
5907,2023-01-20 10:50:07.758457,127767318,-2.350003,-2.502175,-1.4699,-1.317729,-1.549538,-1.248815,-0.4278787,-0.3896859
5941,2023-01-20 10:50:07.856903,127867329,-2.500866,-2.659339,-1.546687,-1.388214,-1.627443,-1.364006,-0.5187558,-0.4625191
5973,2023-01-20 10:50:07.947680,127967319,-2.659685,-2.820312,-1.627576,-1.466949,-1.69739,-1.328831,-0.5155493,-0.5007694
6006,2023-01-20 10:50:08.042374,128067330,-2.826607,-2.99105,-1.708775,-1.544333,-1.746356,-1.210288,-0.3366486,-0.5038688
6038,2023-01-20 10:50:08.142413,128167387,-3.001437,-3.175699,-1.784607,-1.610345,-1.824458,-1.153282,-0.2350384,-0.3959257
6071,2023-01-20 10:50:08.242338,128267305,-3.183404,-3.367906,-1.851013,-1.66651,-1.891746,-0.8918894,0.06226066,-0.2416517
6101,2023-01-20 10:50:08.342673,128367598,-3.371242,-3.564103,-1.901736,-1.708875,-1.946529,-0.8173,0.1360366,-0.06640237
6134,2023-01-20 10:50:08.442409,128467313,-3.563465,-3.759705,-1.940735,-1.744495,-1.956843,-0.9016665,0.0100679,-0.001812555
6166,2023-01-20 10:50:08.542405,128567315,-3.759368,-3.950632,-1.976117,-1.784853,-1.956532,-0.9284389,-0.1333346,-0.03092479
6202,2023-01-20 10:50:08.642424,128667342,-3.958755,-4.132606,-2.010637,-1.836785,-1.952958,-0.9068399,-0.2539891,-0.08913236
6232,2023-01-20 10:50:08.742388,128767314,-4.161539,-4.306319,-2.044014,-1.899235,-1.979397,-0.9204913,-0.3951083,-0.2192306
6266,2023-01-20 10:50:08.842480,128867369,-4.367623,-4.476501,-2.076713,-1.967834,-1.997983,-0.8983099,-0.4759752,-0.3104136
6299,2023-01-20 10:50:08.942517,128967308,-4.576895,-4.637395,-2.107491,-2.046991,-2.027169,-0.8446826,-0.5520014,-0.4253354
6332,2023-01-20 10:50:09.042612,129067331,-4.789078,-4.812924,-2.13492,-2.111073,-2.058299,-0.8355052,-0.5049496,-0.4811434
6364,2023-01-20 10:50:09.142654,129167334,-5.003843,-4.999995,-2.159111,-2.162959,-2.114123,-0.7159292,-0.315275,-0.4631517
6397,2023-01-20 10:50:09.242577,129267312,-5.22072,-5.198821,-2.176768,-2.198667,-2.122888,-0.6798614,-0.2796522,-0.3954643
6427,2023-01-20 10:50:09.342680,129367595,-5.438926,-5.406525,-2.184415,-2.216816,-2.152743,-0.2528217,0.1864955,-0.2164614
6460,2023-01-20 10:50:09.442390,129467931,-5.65685,-5.622505,-2.170274,-2.20462,-2.161407,0,0.4730923,0.05833431
6492,2023-01-20 10:50:09.541236,129567997,-5.872165,-5.837507,-2.134195,-2.168853,-2.13148,0,0.4938287,0.2619458
6528,2023-01-20 10:50:09.640516,129668003,-6.083211,-6.038196,-2.086717,-2.131733,-2.061779,0,0.3596027,0.3548512
6558,2023-01-20 10:50:09.740493,129767981,-6.289223,-6.229224,-2.034329,-2.094328,-1.980208,0,0.2155885,0.3194833
6592,2023-01-20 10:50:09.840561,129868059,-6.489892,-6.416694,-1.980273,-2.053472,-1.945444,0,0.1945325,0.2564912
6623,2023-01-20 10:50:09.940475,129967995,-6.685143,-6.598639,-1.926148,-2.012652,-1.860618,0,0.1371373,0.214519
6656,2023-01-20 10:50:10.040502,130068025,-6.875012,-6.775706,-1.872742,-1.972048,-1.820207,0,0.1292742,0.1797019
6688,2023-01-20 10:50:10.140588,130168086,-7.059596,-6.946966,-1.820431,-1.933061,-1.782026,0,0.09520172,0.1441952
6721,2023-01-20 10:50:10.240412,130268000,-7.239012,-7.114851,-1.769383,-1.893543,-1.715993,0,0.1010037,0.1203416
6751,2023-01-20 10:50:10.340248,130368094,-7.41339,-7.283323,-1.719666,-1.849734,-1.701964,0,0.1808744,0.1365247
6784,2023-01-20 10:50:10.440007,130468019,-7.582824,-7.4435,-1.668141,-1.807465,-1.669299,0.1582573,0.3545982,0.1858728
6816,2023-01-20 10:50:10.539999,130568038,-7.745667,-7.590981,-1.584157,-1.738843,-1.619114,0.5802758,0.8239883,0.3638617
6852,2023-01-20 10:50:10.639999,130668061,-7.898088,-7.729216,-1.460905,-1.629777,-1.542314,1.002294,1.349867,0.7150492
6882,2023-01-20 10:50:10.739948,130768028,-8.036231,-7.849888,-1.300847,-1.48719,-1.415325,1.305041,1.646819,1.091148
6916,2023-01-20 10:50:10.839972,130868098,-8.158092,-7.965062,-1.143686,-1.336717,-1.268818,1.147374,1.470128,1.300785
6946,2023-01-20 10:50:10.939833,130968048,-8.265231,-8.075053,-1.005512,-1.195691,-1.122888,1.008755,1.233093,1.309954
6979,2023-01-20 10:50:11.039834,131068067,-8.359426,-8.178283,-0.8840295,-1.065173,-0.9949524,0.8868799,1.099846,1.221338
7011,2023-01-20 10:50:11.140003,131168150,-8.442241,-8.277059,-0.7772241,-0.9424066,-0.8805602,0.7797301,1.071688,1.158501
7045,2023-01-20 10:50:11.239936,131268034,-8.515051,-8.362536,-0.6833224,-0.8358371,-0.7681351,0.6855257,0.9705887,1.098966
7075,2023-01-20 10:50:11.339942,131368047,-8.579065,-8.437576,-0.6007659,-0.7422552,-0.6645323,0.6027029,0.8918482,1.039021
7108,2023-01-20 10:50:11.439924,131468030,-8.635343,-8.507037,-0.5281835,-0.6564885,-0.6037572,0.5298865,0.8369422,0.9631194
7139,2023-01-20 10:50:11.539937,131568038,-8.684822,-8.572001,-0.4643703,-0.5771914,-0.5436211,0.4658676,0.7972266,0.908977
7175,2023-01-20 10:50:11.639957,131668054,-8.728324,-8.632154,-0.4082668,-0.5044369,-0.4701173,0.4095832,0.7633845,0.8576558
7205,2023-01-20 10:50:11.739934,131768032,-8.76657,-8.688575,-0.3589417,-0.4369373,-0.4214225,0.360099,0.7400393,0.8217574
7239,2023-01-20 10:50:11.839964,131868092,-8.800196,-8.737868,-0.3155755,-0.3779034,-0.4062223,0.3165931,0.7504179,0.7891318
7269,2023-01-20 10:50:11.939825,131968028,-8.82976,-8.781845,-0.2774489,-0.3253633,-0.3116639,0.2783434,0.655402,0.7527312
7302,2023-01-20 10:50:12.039842,132068058,-8.85575,-8.823599,-0.2439285,-0.2760806,-0.3122799,0.2447149,0.6542785,0.7024517
7334,2023-01-20 10:50:12.139982,132168117,-8.878601,-8.864294,-0.2144579,-0.2287657,-0.2394241,0.2151493,0.6592717,0.6690126
7367,2023-01-20 10:50:12.239951,132268038,-8.898691,-8.901016,-0.1885478,-0.186223,-0.2343463,0.1891557,0.6903587,0.6423013
7397,2023-01-20 10:50:12.339957,132368048,-8.916353,-8.936127,-0.1657682,-0.1459952,-0.2030468,0.1663027,0.7570922,0.664547
7430,2023-01-20 10:50:12.439925,132468021,-8.931884,-8.964431,-0.1457407,-0.1131943,-0.1684953,0.1462106,0.7081629,0.6904338
7462,2023-01-20 10:50:12.539931,132568034,-8.945538,-8.987184,-0.1281328,-0.08648668,-0.1838156,0.1285459,0.7319212,0.6962281
7498,2023-01-20 10:50:12.639948,132668052,-8.95754,-9.009078,-0.1126522,-0.06111414,-0.1401499,0.1130155,0.6965616,0.684948
7528,2023-01-20 10:50:12.739931,132768024,-8.968093,-9.031612,-0.09904198,-0.03552269,-0.1485742,0.0993613,0.7699782,0.7006811
7562,2023-01-20 10:50:12.839930,132868046,-8.977371,-9.046102,-0.08707609,-0.01834623,-0.1134002,0.08735684,0.7214113,0.7339563
7593,2023-01-20 10:50:12.939849,132968039,-8.985531,-9.051252,-0.07655585,-0.01083441,-0.1238243,0.07680268,0.6838769,0.7160495
7626,2023-01-20 10:50:13.039839,133068043,-8.992705,-9.057012,-0.06730664,-0.003000607,-0.08754757,0.06752364,0.6470823,0.6861809
7658,2023-01-20 10:50:13.139997,133168127,-8.999011,-9.063805,-0.05917489,0.005618811,-0.07127498,0.05936569,0.6389462,0.6716029
7691,2023-01-20 10:50:13.239937,133268024,-9.004554,-9.065847,-0.05202558,0.009267139,-0.08626203,0.05219332,0.6656699,0.6720431
7721,2023-01-20 10:50:13.339953,133368043,-9.009427,-9.062334,-0.04574003,0.007166462,-0.09076767,0.04588751,0.65295,0.6608695
7754,2023-01-20 10:50:13.439934,133468026,-9.013713,-9.063922,-0.04021388,0.009995465,-0.07612205,0.04034354,0.6778091,0.6683863
7786,2023-01-20 10:50:13.539938,133568029,-9.017479,-9.071129,-0.03535539,0.01829452,-0.08523418,0.03546938,0.749559,0.7101406
7822,2023-01-20 10:50:13.639964,133668056,-9.020791,-9.074116,-0.03108386,0.02224073,-0.08308354,0.03118408,0.6949679,0.737851
7852,2023-01-20 10:50:13.739936,133768029,-9.023703,-9.070928,-0.02732841,0.01989693,-0.08932357,0.02741653,0.6617835,0.7049189
7886,2023-01-20 10:50:13.839935,133868062,-9.026262,-9.069462,-0.02402669,0.01917216,-0.07519999,0.02410416,0.6460808,0.6809387
7918,2023-01-20 10:50:13.939815,133968025,-9.028514,-9.070008,-0.02112387,0.02037088,-0.09895001,0.02119198,0.7803467,0.6923872
7951,2023-01-20 10:50:14.039832,134068063,-9.030493,-9.074052,-0.01857177,0.02498719,-0.06338736,0.01863165,0.7838225,0.7392168
7983,2023-01-20 10:50:14.139956,134168113,-9.032233,-9.081301,-0.01632799,0.03273939,-0.09010621,0.01638063,0.8732251,0.7893639
8016,2023-01-20 10:50:14.239911,134268021,-9.033764,-9.088529,-0.0143553,0.04040911,-0.1180396,0.01440158,0.9080355,0.8322994
8046,2023-01-20 10:50:14.339954,134368056,-9.035109,-9.094785,-0.01262094,0.04705497,-0.09883805,0.01266163,0.8512776,0.851891
8079,2023-01-20 10:50:14.439932,134468030,-9.036291,-9.099969,-0.01109612,0.05258186,-0.0760874,0.01113189,0.84205,0.8536901
8112,2023-01-20 10:50:14.539931,134568029,-9.03733,-9.103727,-0.009755522,0.05664218,-0.1075968,0.009786976,0.8786286,0.8580321
8148,2023-01-20 10:50:14.639954,134668052,-9.038243,-9.113736,-0.008576895,0.06691566,-0.08406285,0.008604548,0.9413269,0.872803
8178,2023-01-20 10:50:14.739943,134768041,-9.039046,-9.131198,-0.007540665,0.08461082,-0.1126115,0.007564978,1.061982,0.9395754
8212,2023-01-20 10:50:14.839931,134868062,-9.039753,-9.141841,-0.006629629,0.09545838,-0.09124527,0.006651004,1.033538,0.9879221
8242,2023-01-20 10:50:14.939826,134968042,-9.040374,-9.144699,-0.005828662,0.09849689,-0.07559165,0.005847455,0.9594713,0.9853776
8275,2023-01-20 10:50:15.039812,135068052,-9.040919,-9.148608,-0.005124465,0.1025647,-0.06975785,0.005140987,0.9842991,0.982004
8307,2023-01-20 10:50:15.139928,135168103,-9.0414,-9.152981,-0.004505344,0.1070755,-0.04246024,0.00451987,0.9379274,0.9830718
8340,2023-01-20 10:50:15.239902,135268030,-9.041821,-9.155587,-0.003961023,0.1098048,-0.02087823,0.003973795,0.9372038,0.9735155
8370,2023-01-20 10:50:15.339954,135368062,-9.042192,-9.156281,-0.003482466,0.1106069,-0.01909637,0.003493695,0.9405064,0.9630604
8403,2023-01-20 10:50:15.439972,135468069,-9.04252,-9.153555,-0.003061727,0.1079728,-0.01386857,0.003071599,0.9235417,0.951115
8435,2023-01-20 10:50:15.539931,135568031,-9.042805,-9.146887,-0.00269182,0.1013896,-0.02265093,0.002700499,0.9297791,0.9309143
8471,2023-01-20 10:50:15.639958,135668059,-9.043058,-9.140998,-0.002366605,0.09557285,0.0001418837,0.002374235,0.8993698,0.9110156
8501,2023-01-20 10:50:15.739940,135768039,-9.043282,-9.135918,-0.00208068,0.09055543,-0.002602976,0.002087388,0.9350088,0.9064082
8535,2023-01-20 10:50:15.839949,135868058,-9.043476,-9.134221,-0.0018293,0.08891533,-0.02205901,0.001835198,0.9833886,0.9067264
8565,2023-01-20 10:50:15.939906,135968046,-9.043647,-9.136273,-0.00160829,0.09101745,-0.01379815,0.001613476,1.009037,0.9351322
8598,2023-01-20 10:50:16.039917,136068064,-9.043797,-9.144854,-0.001413982,0.09964314,-0.02767794,0.001418541,1.074084,0.9639637
8630,2023-01-20 10:50:16.139959,136168075,-9.043928,-9.160515,-0.00124315,0.1153438,-0.02865445,0.001247158,1.136347,1.020754
8663,2023-01-20 10:50:16.239904,136268023,-9.044049,-9.181957,-0.001092957,0.1368154,-0.01890832,0.001096481,1.193275,1.064903
8693,2023-01-20 10:50:16.339862,136368035,-9.044147,-9.211544,-0.0009609095,0.1664366,-0.01269649,0.0009640076,1.286623,1.146107
8726,2023-01-20 10:50:16.439842,136468025,-9.044242,-9.231666,-0.0008448155,0.1865795,0.02111765,0.0008475393,1.241911,1.201063
8758,2023-01-20 10:50:16.539948,136568073,-9.044315,-9.243463,-0.0007427474,0.1984046,0.01028678,0.0007451422,1.190321,1.198236
8794,2023-01-20 10:50:16.639957,136668048,-9.044388,-9.254138,-0.000653011,0.2090967,0.05125765,0.0006551164,1.166877,1.17397
8824,2023-01-20 10:50:16.739938,136768032,-9.044449,-9.265642,-0.0005741164,0.2206185,0.07942753,0.0005759675,1.16226,1.17221
8858,2023-01-20 10:50:16.839942,136868046,-9.044498,-9.272622,-0.0005047537,0.227619,0.08235683,0.0005063811,1.160155,1.157855
8888,2023-01-20 10:50:16.939901,136968029,-9.044547,-9.276142,-0.0004437711,0.2311511,0.07020436,0.0004452019,1.191147,1.143587
8921,2023-01-20 10:50:17.039907,137068037,-9.044596,-9.275725,-0.0003901563,0.230739,0.1084408,0.0003914142,1.140701,1.123882
8953,2023-01-20 10:50:17.139963,137168065,-9.044632,-9.272862,-0.000343019,0.2278876,0.1106953,0.0003441249,1.154752,1.107228
8986,2023-01-20 10:50:17.239989,137268077,-9.044656,-9.266864,-0.0003015767,0.2219061,0.1248883,0.000302549,1.154646,1.099096
9016,2023-01-20 10:50:17.339980,137368077,-9.044681,-9.25845,-0.0002651413,0.2135038,0.08372221,0.0002659961,1.180722,1.092138
9049,2023-01-20 10:50:17.439931,137468029,-9.044705,-9.247971,-0.0002331078,0.2030323,0.08100717,0.0002338594,1.181032,1.092267
9081,2023-01-20 10:50:17.539939,137568026,-9.044729,-9.234711,-0.0002049445,0.1897761,0.1202521,0.0002056052,1.096767,1.076648
9117,2023-01-20 10:50:17.640018,137668099,-9.044754,-9.222029,-0.0001801838,0.1770946,0.08480026,0.0001807647,1.115785,1.065924
9147,2023-01-20 10:50:17.739954,137768035,-9.044778,-9.209327,-0.0001584146,0.1643905,0.1062767,0.0001589254,1.097067,1.050109
9181,2023-01-20 10:50:17.836411,137868054,-9.044803,-9.198016,-0.0001392755,0.1530742,0.1016096,0.0001397246,1.100618,1.054157
9211,2023-01-20 10:50:17.927484,137968032,-9.044827,-9.189263,-0.0001224487,0.1443136,0.06252561,0.0001228435,1.224369,1.097812
9245,2023-01-20 10:50:18.022654,138068085,-9.044827,-9.180511,-0.0001076549,0.1355765,0.05441922,0.000108002,1.269593,1.156235
9277,2023-01-20 10:50:18.133414,138168050,-9.044827,-9.16824,-9.464843E-05,0.1233178,0.04154731,9.49536E-05,1.200458,1.17633
9310,2023-01-20 10:50:18.239901,138268031,-9.044827,-9.156311,-8.321337E-05,0.1114005,0.0404409,8.348167E-05,1.123202,1.15901
9340,2023-01-20 10:50:18.340011,138368100,-9.044827,-9.143428,-7.315983E-05,0.0985273,0.06337763,7.339571E-05,1.108802,1.129778
9373,2023-01-20 10:50:18.436399,138468019,-9.044827,-9.132404,-6.432091E-05,0.08751258,0.0500824,6.452829E-05,1.085927,1.144951
9405,2023-01-20 10:50:18.527508,138568025,-9.044827,-9.121904,-5.654986E-05,0.07702047,0.03843604,5.673219E-05,1.054357,1.145728
9441,2023-01-20 10:50:18.620449,138668053,-9.044827,-9.111444,-4.97177E-05,0.06656649,0.04710482,4.9878E-05,1.01257,1.127423
9471,2023-01-20 10:50:18.720403,138768041,-9.044827,-9.098853,-4.371097E-05,0.05398278,0.05915733,4.385191E-05,0.9367161,1.080972
9505,2023-01-20 10:50:18.820364,138868036,-9.044827,-9.0858,-3.842998E-05,0.04093447,0.08518353,3.855389E-05,0.8781875,1.026007
9537,2023-01-20 10:50:18.920326,138968034,-9.044827,-9.0698,-3.3787E-05,0.02493997,0.08371806,3.389594E-05,0.8301967,0.9295136
9570,2023-01-20 10:50:19.020355,139068085,-9.044827,-9.054318,-2.970498E-05,0.009461261,0.08060517,2.980075E-05,0.7970598,0.844757
9602,2023-01-20 10:50:19.120356,139168050,-9.044827,-9.037775,-2.611613E-05,-0.007078118,0.1077295,2.620033E-05,0.7363886,0.8074751
9635,2023-01-20 10:50:19.220353,139268024,-9.044827,-9.021432,-2.296087E-05,-0.02341834,0.06829447,2.30349E-05,0.7764484,0.792792
9665,2023-01-20 10:50:19.320350,139368047,-9.044827,-9.002584,-2.018682E-05,-0.04226322,0.08448675,2.02519E-05,0.7197221,0.7671131
9698,2023-01-20 10:50:19.420303,139468031,-9.044827,-8.987705,-1.774791E-05,-0.05713994,0.08332321,1.780514E-05,0.7140667,0.7444273
9730,2023-01-20 10:50:19.520263,139568044,-9.044827,-8.977129,-1.560368E-05,-0.06771397,0.06628147,1.565399E-05,0.7263725,0.743029
9766,2023-01-20 10:50:19.620233,139668057,-9.044827,-8.967013,-1.37185E-05,-0.07782744,0.05036208,1.376273E-05,0.7654945,0.755801
9796,2023-01-20 10:50:19.720198,139768024,-9.044827,-8.953118,-1.206107E-05,-0.09172104,0.008927852,1.209996E-05,0.7330595,0.7365415
9830,2023-01-20 10:50:19.820203,139868034,-9.044827,-8.942492,-1.06039E-05,-0.1023452,0.04277703,1.063809E-05,0.6840335,0.7281234
9860,2023-01-20 10:50:19.920191,139968039,-9.044827,-8.933146,-9.322771E-06,-0.1116902,0.001932785,9.352829E-06,0.6933832,0.7096841
9893,2023-01-20 10:50:20.020236,140068096,-9.044827,-8.92706,-8.19643E-06,-0.1177755,0.01605118,8.222857E-06,0.656321,0.6867982
9925,2023-01-20 10:50:20.120216,140168066,-9.044827,-8.924118,-7.206167E-06,-0.1207164,-0.0005353466,7.229401E-06,0.6432154,0.6654146
9958,2023-01-20 10:50:20.220198,140268027,-9.044827,-8.920787,-6.335545E-06,-0.1240469,-0.00166508,6.355972E-06,0.6084213,0.6366715
9991,2023-01-20 10:50:20.320263,140368028,-8.884651,-8.916008,2.305694E-06,0.03135912,0.02782544,0.000204195,0.5415872,0.6090386
10024,2023-01-20 10:50:20.420292,140468007,-8.884645,-8.910961,0.0002316286,0.02654816,0.01458744,0.006147928,0.5630526,0.5798061
10056,2023-01-20 10:50:20.520295,140568014,-8.884568,-8.90466,0.00160723,0.02169878,0.02907274,0.02359158,0.6275274,0.5901467
10092,2023-01-20 10:50:20.620364,140668079,-8.884273,-8.900151,0.004956958,0.02083586,-0.01833246,0.04686235,0.7207195,0.6334081
10122,2023-01-20 10:50:20.720334,140768011,-8.883584,-8.895626,0.01032587,0.02236749,0.009497325,0.06970269,0.718788,0.6793622
10156,2023-01-20 10:50:20.820349,140868020,-8.882362,-8.89632,0.01750197,0.03145949,-0.02538343,0.09174433,0.8520688,0.7268586
10186,2023-01-20 10:50:20.920209,140967999,-8.880495,-8.905151,0.02629443,0.0509508,-0.007211039,0.1130359,0.9464852,0.8051567
10219,2023-01-20 10:50:21.020157,141068031,-8.877891,-8.909264,0.0365641,0.06793739,-0.03734595,0.1336777,0.9861263,0.871084
10251,2023-01-20 10:50:21.120208,141168026,-8.874444,-8.903796,0.04828252,0.07763494,0.002171297,0.1538856,0.9158816,0.8883387
10284,2023-01-20 10:50:21.220278,141268057,-8.870027,-8.896576,0.06150212,0.08805119,-0.01066305,0.1738857,0.9213881,0.8865747
10314,2023-01-20 10:50:21.320282,141368085,-8.864492,-8.883805,0.07630146,0.09561481,0.04838989,0.193843,0.8568122,0.8725769
10347,2023-01-20 10:50:21.420188,141468004,-8.857669,-8.868834,0.09278069,0.1039458,0.0530405,0.2138854,0.8414196,0.8437793
10379,2023-01-20 10:50:21.520229,141568009,-8.84938,-8.847848,0.111026,0.1094946,0.09635818,0.2340825,0.7930499,0.7826643
10415,2023-01-20 10:50:21.620260,141668024,-8.839442,-8.82769,0.1310999,0.1193482,0.126508,0.2544584,0.8228744,0.7016807
10445,2023-01-20 10:50:21.720193,141768018,-8.82768,-8.807693,0.1530404,0.1330545,0.1588308,0.2750075,0.8500531,0.6638971
10479,2023-01-20 10:50:21.820147,141868024,-8.813909,-8.786545,0.1768825,0.1495186,0.153751,0.2957232,0.8948267,0.6601159
10509,2023-01-20 10:50:21.920171,141968061,-8.797943,-8.761298,0.2026598,0.1660143,0.2081397,0.3165989,0.8629448,0.6636102
10542,2023-01-20 10:50:22.020141,142068032,-8.779591,-8.729693,0.2304039,0.1805064,0.2011593,0.3376283,0.8969936,0.6642122
10574,2023-01-20 10:50:22.120195,142168035,-8.758655,-8.681981,0.2601452,0.1834716,0.2224409,0.3588054,0.7841206,0.6622985
10607,2023-01-20 10:50:22.220190,142267997,-8.734934,-8.635653,0.2919129,0.1926325,0.2753725,0.3801245,0.7851487,0.7439696
10637,2023-01-20 10:50:22.320207,142368049,-8.708229,-8.58624,0.3257279,0.2037382,0.2808096,0.4015758,0.8237714,0.879477
10670,2023-01-20 10:50:22.420138,142467999,-8.678374,-8.539496,0.3615675,0.2226894,0.3088366,0.423126,0.9361733,1.066285
10702,2023-01-20 10:50:22.520195,142568009,-8.64523,-8.490307,0.3993846,0.2444616,0.2972568,0.4447345,1.0137,1.247581
10738,2023-01-20 10:50:22.620296,142668077,-8.608662,-8.451548,0.4391335,0.2820198,0.3028527,0.4663687,1.10711,1.399461
10768,2023-01-20 10:50:22.720215,142768012,-8.56853,-8.428557,0.4807824,0.3408092,0.3051358,0.4880092,1.274857,1.548389
10802,2023-01-20 10:50:22.820207,142868024,-8.524684,-8.400847,0.5243175,0.4004808,0.3337958,0.5096486,1.347459,1.64558
10832,2023-01-20 10:50:22.920162,142968011,-8.476956,-8.36637,0.5697403,0.4591537,0.4002898,0.5312874,1.332372,1.661908
10865,2023-01-20 10:50:23.020174,143068038,-8.425165,-8.327005,0.6170675,0.5189077,0.4464501,0.5529335,1.352735,1.634496
10898,2023-01-20 10:50:23.120268,143168081,-8.36912,-8.283233,0.666319,0.5804316,0.5054067,0.5745944,1.374131,1.625768
10931,2023-01-20 10:50:23.220277,143268055,-8.308622,-8.231737,0.7175154,0.64063,0.5676369,0.5960733,1.40054,1.628209
10961,2023-01-20 10:50:23.320236,143368043,-8.243483,-8.170633,0.7705177,0.6976686,0.6366814,0.613192,1.375846,1.622692
10994,2023-01-20 10:50:23.420177,143468004,-8.173548,-8.099874,0.824706,0.7510317,0.691994,0.6211924,1.33379,1.587059
11026,2023-01-20 10:50:23.520197,143568010,-8.098718,-8.010779,0.8793387,0.7914004,0.7630789,0.6222989,1.176916,1.47826
11062,2023-01-20 10:50:23.620247,143668051,-8.018918,-7.922059,0.9340606,0.8372021,0.8278447,0.6203863,1.188596,1.385906
11092,2023-01-20 10:50:23.720186,143768004,-7.934092,-7.838864,0.9884396,0.8932112,0.8717496,0.6105219,1.344066,1.380144
11126,2023-01-20 10:50:23.820196,143868028,-7.844243,-7.758604,1.041694,0.9560556,0.8798595,0.5917872,1.556909,1.457226
11159,2023-01-20 10:50:23.920218,143968067,-7.749434,-7.691628,1.093272,1.035466,0.9044659,0.5698141,1.828331,1.633021
11192,2023-01-20 10:50:24.020181,144068031,-7.649766,-7.616979,1.14307,1.110283,0.9083373,0.547717,1.880963,1.801734
11224,2023-01-20 10:50:24.120246,144168034,-7.545349,-7.528323,1.191075,1.174049,0.9283486,0.5255367,1.809223,1.849009
11257,2023-01-20 10:50:24.220251,144268003,-7.436285,-7.440885,1.237275,1.241874,0.9934222,0.5032681,1.806077,1.847966
11287,2023-01-20 10:50:24.320211,144368025,-7.322704,-7.364773,1.281647,1.323717,1.042169,0.4809106,1.934892,1.918457
11320,2023-01-20 10:50:24.420151,144468002,-7.204763,-7.275885,1.324158,1.39528,1.083913,0.4584692,1.950604,1.982684
11353,2023-01-20 10:50:24.520273,144568058,-7.082613,-7.172759,1.364783,1.454929,1.169059,0.4359455,1.800616,1.969788
11390,2023-01-20 10:50:24.620277,144668026,-6.956402,-7.052311,1.403499,1.499408,1.218097,0.4133398,1.922568,2.012536
11420,2023-01-20 10:50:24.720178,144768008,-6.826312,-6.898471,1.440274,1.512434,1.247072,0.3906576,1.589639,1.968963
11454,2023-01-20 10:50:24.820177,144868072,-6.762436,-6.747624,1.380406,1.365595,1.336083,-0.1049574,1.653188,1.947446
11485,2023-01-20 10:50:24.920138,144968032,-6.621397,-6.602252,1.425449,1.406303,1.378706,-0.2410884,1.39334,1.842579
11518,2023-01-20 10:50:25.020150,145068038,-6.479422,-6.449394,1.406489,1.376461,1.401215,-0.3803571,0.8738417,1.527368
11550,2023-01-20 10:50:25.120208,145168067,-6.341471,-6.282788,1.348901,1.290217,1.420379,-0.5201271,0.317064,1.007259
11584,2023-01-20 10:50:25.220199,145268036,-6.210649,-6.122974,1.266133,1.178458,1.402364,-0.659591,0.03840416,0.52815
11614,2023-01-20 10:50:25.320201,145368044,-6.088935,-5.966679,1.17005,1.047794,1.345799,-0.6854746,-0.1803374,0.1689859
11647,2023-01-20 10:50:25.420192,145468037,-5.976906,-5.841076,1.072978,0.9371483,1.290432,-0.6865683,-0.1699211,-0.1075852
11679,2023-01-20 10:50:25.520264,145568096,-5.874548,-5.775382,0.9768159,0.8776496,1.182485,-0.6871706,0.2308891,-0.04592715
11715,2023-01-20 10:50:25.620238,145668062,-5.781722,-5.704538,0.8824099,0.8052254,1.086074,-0.6874862,0.2360654,0.1034722
11745,2023-01-20 10:50:25.720196,145768032,-5.698225,-5.627642,0.7901925,0.7196091,0.9964269,-0.6876548,0.1707764,0.1622611
11778,2023-01-20 10:50:25.820234,145868085,-5.62383,-5.552099,0.7003419,0.6286104,0.9183565,-0.6877496,0.06085793,0.13415
11810,2023-01-20 10:50:25.920156,145968031,-5.558208,-5.481774,0.6159306,0.5394963,0.8365819,-0.6179165,0.07787491,0.1090777
11843,2023-01-20 10:50:26.020156,146068042,-5.500504,-5.419463,0.5415707,0.4605294,0.7414118,-0.5433168,0.3032818,0.1969763
11875,2023-01-20 10:50:26.120207,146168056,-5.449769,-5.373857,0.4761669,0.4002544,0.6298481,-0.4777022,0.5673773,0.3880777
11908,2023-01-20 10:50:26.220197,146268023,-5.405162,-5.332077,0.4186517,0.345567,0.5130658,-0.4200015,0.7105103,0.5511482
11938,2023-01-20 10:50:26.320170,146368032,-5.365943,-5.292191,0.3680786,0.2943262,0.4127646,-0.3692653,0.8190076,0.6862093
11971,2023-01-20 10:50:26.420145,146468030,-5.331461,-5.256401,0.3236121,0.2485522,0.3455272,-0.3246554,0.7794264,0.7266824
12003,2023-01-20 10:50:26.520191,146568046,-5.301146,-5.221159,0.2845162,0.204529,0.3194939,-0.2854335,0.7479942,0.7133279
12039,2023-01-20 10:50:26.620230,146668062,-5.274492,-5.196423,0.2501428,0.1720734,0.2823506,-0.2509494,0.769727,0.7093222
12069,2023-01-20 10:50:26.720205,146768042,-5.25106,-5.189986,0.2199223,0.1588475,0.2319389,-0.2206314,0.9270398,0.7652485
12102,2023-01-20 10:50:26.820271,146868117,-5.230458,-5.184933,0.1933521,0.1478272,0.2022174,-0.1939755,0.9181532,0.8086974
12133,2023-01-20 10:50:26.920162,146968033,-5.212346,-5.18431,0.1699919,0.141956,0.1915753,-0.17054,0.8683101,0.8148081
12166,2023-01-20 10:50:27.020253,147068141,-5.196423,-5.174232,0.1494541,0.1272641,0.2071397,-0.149936,0.7580355,0.7738815
12198,2023-01-20 10:50:27.120180,147168059,-5.182423,-5.150518,0.1313976,0.09949266,0.2150389,-0.1318212,0.6068006,0.6675716
12231,2023-01-20 10:50:27.220161,147268029,-5.170114,-5.121197,0.1155226,0.06660597,0.2246324,-0.1158951,0.5048381,0.5654407
12261,2023-01-20 10:50:27.320228,147368081,-5.159292,-5.081119,0.1015656,0.02339295,0.2441883,-0.101893,0.3226873,0.443229
12294,2023-01-20 10:50:27.418390,147468044,-5.149777,-5.042904,0.08929477,-0.0175781,0.2671977,-0.08958267,0.2484812,0.3408927
12326,2023-01-20 10:50:27.509440,147568067,-5.141411,-5.004326,0.07850648,-0.05857817,0.2538015,-0.0787596,0.2608609,0.278845
12362,2023-01-20 10:50:27.600661,147668212,-5.134059,-4.971111,0.06902161,-0.09392639,0.2312697,-0.06924415,0.310499,0.2752619
12392,2023-01-20 10:50:27.700470,147768029,-5.127593,-4.944867,0.06068265,-0.1220429,0.1891524,-0.0608783,0.3482521,0.3037502
12425,2023-01-20 10:50:27.800582,147868148,-5.121907,-4.923009,0.05335118,-0.1455468,0.1545034,-0.05352319,0.3391674,0.3184037
12457,2023-01-20 10:50:27.900398,147968028,-5.11691,-4.890508,0.04690546,-0.1794962,0.1577873,-0.04705669,0.1507153,0.2662399
12490,2023-01-20 10:50:28.000631,148068325,-5.112515,-4.86349,0.04123853,-0.2077871,0.131954,-0.04137149,0.1078614,0.1805178
12522,2023-01-20 10:50:28.100378,148168047,-5.108651,-4.808885,0.03625624,-0.26351,0.1346727,-0.03637314,-0.1058355,0.06686474
12556,2023-01-20 10:50:28.200638,148268282,-5.105254,-4.768301,0.03187589,-0.3050781,0.07040951,-0.03197867,0.02119844,0.003500012
12586,2023-01-20 10:50:28.300451,148368070,-5.102269,-4.728095,0.02802475,-0.3461488,0.03618634,-0.02811511,0.03266204,0.006791078
12619,2023-01-20 10:50:28.400708,148468232,-5.099644,-4.702742,0.0246389,-0.3722633,-0.0147037,-0.02471835,0.1275705,0.03956742
12651,2023-01-20 10:50:28.511442,148568026,-5.097336,-4.660954,0.02166213,-0.4147197,-0.05380583,-0.02173197,-0.04052388,0.03142313
12687,2023-01-20 10:50:28.618398,148668052,-5.095305,-4.630451,0.01904499,-0.44581,-0.07414294,-0.0191064,-0.04554461,0.001771406
12717,2023-01-20 10:50:28.709409,148768063,-5.093521,-4.600806,0.01674404,-0.4759714,-0.1204026,-0.01679803,-0.08479098,-0.04082232
12750,2023-01-20 10:50:28.800622,148868237,-5.091952,-4.586054,0.01472109,-0.4911774,-0.1470999,-0.01476855,-0.004044303,-0.05210535
12783,2023-01-20 10:50:28.900306,148968034,-5.090573,-4.579925,0.01294254,-0.4977063,-0.1814663,-0.01298427,0.03624139,-0.03074804
12816,2023-01-20 10:50:29.000564,149068406,-5.089361,-4.584045,0.01137887,-0.4939367,-0.2076194,-0.01141556,0.1373954,0.02044515
12848,2023-01-20 10:50:29.100287,149168075,-5.088295,-4.568104,0.01000412,-0.5101866,-0.2275967,-0.01003637,0.04182367,0.03878804
12882,2023-01-20 10:50:29.200612,149268346,-5.087358,-4.565567,0.008795457,-0.5129953,-0.2606439,-0.008823816,0.01741842,0.01538035
12912,2023-01-20 10:50:29.300258,149368057,-5.086534,-4.579152,0.007732819,-0.4996494,-0.259459,-0.007757752,0.1283619,0.03821494
12945,2023-01-20 10:50:29.400548,149468412,-5.085809,-4.598865,0.006798567,-0.4801451,-0.3000759,-0.006820487,0.1951842,0.09571002
12977,2023-01-20 10:50:29.500176,149568021,-5.085172,-4.61422,0.00597719,-0.4649753,-0.2826648,-0.005996461,0.2035399,0.1407984
13013,2023-01-20 10:50:29.600576,149668401,-5.084612,-4.634669,0.005255045,-0.4446885,-0.2957906,-0.005271988,0.1932257,0.1756624
13043,2023-01-20 10:50:29.700198,149768032,-5.08412,-4.63893,0.004620149,-0.4405706,-0.2854499,-0.004635045,0.003500827,0.1233182
13076,2023-01-20 10:50:29.800555,149868398,-5.083688,-4.647778,0.004061959,-0.431848,-0.2514727,-0.004075055,-0.09963164,0.01710921
13107,2023-01-20 10:50:29.900203,149968069,-5.083307,-4.637141,0.003571207,-0.4425952,-0.1743758,-0.003582721,-0.3731922,-0.1201057
13140,2023-01-20 10:50:30.000573,150068461,-5.082973,-4.633235,0.003139746,-0.4465981,-0.1390962,-0.003149869,-0.4359477,-0.2519701
13172,2023-01-20 10:50:30.100212,150168066,-5.082678,-4.630841,0.002760413,-0.4490761,-0.1266761,-0.002769313,-0.4067452,-0.3228436
13205,2023-01-20 10:50:30.200551,150268371,-5.082419,-4.634558,0.00242691,-0.4454347,-0.1749061,-0.002434735,-0.2786446,-0.3285134
13235,2023-01-20 10:50:30.300248,150368067,-5.082191,-4.65341,0.002133699,-0.4266477,-0.1781726,-0.002140579,-0.1197266,-0.2689572
13268,2023-01-20 10:50:30.400563,150468381,-5.081992,-4.674696,0.001875914,-0.4054202,-0.1936239,-0.001881962,-0.04395717,-0.1765159
13300,2023-01-20 10:50:30.500211,150568035,-5.081816,-4.682758,0.001649273,-0.3974086,-0.1991987,-0.00165459,-0.1233382,-0.1362795
13336,2023-01-20 10:50:30.600578,150668407,-5.081662,-4.69556,0.001450014,-0.3846526,-0.2025147,-0.001454689,-0.1199566,-0.1309738
13367,2023-01-20 10:50:30.700188,150768019,-5.081525,-4.675331,0.001274827,-0.4049193,-0.1857392,-0.001278938,-0.3536211,-0.1970083
13400,2023-01-20 10:50:30.800548,150868381,-5.081407,-4.666602,0.001120806,-0.4136842,-0.2036301,-0.00112442,-0.3350054,-0.2726496
13431,2023-01-20 10:50:30.900169,150968036,-5.081302,-4.658199,0.0009853943,-0.4221176,-0.2088958,-0.0009885714,-0.2898278,-0.2957796
13464,2023-01-20 10:50:31.000567,151068467,-5.08121,-4.660523,0.0008663423,-0.41982,-0.2134591,-0.0008691356,-0.21596,-0.2693336
13496,2023-01-20 10:50:31.100288,151168100,-5.081128,-4.673735,0.0007616742,-0.4066315,-0.228308,-0.00076413,-0.1025975,-0.2050179
13529,2023-01-20 10:50:31.200604,151268328,-5.081055,-4.694001,0.0006696514,-0.3863845,-0.2780854,-0.0006718106,0.03225848,-0.1116741
13559,2023-01-20 10:50:31.300284,151368058,-5.080994,-4.725606,0.0005887464,-0.3547991,-0.322928,-0.0005906447,0.2364224,0.007713555
13592,2023-01-20 10:50:31.400550,151468374,-5.080939,-4.760309,0.0005176161,-0.3201123,-0.305865,-0.000519285,0.3035201,0.1409229
13624,2023-01-20 10:50:31.500207,151568051,-5.08089,-4.813176,0.0004550795,-0.2672589,-0.3490288,-0.0004565468,0.5612082,0.307309
13659,2023-01-20 10:50:31.600575,151668438,-5.080848,-4.86434,0.0004000984,-0.2161075,-0.3765053,-0.0004013884,0.6782383,0.4628277
13690,2023-01-20 10:50:31.700169,151768019,-5.080811,-4.900424,0.00035176,-0.1800355,-0.3738269,-0.0003528941,0.6578808,0.5502027
13723,2023-01-20 10:50:31.800550,151868387,-5.080774,-4.936425,0.0003092616,-0.1440401,-0.3597915,-0.0003102587,0.633405,0.5937343
13755,2023-01-20 10:50:31.900215,151968075,-5.080749,-4.961145,0.0002718976,-0.119332,-0.3222126,-0.0002727743,0.6101621,0.6074516
13788,2023-01-20 10:50:32.000564,152068447,-5.080724,-4.986589,0.0002390479,-0.09389608,-0.309213,-0.0002398187,0.61492,0.6149984
13820,2023-01-20 10:50:32.100195,152168051,-5.0807,-5.009432,0.000210167,-0.07105815,-0.2880257,-0.0002108446,0.6278926,0.6145411
13853,2023-01-20 10:50:32.200557,152268386,-5.080676,-5.031144,0.0001847753,-0.04934708,-0.2368831,-0.0001853711,0.5532327,0.6067882
13883,2023-01-20 10:50:32.300240,152368062,-5.080663,-5.037142,0.0001624515,-0.04335866,-0.2214577,-0.0001629753,0.4579543,0.5709306
13916,2023-01-20 10:50:32.400557,152468373,-5.08065,-5.044125,0.0001428247,-0.03638306,-0.2144266,-0.0001432852,0.496934,0.5206352
13948,2023-01-20 10:50:32.500191,152568032,-5.080638,-5.066494,0.0001255691,-0.01401872,-0.1945559,-0.000125974,0.6211095,0.5368243
13983,2023-01-20 10:50:32.600569,152668435,-5.080626,-5.086558,0.0001103983,0.0060421,-0.1938105,-0.0001107542,0.6765876,0.5869892
14014,2023-01-20 10:50:32.700167,152768020,-5.080614,-5.105683,9.706038E-05,0.02516603,-0.1556904,-9.737332E-05,0.687772,0.638833
14047,2023-01-20 10:50:32.800553,152868392,-5.080602,-5.122973,8.53339E-05,0.04245716,-0.1699564,-8.560903E-05,0.7136174,0.6695078
14078,2023-01-20 10:50:32.900209,152968069,-5.080589,-5.144866,7.502412E-05,0.06435115,-0.131288,-7.526602E-05,0.7074152,0.6839906
14111,2023-01-20 10:50:33.000564,153068445,-5.080577,-5.161876,6.595995E-05,0.08136478,-0.1121944,-6.617262E-05,0.6474512,0.6818448
14143,2023-01-20 10:50:33.100214,153168067,-5.08057,-5.210358,5.79909E-05,0.1298462,-0.0771529,-5.817788E-05,0.833815,0.7177119
14176,2023-01-20 10:50:33.200550,153268375,-5.08057,-5.244898,5.098466E-05,0.164379,-0.04232564,-5.114905E-05,0.7758904,0.7565839
14207,2023-01-20 10:50:33.300251,153368072,-5.08057,-5.284573,4.482489E-05,0.2040475,0.01145958,-4.496941E-05,0.751782,0.7591562
14240,2023-01-20 10:50:33.400557,153468374,-5.08057,-5.30875,3.94093E-05,0.2282193,0.08414017,-3.953637E-05,0.6383307,0.7267364
14273,2023-01-20 10:50:33.500218,153568040,-5.08057,-5.348358,3.464802E-05,0.2678227,0.1161013,-3.475973E-05,0.7303814,0.7134746
14309,2023-01-20 10:50:33.600570,153668396,-5.08057,-5.370634,3.046196E-05,0.2900946,0.131383,-3.056018E-05,0.6995436,0.7202504
14340,2023-01-20 10:50:33.700191,153768024,-5.08057,-5.420182,2.678165E-05,0.3396386,0.1460527,-2.6868E-05,0.9385872,0.7787974
14373,2023-01-20 10:50:33.800542,153868381,-5.08057,-5.448941,2.354598E-05,0.3683945,0.1751425,-2.36219E-05,0.9138206,0.8554997
14406,2023-01-20 10:50:33.900200,153968066,-5.08057,-5.507957,2.070124E-05,0.4274084,0.2049728,-2.076799E-05,1.130413,0.9550468
14439,2023-01-20 10:50:34.000542,154068434,-5.08057,-5.542597,1.820019E-05,0.4620452,0.2157951,-1.825887E-05,1.098845,1.047773
14471,2023-01-20 10:50:34.100174,154168052,-5.08057,-5.612157,1.600131E-05,0.5316035,0.2235801,-1.60529E-05,1.362681,1.159264
14504,2023-01-20 10:50:34.200569,154268433,-5.08057,-5.652746,1.406808E-05,0.57219,0.254241,-1.411344E-05,1.26479,1.23654
14534,2023-01-20 10:50:34.300213,154368053,-5.08057,-5.716364,1.236843E-05,0.6358064,0.3037554,-1.240831E-05,1.38773,1.304144
14567,2023-01-20 10:50:34.400549,154468365,-5.08057,-5.748876,1.087412E-05,0.6683172,0.3282956,-1.090918E-05,1.283359,1.31887
14600,2023-01-20 10:50:34.500232,154568011,-5.08057,-5.80175,9.560353E-06,0.7211899,0.3853495,-9.591177E-06,1.359797,1.32012
14634,2023-01-20 10:50:34.600645,154668388,-5.08057,-5.82272,8.405304E-06,0.7421587,0.4188629,-8.432405E-06,1.218524,1.303658
14666,2023-01-20 10:50:34.700236,154768028,-5.08057,-5.846504,7.389805E-06,0.7659412,0.4809905,-7.413631E-06,1.214611,1.263994
14699,2023-01-20 10:50:34.800549,154868390,-5.08057,-5.844575,6.496997E-06,0.7640116,0.4997423,-6.517945E-06,1.081707,1.196521
14732,2023-01-20 10:50:34.900172,154968046,-5.299829,-5.855127,5.710922E-09,0.5552979,0.5625749,2.273122E-06,1.069563,1.134923
14765,2023-01-20 10:50:35.000571,155068478,-5.299828,-5.842002,7.828006E-05,0.5422524,0.5986027,0.002796714,0.8054274,1.03168
14797,2023-01-20 10:50:35.100258,155168079,-5.29979,-5.839674,0.0008956695,0.5407791,0.6349643,0.01595718,0.7835016,0.9117712
14830,2023-01-20 10:50:35.200621,155268357,-5.2996,-5.81712,0.003445832,0.5209665,0.6477671,0.03809363,0.7042913,0.8240216
14860,2023-01-20 10:50:35.300280,155368018,-5.299066,-5.804346,0.008179496,0.513459,0.6683882,0.06170267,0.7030112,0.7714024
14893,2023-01-20 10:50:35.400613,155468354,-5.297995,-5.774419,0.01505246,0.4914764,0.6478342,0.08501832,0.6759266,0.7412006
14925,2023-01-20 10:50:35.500285,155568025,-5.296203,-5.763803,0.02399372,0.4915938,0.6576345,0.1080669,0.7979038,0.7536148
14960,2023-01-20 10:50:35.600632,155668371,-5.29354,-5.735664,0.034864,0.4769886,0.6844505,0.1307247,0.7052958,0.7835369
14991,2023-01-20 10:50:35.700283,155768043,-5.28987,-5.717854,0.04754448,0.4755285,0.6320056,0.152972,0.772181,0.7954832
15024,2023-01-20 10:50:35.800584,155868364,-5.285076,-5.684507,0.06194334,0.4613745,0.6685118,0.1748348,0.6736978,0.7890651
15055,2023-01-20 10:50:35.900185,155968006,-5.279029,-5.660377,0.07801672,0.459365,0.6648912,0.1963859,0.7359886,0.781556
15088,2023-01-20 10:50:36.000551,156068413,-5.271595,-5.622694,0.09576227,0.4468609,0.6326293,0.2177153,0.7458515,0.7775301
15120,2023-01-20 10:50:36.100231,156168035,-5.262624,-5.620909,0.1152064,0.4734913,0.635056,0.2389098,1.002664,0.844276
15153,2023-01-20 10:50:36.200609,156268355,-5.251963,-5.600779,0.1363751,0.485191,0.6239409,0.2600274,1.032473,0.9325095
15183,2023-01-20 10:50:36.300242,156368037,-5.23945,-5.613086,0.1592999,0.5329358,0.6044573,0.2811133,1.275798,1.063249
15216,2023-01-20 10:50:36.400554,156468397,-5.224933,-5.603795,0.183988,0.5628503,0.5859536,0.3021799,1.269129,1.175748
15248,2023-01-20 10:50:36.500233,156568019,-5.208252,-5.613487,0.2104554,0.6156904,0.5911692,0.3232435,1.423515,1.276201
15283,2023-01-20 10:50:36.600640,156668370,-5.189257,-5.599664,0.2387055,0.6491126,0.6460112,0.3443071,1.341478,1.354266
15314,2023-01-20 10:50:36.700274,156768000,-5.167791,-5.59237,0.2687439,0.6933227,0.6343917,0.3653744,1.4325,1.408821
15347,2023-01-20 10:50:36.800652,156868375,-5.143697,-5.562719,0.3005783,0.7196005,0.696806,0.3864498,1.283162,1.415489
15378,2023-01-20 10:50:36.900201,156968016,-5.116797,-5.540423,0.3342385,0.7578643,0.748391,0.4075502,1.287705,1.390148
15411,2023-01-20 10:50:37.000553,157068461,-5.086898,-5.497738,0.369769,0.7806091,0.7994946,0.4286978,1.181717,1.339453
15443,2023-01-20 10:50:37.100205,157168033,-5.053778,-5.46773,0.4072351,0.8211868,0.8322983,0.4499221,1.309402,1.32421
15476,2023-01-20 10:50:37.200611,157268359,-5.017203,-5.417255,0.4467037,0.8467556,0.8521338,0.471248,1.311745,1.340182
15506,2023-01-20 10:50:37.300284,157368029,-4.976929,-5.384495,0.4882406,0.8958066,0.897514,0.4926956,1.469993,1.413117
15539,2023-01-20 10:50:37.400611,157468354,-4.932724,-5.33049,0.5318886,0.9296544,0.9075482,0.5142702,1.494317,1.488204
15571,2023-01-20 10:50:37.500288,157568015,-4.884356,-5.282751,0.5776839,0.976079,0.9266205,0.5359736,1.61807,1.572535
15606,2023-01-20 10:50:37.600980,157668692,-4.831598,-5.21902,0.6256506,1.013072,0.9481371,0.5578012,1.653076,1.655798
15637,2023-01-20 10:50:37.700321,157768048,-4.774229,-5.157961,0.6758077,1.05954,0.9797081,0.5797473,1.778027,1.728827
15670,2023-01-20 10:50:37.800632,157868374,-4.712029,-5.083437,0.7281576,1.099566,0.9612505,0.6012877,1.959463,1.828913
15702,2023-01-20 10:50:37.900221,157968006,-4.644788,-5.045541,0.7824672,1.18322,0.9541095,0.6171252,2.367026,2.018018
15735,2023-01-20 10:50:38.000548,158068430,-4.572354,-4.988899,0.837988,1.254533,0.9425836,0.6233684,2.533231,2.255861
15767,2023-01-20 10:50:38.091192,158168030,-4.494644,-4.969416,0.8939629,1.368735,0.9540189,0.6237953,2.838827,2.503389
15798,2023-01-20 10:50:38.182477,158268334,-4.411635,-4.924741,0.950018,1.463124,1.021525,0.6202567,2.789588,2.706574
15830,2023-01-20 10:50:38.280474,158368061,-4.323349,-4.904711,1.005513,1.586876,1.069161,0.6073577,3.025302,2.846008
15862,2023-01-20 10:50:38.380820,158468405,-4.229871,-4.858912,1.059578,1.688619,1.119642,0.5864225,2.97292,2.964219
15896,2023-01-20 10:50:38.480411,158568021,-4.131341,-4.817696,1.111765,1.79812,1.236031,0.5638403,2.997632,3.006564
15930,2023-01-20 10:50:38.580871,158668513,-4.027939,-4.748179,1.162011,1.882252,1.348419,0.5412089,2.743578,3.006156
15963,2023-01-20 10:50:38.680343,158767995,-3.91982,-4.672373,1.210302,1.962855,1.453499,0.5185279,2.64258,2.885193
15994,2023-01-20 10:50:38.780619,158868276,-3.807142,-4.56651,1.256625,2.015993,1.619174,0.4957969,2.393026,2.740441
16029,2023-01-20 10:50:38.889184,158968017,-3.690062,-4.442826,1.300969,2.053733,1.669322,0.4730152,2.339481,2.57517
16062,2023-01-20 10:50:39.000489,159068405,-3.568739,-4.294937,1.343321,2.069518,1.784639,0.4501817,2.150632,2.393258
16094,2023-01-20 10:50:39.091153,159168033,-3.443303,-4.131646,1.383677,2.07202,1.842041,0.4272901,2.036639,2.233907
16126,2023-01-20 10:50:39.182379,159268279,-3.31388,-3.955183,1.422034,2.063337,1.922685,0.4043333,1.862238,2.08181
16158,2023-01-20 10:50:39.280344,159368016,-3.180611,-3.780782,1.458379,2.05855,1.956664,0.3813075,1.885244,1.9678
16189,2023-01-20 10:50:39.380516,159468223,-3.043656,-3.597093,1.492695,2.046132,1.959545,0.3582112,1.8317,1.898962
16223,2023-01-20 10:50:39.480275,159568002,-2.90319,-3.405709,1.52496,2.02748,2.008224,0.3350455,1.677459,1.821262
16256,2023-01-20 10:50:39.580662,159668405,-2.759398,-3.204726,1.555155,2.000484,2.01014,0.3118121,1.512317,1.708998
16289,2023-01-20 10:50:39.680273,159768066,-2.612478,-3.01826,1.583255,1.989037,2.077489,0.2885143,1.468489,1.596709
16320,2023-01-20 10:50:39.780266,159868117,-2.462624,-2.826559,1.609241,1.973176,2.060341,0.2651538,1.434634,1.537267
16354,2023-01-20 10:50:39.880144,159968002,-2.310042,-2.618769,1.633092,1.941819,2.119453,0.2417335,1.215174,1.434142
16385,2023-01-20 10:50:39.980185,160068038,-2.154937,-2.406243,1.65479,1.906096,2.098947,0.2182557,1.116528,1.305644
16419,2023-01-20 10:50:40.080238,160168046,-1.997517,-2.194835,1.674315,1.871633,2.105404,0.1947227,1.001172,1.197055
16451,2023-01-20 10:50:40.180269,160268022,-1.837995,-1.980575,1.691652,1.834232,2.099905,0.1711364,0.9439767,1.096272
16483,2023-01-20 10:50:40.280284,160368067,-1.676585,-1.761632,1.706784,1.791831,2.078284,0.1474991,0.8596824,1.010706
16514,2023-01-20 10:50:40.380164,160467999,-1.513507,-1.546695,1.719696,1.752884,2.080894,0.1238128,0.7789588,0.9321535
16548,2023-01-20 10:50:40.480175,160568009,-1.348979,-1.33975,1.730371,1.721142,2.007915,0.1000795,0.793748,0.8812489
16582,2023-01-20 10:50:40.580480,160668302,-1.183225,-1.135653,1.738798,1.691226,1.985723,0.07630081,0.809598,0.8502639
16615,2023-01-20 10:50:40.680208,160768013,-1.016469,-0.9584789,1.744962,1.686971,1.93722,0.05247869,0.9453744,0.8816833
16646,2023-01-20 10:50:40.780245,160868032,-0.8489395,-0.779367,1.74885,1.679278,1.886121,0.02871188,1.002885,0.9354247
16680,2023-01-20 10:50:40.880187,160968004,-0.6808609,-0.6341476,1.750608,1.703894,1.85339,0.00937067,1.212768,1.025982
16711,2023-01-20 10:50:40.980217,161068077,-0.512417,-0.4855095,1.751009,1.724102,1.836521,0.000849705,1.278042,1.15559
16745,2023-01-20 10:50:41.080222,161168044,-0.3436975,-0.3579692,1.751025,1.765297,1.815924,0,1.448218,1.26281
16777,2023-01-20 10:50:41.180238,161268001,-0.1747272,-0.2193796,1.751025,1.795677,1.803265,0,1.408746,1.35454
16809,2023-01-20 10:50:41.280298,161368045,-0.005515137,-0.07020175,1.751025,1.815712,1.802638,0,1.393305,1.377412
16840,2023-01-20 10:50:41.380284,161468024,0.1639282,0.0906198,1.751025,1.824333,1.788621,0,1.328061,1.368284
16874,2023-01-20 10:50:41.480231,161568004,0.3335919,0.260785,1.751025,1.823832,1.764234,0,1.333905,1.337577
16908,2023-01-20 10:50:41.580629,161668444,0.5034686,0.4324406,1.751025,1.822053,1.74826,0,1.446246,1.362056
16941,2023-01-20 10:50:41.680230,161768021,0.6735522,0.6029036,1.751025,1.821674,1.709128,0,1.589451,1.447522
16972,2023-01-20 10:50:41.780265,161868017,0.8438318,0.7732575,1.751025,1.821599,1.697467,0,1.586917,1.529619
17006,2023-01-20 10:50:41.880217,161968003,1.014301,0.9337609,1.751025,1.831565,1.711502,0,1.601636,1.563601
17037,2023-01-20 10:50:41.980167,162068005,1.184952,1.099125,1.751025,1.836853,1.688207,0,1.554465,1.593822
17071,2023-01-20 10:50:42.080225,162168034,1.355778,1.275365,1.751025,1.831438,1.686567,0,1.54922,1.618391
17103,2023-01-20 10:50:42.180258,162268018,1.526771,1.449542,1.751025,1.828253,1.657681,0,1.749418,1.667788
17135,2023-01-20 10:50:42.280291,162368080,1.697925,1.623524,1.751025,1.825426,1.630135,0,1.853449,1.777064
17166,2023-01-20 10:50:42.380165,162468002,1.869233,1.794684,1.751025,1.825574,1.624611,0,1.853646,1.847815
17200,2023-01-20 10:50:42.480174,162568009,2.040691,1.985454,1.751025,1.806262,1.585247,0,1.72402,1.851697
17234,2023-01-20 10:50:42.580454,162668275,2.212292,2.171571,1.751025,1.791747,1.575262,0,1.708325,1.786202
17267,2023-01-20 10:50:42.680181,162768001,2.384031,2.35216,1.751025,1.782895,1.597275,0,1.692418,1.750851
17298,2023-01-20 10:50:42.780195,162868017,2.555901,2.529539,1.751025,1.777387,1.626031,0,1.615945,1.713703
17332,2023-01-20 10:50:42.880201,162968054,2.727898,2.723391,1.751025,1.755532,1.653464,0,1.446945,1.637703
17363,2023-01-20 10:50:42.980111,163068002,2.900017,2.916354,1.751025,1.734688,1.669809,0,1.372555,1.52258
17397,2023-01-20 10:50:43.080198,163168033,3.072253,3.105685,1.751025,1.717592,1.67255,0,1.312103,1.440194
17429,2023-01-20 10:50:43.180248,163268005,3.244602,3.289522,1.751025,1.706105,1.703609,0,1.355797,1.403833
17461,2023-01-20 10:50:43.280297,163368038,3.417057,3.471548,1.751025,1.696534,1.696423,0,1.332916,1.378437
17492,2023-01-20 10:50:43.380259,163468000,3.589617,3.651401,1.751025,1.68924,1.708241,0,1.31564,1.372242
17527,2023-01-20 10:50:43.480256,163568032,3.762276,3.81974,1.751025,1.693561,1.697352,0,1.472967,1.393934
17561,2023-01-20 10:50:43.580456,163668276,3.935033,3.988274,1.751025,1.697784,1.658333,0,1.561017,1.443203
17594,2023-01-20 10:50:43.680176,163768002,4.107878,4.129372,1.751025,1.729531,1.628681,0,1.843241,1.576121
17625,2023-01-20 10:50:43.780196,163868019,4.280815,4.27068,1.751025,1.76116,1.637449,0,1.861988,1.72512
17661,2023-01-20 10:50:43.880161,163967997,4.453839,4.419291,1.751025,1.785574,1.671653,0,1.709914,1.762333
17692,2023-01-20 10:50:43.980145,164067998,4.626942,4.574933,1.751025,1.803034,1.709369,0,1.586609,1.734533
17726,2023-01-20 10:50:44.080217,164168030,4.800121,4.712827,1.751025,1.83832,1.75483,0,1.616434,1.67906
17758,2023-01-20 10:50:44.180286,164268044,4.973376,4.863253,1.751025,1.861148,1.780262,0,1.572277,1.641246
17790,2023-01-20 10:50:44.280274,164368021,5.146703,4.987056,1.751025,1.910673,1.776471,0,1.905223,1.695636
17821,2023-01-20 10:50:44.380250,164467998,5.320103,5.120938,1.751025,1.95019,1.804805,0,1.939977,1.839842
