LineNo,UTC_Approx,TimeUS,RDes,R,ROut,PDes,P,POut,YDes,Y,YOut,ADes,A,AOut
363,2023-01-20 10:49:56.258984,116247971,9.968421,0.004681881,0.02333778,-2.144846,0.02044341,-0.005735969,35.85516,0.0172952,0.04131338,-0.1871109,-0.1871109,0
953,2023-01-20 10:49:56.349966,116348000,9.857821,0.03083526,0.02301922,-3.190625,-0.03303786,-0.007957418,81.82545,0.00546791,0.1417903,-1.689339,-1.689339,0
1111,2023-01-20 10:49:56.451937,116454482,9.757064,-0.01699293,0.02306664,-4.241122,-0.02336029,-0.01020203,131.2121,0.05439936,0.2804453,0.406456,0.406456,0
1330,2023-01-20 10:49:56.564570,116566106,9.654388,-0.01047178,0.02251718,-5.299437,0.001886186,-0.01283007,178.0344,0.07780146,0.4272291,-0.07715225,-0.07715225,0
1548,2023-01-20 10:49:56.665405,116666870,9.551404,-0.0452402,0.02251376,-6.342715,0.03699234,-0.01575804,212.3441,0.05974403,0.5646413,0.4910469,0.4910469,0
1870,2023-01-20 10:49:56.765028,116766868,9.449041,-0.0008985701,0.02218842,-7.381138,-0.001039603,-0.01795369,239.3235,0.005001539,0.6678956,0.08096695,0.08096695,0
1915,2023-01-20 10:49:56.864910,116866881,9.335491,-0.04950173,0.02199564,-8.42028,-0.02110479,-0.01994704,266.3032,0.03809144,0.7580267,0.130558,0.130558,0
1963,2023-01-20 10:49:56.964895,116966867,9.289351,0.002603883,0.02191231,-8.747508,0.01692093,-0.0207522,274.9528,0.0407695,0.830681,-1.262951,-1.262951,0
2013,2023-01-20 10:49:57.064924,117066883,9.29107,0.04488144,0.02164548,-8.549338,-0.06207013,-0.01976012,270.0535,0.007827158,0.8508639,-0.7854462,-0.7854462,0
2057,2023-01-20 10:49:57.164957,117166895,9.248557,-0.02142814,0.02192863,-8.851223,0.02890017,-0.0212559,277.7703,0.01395329,0.858656,-1.303196,-1.303196,0
2109,2023-01-20 10:49:57.272113,117266883,9.230544,-0.03707403,0.02203775,-8.86639,0.0132531,-0.02103574,277.7704,0.01236798,0.8684926,0.2221107,0.2221107,0
2168,2023-01-20 10:49:57.383149,117366893,9.215398,0.0141069,0.02148803,-8.88502,-0.03677894,-0.02094826,277.7703,0.05869444,0.871361,0.1386642,0.1386642,0
2224,2023-01-20 10:49:57.477136,117466916,9.201475,-0.0283171,0.0220124,-8.904484,0.01045774,-0.02110919,277.7703,0.0899682,0.8719448,0.1156807,0.1156807,0
2283,2023-01-20 10:49:57.568008,117566871,9.190574,-0.01473935,0.02166312,-8.89846,-0.05394176,-0.02068501,277.7706,0.1053497,0.8723461,-1.08881,-1.08881,0
2337,2023-01-20 10:49:57.664804,117666878,9.186972,-0.02214528,0.02185022,-8.886346,-0.03401731,-0.02073664,277.7708,0.03304884,0.8724878,0.03471375,0.03471375,0
2396,2023-01-20 10:49:57.764845,117766941,9.192375,0.04407163,0.02132612,-8.880749,0.000228251,-0.0208427,277.7708,0.01449098,0.8725072,-0.3807068,-0.3807068,0
2440,2023-01-20 10:49:57.864774,117866898,9.191131,-0.009608888,0.0216463,-8.869775,0.04294791,-0.02134913,277.771,0.06759425,0.8724719,-2.39439,-2.39439,0
2485,2023-01-20 10:49:57.964725,117966878,9.205031,-0.03958239,0.02187574,-8.856786,-0.028348,-0.02073742,277.771,0.00352437,0.872538,0.1922607,0.1922607,0
2524,2023-01-20 10:49:58.064811,118066921,9.216599,0.01781925,0.02148507,-8.844743,-0.003784311,-0.02086413,277.771,0.00912803,0.8725678,-0.4158974,-0.4158974,0
2564,2023-01-20 10:49:58.164848,118166876,10.00571,-0.03323114,0.02508169,-1.032239,-0.02851493,0.009113152,0.6626137,0.05323345,0.7463487,0.1461983,0.1461983,0
2606,2023-01-20 10:49:58.264848,118266867,10.01635,0.01364745,0.02350493,-1.032746,-0.02889317,-0.002186859,0.6626031,0.01015329,0.221119,-0.1589775,-0.1589775,0
2646,2023-01-20 10:49:58.364852,118366901,9.98601,0.2001906,0.02321588,-1.06504,0.534867,-0.006234063,0.6620076,1.395433,0.06624365,-0.03757477,-0.03757477,0
2685,2023-01-20 10:49:58.464877,118466938,9.987017,-0.03114948,0.02343767,-1.025067,-0.3526196,-0.0005882194,0.6628067,-2.544928,0.02097633,-1.106548,-1.106548,0
2726,2023-01-20 10:49:58.564818,118566881,9.989346,-0.4019341,0.02652411,-1.040928,-0.3226076,0.0001916181,0.662511,-0.9106523,0.00692678,-0.5358696,-0.5358696,0
2766,2023-01-20 10:49:58.664799,118666880,9.984892,-0.08944836,0.02524279,-1.041791,-0.060816,-0.0007966578,0.6624956,0.7771335,0.003080391,-0.2857208,-0.2857208,0
2807,2023-01-20 10:49:58.764826,118766934,9.988941,-0.0618705,0.02462538,-1.040982,0.08727244,-0.002524582,0.6625249,1.505642,0.001931287,-0.4464149,-0.4464149,0
2851,2023-01-20 10:49:58.864767,118866883,10.0021,-0.189371,0.02500046,-1.024983,0.07807721,-0.003461786,0.6628095,0.7085455,0.001680871,0.004386902,0.004386902,0
2890,2023-01-20 10:49:58.964753,118966868,10.00418,-0.02522038,0.02298388,-0.980163,0.01196007,-0.002829811,-0.01895592,-1.041602,0.0006268284,-1.332951,-1.332951,0
2929,2023-01-20 10:49:59.064830,119066927,9.996778,0.5126457,0.01953588,-0.98285,0.5835824,-0.006180642,0.06489351,-2.372611,0.001125033,-0.8211136,-0.8211136,0
2968,2023-01-20 10:49:59.164810,119166880,10.0293,-0.6951453,0.03114074,-0.9451506,-1.581273,0.01029602,-0.03923957,-4.706448,-0.001376636,0.05989075,0.05989075,0
3009,2023-01-20 10:49:59.264822,119266884,9.964801,0.5638462,0.0242813,-0.9604904,-0.3275181,0.000354027,0.05767969,-3.824386,0.0001543708,5.822277,5.822277,0
3048,2023-01-20 10:49:59.364839,119366902,9.986891,0.04963804,0.02673761,-0.9538955,0.074643,-0.004292632,-0.003131449,-1.376969,0.0004897217,5.7477,5.7477,0
3088,2023-01-20 10:49:59.464847,119466914,9.985849,0.2434253,0.0256925,-0.9439753,0.09647603,-0.003736862,-0.1075366,2.694718,-0.0003529133,-1.163387,-1.163387,0
3129,2023-01-20 10:49:59.564821,119566892,10.0225,-0.9213068,0.0351575,-0.9290947,-0.3025811,-0.0009792247,0.006775505,-1.354059,-0.000130054,-5.04818,-5.04818,0
3168,2023-01-20 10:49:59.664807,119666891,10.01088,-0.09613574,0.02640525,-0.9475327,0.2148595,-0.006294834,0.00526695,0.3678754,0.0004671985,2.874947,2.874947,0
3209,2023-01-20 10:49:59.764829,119766932,9.999794,0.1950608,0.0245271,-0.9640944,0.8585485,-0.008050358,-0.1203884,4.273489,-0.000588308,-2.892399,-2.892399,0
3248,2023-01-20 10:49:59.864769,119866881,9.995682,0.4119207,0.02392524,-0.923687,-0.7373232,0.004912604,-0.0130384,-1.026262,-0.0009119452,-6.260777,-6.260777,0
3287,2023-01-20 10:49:59.964756,119966873,10.0317,-0.1403518,0.02854536,-0.9150771,-0.3071285,-0.001225331,0.03939012,-2.695406,0.0002269965,3.524017,3.524017,0
3326,2023-01-20 10:50:00.064761,120066863,10.04439,0.2739979,0.0258639,-0.918721,0.4747932,-0.00605415,-0.0857373,3.13584,-0.0002547242,3.924942,3.924942,0
3366,2023-01-20 10:50:00.164804,120166878,10.07065,-0.2790602,0.03039438,-0.8940802,-0.5494209,0.002560305,0.03126834,-1.241884,-0.0004666278,-4.010868,-4.010868,0
3407,2023-01-20 10:50:00.264796,120266866,10.07085,0.1654021,0.02497239,-0.8601637,-0.5550949,0.0008707677,0.1371509,-3.283601,0.0009078869,0.2569199,0.2569199,0
3446,2023-01-20 10:50:00.364807,120366885,10.05211,0.2993681,0.02442913,-0.8944089,0.3466833,-0.0052055,-0.04393927,3.625442,0.00020187,-0.4440308,-0.4440308,0
3486,2023-01-20 10:50:00.464797,120466873,10.07712,-0.04916151,0.02877803,-0.8696262,-0.4154492,0.001227423,-0.04636618,2.128869,-0.0006474556,-5.824471,-5.824471,0
3526,2023-01-20 10:50:00.564818,120566888,10.0944,-0.2207593,0.02871665,-0.883303,0.1071582,-0.004928966,0.01178298,-0.5933308,-0.0002850256,3.948307,3.948307,0
3567,2023-01-20 10:50:00.664808,120666883,10.09028,0.1166333,0.02673542,-0.880998,0.7562057,-0.006623174,-0.002510499,1.093013,-8.106815E-05,7.892609,7.892609,0
3608,2023-01-20 10:50:00.764858,120766945,10.12854,-0.410895,0.03214322,-0.8224483,-1.004636,0.006863803,0.05092317,-1.716608,-0.0004138495,0.06904602,0.06904602,0
3649,2023-01-20 10:50:00.864784,120866887,10.15433,-0.2580932,0.02890257,-0.8079207,-0.3749617,-0.0006758232,0.112607,-3.457574,0.0004715446,-4.588795,-4.588795,0
3686,2023-01-20 10:50:00.964763,120966885,10.13637,0.3219793,0.02592293,-0.8461698,0.4276933,-0.006095314,0.007734965,2.10971,0.0005993379,0.3744125,0.3744125,0
3718,2023-01-20 10:50:01.064822,121066946,10.16466,-0.3616061,0.03041606,-0.8297441,0.1788498,-0.003522673,-0.08725085,4.52334,-0.0004761238,-3.061581,-3.061581,0
3749,2023-01-20 10:50:01.164813,121166930,10.80826,0.8006863,0.02379591,-3.027435,0.8211641,-0.01504056,-0.07366121,0.9816176,-0.0008753546,-4.352379,-4.352379,0.009830551
3783,2023-01-20 10:50:01.264792,121266942,10.45095,-0.2663429,0.03281604,-2.976174,-0.6248544,-0.006543804,-0.03824513,-0.03532144,-4.172215E-05,4.586983,4.586983,0.04682498
3814,2023-01-20 10:50:01.364780,121366984,9.918685,0.9320586,0.02565425,-2.78395,-2.279967,0.005110572,-0.002442976,0.5633857,-0.0002188409,1.265812,1.265812,0.09307861
3846,2023-01-20 10:50:01.464725,121466915,7.983705,2.17228,0.008622961,-3.844516,-3.176295,0.02371111,0.01113944,-0.8541188,0.0004984173,-10.91366,-10.91366,0.1420179
3879,2023-01-20 10:50:01.564789,121566927,8.105933,2.37328,0.01886547,-5.207878,-1.010498,-0.0002578283,-0.02926032,2.449708,8.248582E-05,-12.49771,-12.49771,0.1917365
3912,2023-01-20 10:50:01.664842,121666961,9.066668,-1.837147,0.06397107,-2.095655,1.3018,-0.02564658,0.3818797,-2.141515,0.0004062667,-7.81908,-7.81908,0.2416762
3945,2023-01-20 10:50:01.765181,121767298,11.86066,-2.690488,0.06666366,-1.741231,-3.370864,0.01254136,1.798104,3.473211,0.00936994,-18.47324,-18.47324,0.291681
3978,2023-01-20 10:50:01.865131,121867296,13.99032,3.676247,0.05719581,-4.194638,8.66805,-0.06831483,-2.162757,7.31641,-0.01794452,32.29971,32.29971,0.3417084
4010,2023-01-20 10:50:01.965086,121967327,10.88763,13.77793,-0.004064551,-6.685842,6.72599,-0.06816964,-4.526685,2.276024,-0.02452089,115.6263,146.4077,0.389585
4042,2023-01-20 10:50:02.065074,122067298,5.583247,4.252896,0.02993261,-9.254019,-8.605717,0.03824542,-5.551434,3.042524,-0.02384789,24.14381,223.2136,0.3626511
4073,2023-01-20 10:50:02.165136,122167294,-2.06335,5.440692,0.01088251,-11.15553,0.5958973,-0.08819215,-5.736886,-1.045214,-0.02078102,-85.1185,105.8331,0.3168576
4107,2023-01-20 10:50:02.265212,122267348,2.264291,-1.919409,0.008076983,-8.422937,-3.014592,-0.05342432,-5.137393,-1.606266,-0.01686839,-154.3898,-27.75002,0.3097448
4138,2023-01-20 10:50:02.365145,122367283,3.995261,3.281109,0.002795439,-6.26978,-0.6598579,-0.03538478,-4.579689,-0.7087213,-0.0142109,-180.5918,-56.84481,0.3014992
4170,2023-01-20 10:50:02.464891,122467289,1.357517,-1.585333,0.05952096,2.66678,-8.789981,0.0523835,-5.210215,2.881871,-0.01905529,-178.2842,-67.94434,0.2928091
4203,2023-01-20 10:50:02.564197,122566991,4.693025,-9.755941,0.07659102,4.833135,6.746738,-0.05677228,-6.894612,3.671883,-0.029329,-165.7318,-70.8952,0.2905399
4237,2023-01-20 10:50:02.664003,122666916,6.54874,-1.323143,0.04460709,4.472779,2.644349,-0.02920742,-9.116682,3.886988,-0.0393027,-138.4706,-84.86328,0.2957829
4269,2023-01-20 10:50:02.764081,122766957,5.695634,1.758636,0.05370723,3.974324,9.239279,-0.04206523,-11.32677,3.917577,-0.04695464,-103.9168,-75.15564,0.30211
4303,2023-01-20 10:50:02.864070,122866949,5.903985,1.47619,0.03773614,-1.240396,7.365527,-0.07652362,-12.80344,0.9406722,-0.04934279,-67.78139,-46.39645,0.3118128
4334,2023-01-20 10:50:02.964015,122966919,4.645374,-2.061605,0.08188468,-0.4930226,-4.114059,0.001673801,-13.28609,-0.5818443,-0.0482571,-35.18259,-40.56215,0.3189409
4367,2023-01-20 10:50:03.064036,123066950,11.18155,2.982636,0.03632239,5.324239,3.305511,-0.04030345,-12.85111,-3.532941,-0.04363246,-11.63786,-17.71927,0.3236534
4397,2023-01-20 10:50:03.164057,123166973,9.493176,11.71231,-0.007317116,3.652525,10.2652,-0.04361125,-11.58463,-3.478008,-0.0364569,-4.16848,-6.604767,0.3241479
4432,2023-01-20 10:50:03.263996,123266909,10.76236,3.299286,0.04166856,-3.367637,6.696362,-0.04926367,-10.44817,-1.127206,-0.03293502,7.980156,-2.803326,0.3317026
4462,2023-01-20 10:50:03.364016,123366924,8.043858,6.01099,0.03234733,-8.886918,4.026966,-0.06098713,-10.89226,2.702717,-0.0389695,15.83424,32.54557,0.3355753
4495,2023-01-20 10:50:03.464017,123466914,4.551867,3.959081,0.03409813,-6.671786,5.473161,-0.09167244,-12.37654,3.297677,-0.04896135,33.07791,27.01292,0.3326857
4527,2023-01-20 10:50:03.564015,123566899,0.9918592,4.162832,0.003974477,-5.175768,1.772277,-0.04556957,-14.88465,6.17707,-0.06086721,70.10474,17.7557,0.346473
4561,2023-01-20 10:50:03.664056,123666937,1.526662,4.53497,-0.02852589,-3.544724,-4.315001,-0.0009779669,-17.65229,5.536079,-0.0728417,119.2691,30.64127,0.3623449
4593,2023-01-20 10:50:03.764060,123766945,-0.5494671,-3.494895,0.04363874,-1.004139,9.146572,-0.08055364,-20.21559,5.081087,-0.08054601,153.9951,82.34348,0.3754779
4627,2023-01-20 10:50:03.864253,123866939,-1.969538,-9.003247,0.09188928,-0.2097521,2.701082,-0.04078411,-21.69636,3.598772,-0.08296915,147.976,111.4585,0.3759415
4659,2023-01-20 10:50:03.964611,123966986,-2.373672,-8.808356,0.06536962,-2.099177,-3.289013,0.01644647,-22.70994,0.04117892,-0.08455554,114.6094,93.20879,0.3741988
4692,2023-01-20 10:50:04.064728,124066949,-16.38977,-19.28713,0.07021645,-3.119673,-5.867983,0.02944033,-22.07997,-4.080375,-0.07763805,57.76374,95.95442,0.3621456
4722,2023-01-20 10:50:04.164809,124166963,-18.10555,-13.68887,-0.008475926,-4.861349,2.698875,-0.03383563,-19.95653,-5.350452,-0.06540535,1.197277,29.50354,0.3454078
4757,2023-01-20 10:50:04.264862,124266995,-16.7259,-14.06863,0.01791922,-7.356437,2.187248,-0.08299348,-17.8875,-6.180368,-0.05737005,-58.3033,17.9492,0.3314084
4787,2023-01-20 10:50:04.364812,124366949,-10.40257,-4.133372,-0.009291979,-3.398573,-4.366241,-0.05175055,-15.66655,-4.010338,-0.05201564,-79.15053,-21.22688,0.3142382
4820,2023-01-20 10:50:04.464756,124466921,6.454629,-1.156602,0.06051427,-0.8928899,-5.569367,0.005104155,-13.96088,-3.699059,-0.04799905,-45.3164,-44.39983,0.322841
4853,2023-01-20 10:50:04.564739,124566944,16.93258,6.746793,0.09821183,3.721998,0.7610297,-0.0173405,-11.97985,-4.164009,-0.04071948,-17.63667,-29.1584,0.3348403
4887,2023-01-20 10:50:04.664738,124666930,7.843489,11.73263,0.05265637,5.534984,2.367076,-0.009701584,-10.14054,-4.514616,-0.03555565,-2.55579,-13.85708,0.3427733
4919,2023-01-20 10:50:04.764798,124766947,-0.06520738,6.644958,0.0279361,5.549518,-4.839906,0.04289192,-7.246443,-8.255085,-0.02340599,14.78804,-8.199787,0.3463564
4953,2023-01-20 10:50:04.864840,124867005,-8.543372,2.990989,0.0144904,8.136374,-4.675642,0.0587845,-3.413248,-6.701157,-0.007736473,14.81131,18.73913,0.342203
4983,2023-01-20 10:50:04.964737,124966949,-6.221688,-10.18791,0.05146773,7.885427,-1.31364,0.04001759,-2.043518,1.402412,-0.01026981,16.6728,24.97463,0.3403223
5016,2023-01-20 10:50:05.064780,125066977,0.4037735,-4.974719,0.05037216,5.150877,-2.344069,0.03544771,-3.913683,7.604489,-0.02795322,5.642841,-8.094025,0.3351119
5046,2023-01-20 10:50:05.164806,125166955,5.269166,-7.436779,0.1067647,4.72468,-3.009787,0.02461123,-7.660949,10.28304,-0.04848273,4.242588,7.775116,0.3412255
5081,2023-01-20 10:50:05.264809,125266944,7.800217,1.655325,0.05624663,4.31446,-7.612501,0.08136145,-11.97868,9.800981,-0.06622276,-0.4702075,3.667355,0.3432392
5111,2023-01-20 10:50:05.365195,125367335,8.704473,1.690718,0.08273226,4.84301,1.288895,-0.005126915,-14.77224,3.648744,-0.07199833,-17.03406,2.986908,0.3366899
5144,2023-01-20 10:50:05.464821,125466954,4.720059,6.716319,0.03381268,1.664065,5.988727,-0.0259785,-15.92639,1.219889,-0.07024491,-38.10835,-19.04478,0.3284118
5176,2023-01-20 10:50:05.564836,125566955,3.179607,5.21412,0.01382716,-6.181498,0.4264996,-0.06177908,-14.6761,-4.74047,-0.05882972,-55.3847,-46.19465,0.3242799
5211,2023-01-20 10:50:05.664834,125666946,0.747277,1.271466,0.03309098,-7.08071,-11.07265,0.002779991,-12.1034,-7.147348,-0.04490767,-55.41029,-39.10847,0.3244507
5243,2023-01-20 10:50:05.765171,125767281,-1.432774,1.70528,0.03697572,-3.944812,-16.56049,0.06132655,-8.35343,-7.763674,-0.027856,-58.06483,-37.0265,0.3203767
5277,2023-01-20 10:50:05.859270,125867294,0.8471279,8.481569,-0.02523917,6.520886,-5.911514,0.01756933,-4.186899,-9.032439,-0.01180493,-76.91431,-40.54956,0.3092771
5307,2023-01-20 10:50:05.950184,125967282,-1.166442,4.782112,0.01359405,7.228823,2.604681,0.007341272,0.5169059,-10.83745,0.005464035,-75.92294,-49.49236,0.3093253
5340,2023-01-20 10:50:06.045247,126067301,-5.267632,-1.056402,0.04934664,7.749609,-7.15448,0.06668065,5.819228,-11.5442,0.02434301,-48.2523,-19.70472,0.3116298
5370,2023-01-20 10:50:06.144903,126166921,-10.10612,-0.1427508,0.02259706,7.262365,-1.179027,0.02177295,11.24732,-10.50859,0.04320741,-74.85594,-52.88305,0.3080536
5405,2023-01-20 10:50:06.244385,126266938,-14.09511,-5.8493,0.02481141,5.380092,-4.136025,0.03268533,15.72302,-7.094323,0.05478561,-58.28825,-47.62325,0.309185
5437,2023-01-20 10:50:06.343460,126367252,-15.97435,-4.962238,-0.02299921,5.289666,2.463659,-0.01235112,16.94131,2.434738,0.04832114,-61.69678,-36.20348,0.3049434
5470,2023-01-20 10:50:06.442416,126466920,-12.89582,-6.834818,0.001712709,3.798329,4.609997,-0.0471966,16.32532,7.221976,0.02760709,-67.83891,-49.18594,0.3010872
5502,2023-01-20 10:50:06.542415,126566931,-3.039769,-9.392656,0.007683713,-3.582887,-6.102499,0.009489337,14.15085,8.832925,0.01437504,-58.90553,-79.19626,0.3140203
5536,2023-01-20 10:50:06.642436,126666986,6.591618,1.569565,0.03337568,1.561114,-7.307506,0.03192744,10.57206,5.598065,0.009358023,-60.50385,-22.05534,0.3089844
5568,2023-01-20 10:50:06.742319,126766934,11.19402,11.67734,0.02119728,4.356237,-3.078622,0.0349215,8.279316,-1.396344,0.01299637,-91.91151,-45.95089,0.2929738
5602,2023-01-20 10:50:06.842273,126866963,10.06863,5.769016,0.07065429,13.82825,3.074135,0.04070942,8.148596,-5.703623,0.02347449,-95.39642,-62.6482,0.2901139
5632,2023-01-20 10:50:06.942180,126966959,1.700055,18.72603,-0.06214175,3.903133,5.063309,-0.0084749,10.86964,-10.43785,0.04054043,-72.39143,-88.29337,0.2962849
5665,2023-01-20 10:50:07.042157,127066996,-2.682039,2.908553,-0.0009868015,3.081579,-3.56353,0.02418187,14.29998,-8.130062,0.05257454,-70.5975,-48.43168,0.3038461
5695,2023-01-20 10:50:07.142066,127166922,-3.60791,-10.25719,0.1023128,1.855606,-4.170484,0.05470399,16.76025,-4.518494,0.05637644,-62.45181,-43.69345,0.30141
5730,2023-01-20 10:50:07.242099,127266939,-2.742506,-8.667918,0.05685453,2.763591,-8.639627,0.0848863,17.94047,1.050389,0.05299653,-46.45043,-63.61971,0.3100029
5760,2023-01-20 10:50:07.342502,127367279,-1.934107,-9.332433,0.07009715,6.72846,3.254591,0.008435281,17.57263,1.226553,0.04626405,-35.04544,-25.24614,0.3170923
5793,2023-01-20 10:50:07.442162,127466939,0.5150541,4.081174,0.00205758,4.517286,7.899207,-0.008610717,16.76094,1.307174,0.04249026,-34.18339,-35.38485,0.3108381
5825,2023-01-20 10:50:07.542085,127566949,-0.5101645,2.522119,0.01850962,-0.778075,7.185217,-0.02409362,15.85995,0.4661866,0.04028979,-30.00526,-48.69194,0.3113163
5859,2023-01-20 10:50:07.646770,127666946,1.467215,3.072974,0.008379974,-4.987807,4.800762,-0.03611644,15.2388,0.1647576,0.03907761,-14.88573,-36.72466,0.3209576
5891,2023-01-20 10:50:07.758053,127766955,3.48814,9.888951,-0.02424738,-5.672035,-3.693279,0.01473757,15.18556,1.52616,0.03991026,-5.748548,-35.10818,0.3211348
5925,2023-01-20 10:50:07.856565,127866957,5.125738,-0.7952349,0.0604623,-7.567729,-7.154438,-0.003364275,14.87908,0.8489031,0.03804342,28.55014,2.959728,0.3295161
5956,2023-01-20 10:50:07.947337,127966941,4.972405,-3.052084,0.07677758,-2.851299,-7.150606,0.03230195,14.48404,2.744968,0.03551818,28.04921,-2.513885,0.3329978
5990,2023-01-20 10:50:08.041997,128066953,5.207572,1.029712,0.05344398,5.624804,-5.509071,0.0639862,13.84712,3.628703,0.03310443,19.03577,23.91558,0.3302954
6020,2023-01-20 10:50:08.142015,128166989,2.446873,6.638801,0.009803544,6.621738,8.54382,0.004729996,12.88469,2.501136,0.03069394,28.88066,12.64429,0.3282778
6055,2023-01-20 10:50:08.241972,128266939,1.122719,7.78591,-0.01693326,13.54099,14.38708,0.01252675,11.20329,6.798782,0.02348627,40.91607,-2.558422,0.3423726
6085,2023-01-20 10:50:08.342360,128367285,0.5932758,4.086741,-0.003121158,7.27588,13.0077,0.01335965,7.990413,9.373989,0.00848262,40.663,11.09695,0.3399628
6118,2023-01-20 10:50:08.442047,128466951,0.9080524,0.8002213,0.02626905,-3.100726,1.546146,0.01129819,4.394164,8.706623,-0.005592422,37.52422,6.693268,0.3392388
6150,2023-01-20 10:50:08.542027,128566937,1.570987,-3.747272,0.05546375,-8.923217,-8.259204,0.03086068,2.021276,4.87415,-0.01092536,15.03401,0.8066177,0.3442182
6184,2023-01-20 10:50:08.642038,128666956,-1.676438,-4.163425,0.05854743,-8.503579,-6.492042,0.008814042,1.045926,2.131098,-0.009877115,9.346622,7.23753,0.3410185
6216,2023-01-20 10:50:08.742020,128766946,-3.902082,-9.606538,0.07363514,-7.875229,-9.543177,0.02094737,1.167475,-0.9921697,-0.004571944,7.80459,11.82508,0.3409815
6250,2023-01-20 10:50:08.842088,128866978,-6.570381,-5.166684,0.02398381,-4.478713,-4.195767,0.007011408,2.749204,-4.15139,0.006515818,2.555701,2.808094,0.3440202
6283,2023-01-20 10:50:08.942143,128966935,-6.833525,-7.262804,0.005787818,-3.441409,3.702433,-0.03082303,4.991406,-4.565998,0.01726797,3.918426,23.9706,0.333991
6316,2023-01-20 10:50:09.042222,129066941,-1.246198,-5.439793,0.03051737,-1.918771,3.358366,-0.01283757,6.789907,-2.684917,0.02271839,-3.472689,3.38583,0.3287932
6346,2023-01-20 10:50:09.142256,129166936,3.614498,-4.852937,0.07012972,3.402477,3.938887,0.02328057,6.834023,2.611801,0.01873137,-19.52916,-21.18568,0.3319508
6381,2023-01-20 10:50:09.242220,129266954,6.165087,-4.956672,0.08806449,-2.259778,10.73856,-0.04344905,5.021441,3.198277,0.007470767,-29.6973,12.33864,0.3307454
6411,2023-01-20 10:50:09.342345,129367259,9.044222,0.0411665,0.06014806,11.60368,16.17958,-0.03178144,3.021323,5.044387,-0.002418803,-60.32267,5.212498,0.3164947
6444,2023-01-20 10:50:09.442000,129467536,11.05787,6.375947,0.03026277,10.87085,24.25082,-0.073768,0.1983505,6.060651,-0.01432002,-83.25285,-53.57647,0.3092863
6476,2023-01-20 10:50:09.540866,129567622,10.61147,7.907831,0.03271378,-0.6770613,15.48059,-0.06796287,-3.78737,8.200499,-0.03094281,-78.8293,-65.91587,0.3120343
6510,2023-01-20 10:50:09.640124,129667611,5.417176,11.17736,-0.009625599,-10.4319,3.206756,-0.03839404,-8.145181,9.134615,-0.04786636,-72.33896,-55.7476,0.312887
6542,2023-01-20 10:50:09.740129,129767617,2.970778,1.099632,0.04226533,-15.01747,-12.508,0.03146065,-11.0116,7.37706,-0.05504,-74.4109,-45.97673,0.3056765
6576,2023-01-20 10:50:09.840189,129867687,0.5506736,1.871071,0.02864829,-11.3735,-5.507913,-0.00320068,-13.0296,6.230361,-0.05911006,-69.1154,-60.68182,0.3061952
6607,2023-01-20 10:50:09.940111,129967631,-1.810136,-1.364716,0.03542716,-10.80449,-2.630998,-0.01639593,-14.13167,2.966115,-0.05948888,-60.2711,-63.54513,0.3094191
6640,2023-01-20 10:50:10.040111,130067634,0.8555526,0.4672414,0.01776987,-11.26911,-5.980508,0.01191887,-14.69482,2.754941,-0.05697592,-49.61642,-61.62033,0.312505
6670,2023-01-20 10:50:10.140181,130167679,1.972528,5.968991,-0.007565171,-10.65543,-7.091019,-0.02574161,-15.70902,3.676607,-0.05997247,-46.38136,-45.81413,0.3100555
6705,2023-01-20 10:50:10.240026,130267613,3.156483,-2.538799,0.05738767,-7.890132,-7.380817,-0.009670635,-16.64579,2.043243,-0.06384538,-45.66362,-34.13744,0.3071736
6735,2023-01-20 10:50:10.339869,130367714,4.022023,-0.8373598,0.06158977,-2.25738,-0.3293854,-0.02614694,-17.03037,0.913296,-0.06344958,-42.36515,-38.06438,0.3089193
6768,2023-01-20 10:50:10.439625,130467637,2.174272,3.259532,0.03141149,6.230296,7.909491,-0.06425104,-16.64275,-2.611717,-0.05976195,-40.60172,-15.87429,0.3079507
6800,2023-01-20 10:50:10.539628,130567667,2.290489,-6.787123,0.1159512,21.74931,18.57088,-0.01595679,-15.4674,-2.445504,-0.0553991,-36.31045,-41.8313,0.3135118
6834,2023-01-20 10:50:10.639593,130667655,0.5720866,1.9601,0.03381341,29.94132,40.61015,-0.09523273,-14.17001,-4.339543,-0.05075578,-29.91707,-26.10025,0.3161435
6866,2023-01-20 10:50:10.739575,130767655,-2.259748,-1.793743,0.0480217,23.27368,39.70987,-0.09042446,-12.29698,-4.207702,-0.04444131,-25.15353,-37.54616,0.3202392
6900,2023-01-20 10:50:10.839603,130867729,-3.321631,0.1232456,0.01514268,1.351699,12.96908,-0.03514016,-10.44437,-3.755818,-0.03794583,-13.02851,-31.18839,0.3323322
6930,2023-01-20 10:50:10.939451,130967665,-1.824483,0.6230622,0.01074228,-10.73569,-7.020089,-0.02430353,-9.135476,-4.038072,-0.03455828,-14.20354,-9.38549,0.3286528
6963,2023-01-20 10:50:11.039434,131067668,-1.677638,5.92776,-0.01307639,-7.761753,-16.54755,-0.008136384,-7.007218,-5.481653,-0.02525011,-21.02827,-18.87732,0.3189966
6993,2023-01-20 10:50:11.139558,131167705,-2.898286,6.353031,-0.02549098,-0.2035731,-11.17746,0.01025011,-4.262072,-5.123985,-0.01423396,-24.14355,-14.01281,0.3172156
7029,2023-01-20 10:50:11.239543,131267641,-7.56884,2.040745,0.01195745,1.59754,-6.964833,0.01977936,-1.501548,-4.583589,-0.006101992,-26.44986,-29.23365,0.3138752
7059,2023-01-20 10:50:11.339553,131367658,-8.396098,-8.629012,0.06453717,3.030655,-7.77559,0.04240558,1.615695,-3.880927,0.002109773,-28.55066,-11.7012,0.3157261
7092,2023-01-20 10:50:11.439538,131467645,-6.360573,-7.986136,0.07498796,1.734771,-5.509494,0.02686723,3.941276,-4.074388,0.00964086,-28.00278,-4.641724,0.3176857
7123,2023-01-20 10:50:11.539558,131567659,-5.676102,-5.844611,0.07451774,2.083164,-7.15869,0.03694993,5.596783,-4.101202,0.01667688,-33.92294,-2.929401,0.3121383
7157,2023-01-20 10:50:11.639543,131667640,-2.729166,-5.104383,0.05617515,2.074163,-9.392885,0.0452327,6.818473,-1.366353,0.01946291,-44.54392,-7.111359,0.3034821
7189,2023-01-20 10:50:11.739549,131767647,-7.774136,2.649721,0.01730688,6.441688,-7.874584,0.05774251,6.880148,0.8449692,0.01522554,-49.62601,-33.91256,0.2999277
7223,2023-01-20 10:50:11.839582,131867710,-6.612064,0.5949438,-0.006814722,7.784758,5.579172,-0.0303443,6.085007,2.911368,0.007941668,-57.87968,-17.13438,0.2925568
7253,2023-01-20 10:50:11.939453,131967656,-7.906049,-3.769261,0.02070132,4.063206,-0.5880952,0.02899179,4.367581,5.890804,-0.002781908,-65.07758,-35.87027,0.2868524
7286,2023-01-20 10:50:12.039463,132067679,-6.490073,-1.088638,0.01918562,4.076151,5.829198,-0.03517955,0.955798,8.739705,-0.01912323,-56.3955,-56.69136,0.2934775
7316,2023-01-20 10:50:12.139562,132167697,-5.074869,-5.678302,0.04411444,4.729605,-4.925603,0.06399047,-3.690992,12.27507,-0.03919634,-50.95794,-47.45598,0.294958
7351,2023-01-20 10:50:12.239572,132267659,-1.119159,-4.361821,0.03365795,5.622821,-0.9814689,0.002872762,-8.001442,6.969232,-0.05344417,-41.9851,-33.08764,0.2968141
7381,2023-01-20 10:50:12.339569,132367660,4.004588,-4.269178,0.04862946,8.373701,-6.400755,0.06217589,-9.518615,2.568679,-0.05057146,-31.8674,-60.42271,0.3044145
7414,2023-01-20 10:50:12.439508,132467604,4.437264,0.05187328,0.05625339,5.295618,1.16479,0.01042649,-9.338623,-0.2219695,-0.04319873,-22.57616,-10.02178,0.3088925
7446,2023-01-20 10:50:12.539541,132567644,5.479581,2.853948,0.03988862,4.387126,0.4550959,0.004813528,-8.744506,-0.06887157,-0.03942592,-19.94461,-24.13149,0.3070109
7480,2023-01-20 10:50:12.639534,132667638,6.885462,-1.851589,0.06746297,2.134938,-7.538475,0.05153516,-9.018035,1.394656,-0.04068869,-10.94837,-47.1283,0.3110781
7512,2023-01-20 10:50:12.739540,132767633,10.90945,5.384361,0.03916457,5.151059,-6.881787,0.03058657,-10.18168,0.276624,-0.0433175,-0.1724491,-39.5997,0.3193569
7546,2023-01-20 10:50:12.839555,132867671,7.228017,3.141545,0.06682086,5.751841,-5.735867,0.05493566,-8.277582,-7.358005,-0.03165929,7.78895,0.9210587,0.3218556
7576,2023-01-20 10:50:12.939471,132967660,1.600472,4.723761,0.03582588,6.791035,0.6760754,0.033554,-11.12492,-9.177163,-0.01785875,7.07725,-17.53416,0.3192513
7610,2023-01-20 10:50:13.039453,133067658,0.6289303,7.46089,-0.02154279,4.582508,0.396764,0.008375498,-14.59294,-11.42756,-0.01872182,5.557015,-23.3367,0.3180409
7640,2023-01-20 10:50:13.139576,133167707,1.449068,1.159438,0.03933623,5.1038,-8.93499,0.07945919,-14.3254,-10.99028,-0.01973901,-1.695789,6.241703,0.3162698
7675,2023-01-20 10:50:13.239549,133267636,2.693368,-7.384667,0.1045399,7.607392,-0.1328572,0.03364402,-12.1422,-15.09652,-0.01488203,-5.394925,-6.556034,0.3155305
7705,2023-01-20 10:50:13.339559,133367649,3.399913,-2.034288,0.0269848,8.362688,0.04447288,0.03492464,3.33834,-17.20911,0.0114789,-7.434625,-26.55916,0.31605
7738,2023-01-20 10:50:13.439546,133467638,4.450068,7.751816,-0.004766695,8.145118,2.667817,0.04121907,11.47312,-15.82407,0.05058656,-14.79834,-14.36825,0.31061
7770,2023-01-20 10:50:13.539568,133567659,2.418757,10.02119,0.01343034,8.343861,4.768488,0.03084864,17.7407,-12.4884,0.07174428,-17.45599,-25.11206,0.3136108
7804,2023-01-20 10:50:13.639564,133667656,-2.956943,11.5478,-0.0278009,6.214651,3.577457,0.007649353,22.13307,-7.571769,0.08045748,-14.60154,-16.72516,0.3166462
7836,2023-01-20 10:50:13.739555,133767648,-5.094795,-4.506672,0.02841983,6.865447,-0.1968037,0.009422079,23.90624,-1.313421,0.07655443,-20.6678,-18.84794,0.3066927
7870,2023-01-20 10:50:13.839546,133867673,2.39527,0.358664,0.01957455,5.99541,3.442623,0.001708034,22.11187,5.350133,0.05936468,-15.98079,-25.48342,0.3102994
7902,2023-01-20 10:50:13.939444,133967654,4.353865,15.03539,-0.02029255,12.6938,-6.195084,0.06526011,19.46082,4.446895,0.049124,-10.34982,-21.27552,0.3127492
7935,2023-01-20 10:50:14.039438,134067669,-1.419381,4.665167,0.0134297,13.55221,2.532657,0.06104338,17.12595,6.210336,0.04059943,-15.04661,17.21964,0.300494
7965,2023-01-20 10:50:14.139532,134167689,-1.548914,-3.502709,0.0807382,13.14435,6.313726,0.0798963,14.12332,5.246443,0.02933946,-8.415103,-31.11486,0.3081943
8000,2023-01-20 10:50:14.239513,134267623,-4.399042,-1.488757,0.03844248,12.8673,4.164438,0.04150293,11.25167,5.483481,0.01833014,22.53728,-33.19263,0.3332647
8030,2023-01-20 10:50:14.339559,134367661,-5.476225,-6.575736,0.02543971,10.44629,10.60358,0.01033224,9.495553,3.47695,0.01339817,45.43106,-9.328938,0.3440186
8063,2023-01-20 10:50:14.439543,134467641,-3.524795,3.397117,-0.0189713,8.167031,0.2237034,0.07101616,8.282921,3.207476,0.01251141,58.12346,0.06074905,0.3511574
8096,2023-01-20 10:50:14.539559,134567657,-1.1517,2.919037,-0.002216255,8.418521,7.727508,0.0028597,6.630258,2.204395,0.00874467,54.75877,13.1156,0.3488919
8130,2023-01-20 10:50:14.639556,134667654,2.236532,6.375355,-0.01573114,8.368493,2.337502,0.04257504,4.244694,4.73561,0.001099007,50.62704,-14.14289,0.3507606
8162,2023-01-20 10:50:14.739545,134767643,3.86156,6.218941,0.02039205,11.34737,8.081854,0.01585365,1.249433,3.790092,-0.008100562,45.93432,12.23965,0.3556265
8196,2023-01-20 10:50:14.839533,134867664,2.970528,-0.544669,0.04052126,7.723268,7.582222,0.02616311,-0.4180166,0.2938188,-0.01186873,31.72825,36.41691,0.3500667
8226,2023-01-20 10:50:14.939446,134967661,0.1052005,3.809992,-0.01057484,5.347342,0.5849741,0.07995825,0.1349269,-1.17239,-0.005162632,13.59556,1.756859,0.3422097
8259,2023-01-20 10:50:15.039393,135067633,0.1584524,1.677338,0.0240054,6.790762,1.097296,0.03947768,1.520772,-5.511955,0.003523543,5.797252,26.4595,0.3445182
8289,2023-01-20 10:50:15.139510,135167685,-1.888263,10.14964,-0.03175211,5.190431,2.200754,0.04922651,3.70643,-4.866751,0.0150125,-12.61466,3.092289,0.3338344
8324,2023-01-20 10:50:15.239509,135267637,-0.6385639,-5.227639,0.07039967,2.302689,6.708984,0.03029398,4.812315,-2.93591,0.01652865,-21.27495,-18.40372,0.3338643
8354,2023-01-20 10:50:15.339552,135367660,-1.428599,-5.575202,0.07432593,3.853577,-3.777053,0.07995347,5.108912,-0.6898867,0.01520969,-19.07228,-15.25002,0.340341
8387,2023-01-20 10:50:15.439601,135467698,-0.7952857,-4.902251,0.06130857,4.147007,-7.049202,0.1201465,5.327946,0.513514,0.01391686,-27.53823,-16.03708,0.3317616
8419,2023-01-20 10:50:15.539568,135567668,-1.227655,-5.179183,0.07382005,6.48146,-5.191618,0.1095594,-4.416194,-1.706365,0.003413271,-31.62295,-20.81375,0.3315197
8453,2023-01-20 10:50:15.639539,135667640,-4.629224,2.172569,-0.006520053,6.824596,-1.522229,0.08023448,-11.58869,-4.349738,-0.01662696,-36.83143,13.12294,0.324697
8485,2023-01-20 10:50:15.739540,135767639,-0.02455997,-9.655193,0.093829,7.308397,-0.1810088,0.09630965,-19.98792,-5.487476,-0.03110927,-48.19709,-8.258629,0.3150171
8519,2023-01-20 10:50:15.839558,135867667,3.189058,6.003291,-0.006497635,5.87612,0.105417,0.07265112,-33.99911,-11.15531,-0.05622,-43.66474,-50.30146,0.320463
8549,2023-01-20 10:50:15.939529,135967669,3.065194,2.088711,0.04915682,6.319554,0.2974263,0.0697341,-45.41862,-21.28615,-0.07511059,-37.34986,-19.4253,0.3225328
8582,2023-01-20 10:50:16.039512,136067659,4.288181,0.9526644,0.06074876,7.047013,4.968399,0.04583635,-53.84283,-31.55236,-0.07554974,-35.70933,-20.30163,0.3206752
8612,2023-01-20 10:50:16.139527,136167643,2.081107,7.846626,0.01381503,6.704355,6.414389,0.05399117,-53.92435,-38.88712,-0.06692562,-30.06796,-45.76769,0.3211713
8647,2023-01-20 10:50:16.239523,136267642,-3.172404,4.947914,0.01664006,7.748771,-1.929164,0.1040385,-51.40574,-41.54749,-0.0509575,-21.74366,-25.89636,0.3243289
8677,2023-01-20 10:50:16.339449,136367622,-5.948966,2.676498,0.03198484,8.814276,3.816116,0.07400745,-45.73625,-41.88239,-0.03598411,-12.45692,-24.6315,0.3276832
8710,2023-01-20 10:50:16.439444,136467627,-9.750936,-1.234424,0.00354798,4.593802,-1.711865,0.1038101,-42.3041,-37.25583,-0.02538208,0.9032249,-19.24572,0.3343302
8742,2023-01-20 10:50:16.539577,136567702,-11.81287,-0.6920732,0.001172764,1.68284,2.786867,0.04620163,-40.35796,-35.87113,-0.02325082,9.859209,12.69665,0.3360089
8776,2023-01-20 10:50:16.639548,136667639,-13.35905,-2.41982,-0.003343297,0.5479701,-3.354027,0.09254095,-39.0388,-32.13539,-0.02658801,14.18914,0.2239227,0.3366509
8808,2023-01-20 10:50:16.739568,136767662,-14.07766,-5.286367,0.009422319,0.1210764,-0.08244394,0.06131482,-39.36094,-30.12523,-0.03234202,16.31391,10.62803,0.3387409
8842,2023-01-20 10:50:16.839540,136867644,-14.38702,1.958674,-0.04592343,-0.3173276,-0.8258336,0.07073017,-41.52311,-26.71458,-0.04328553,12.24258,6.555462,0.3360308
8872,2023-01-20 10:50:16.939525,136967653,-13.00187,-1.892259,-0.014497,0.7002628,0.5796795,0.06231072,-44.08182,-27.63621,-0.05427682,8.924639,-3.040028,0.3358749
8905,2023-01-20 10:50:17.039534,137067665,-17.26785,6.070407,-0.06304449,-1.216529,-10.68406,0.1227851,-45.37678,-28.54147,-0.05831482,6.037678,-4.963112,0.3364738
8935,2023-01-20 10:50:17.139561,137167663,-17.72021,-6.578384,-0.01275486,-1.613449,1.783049,0.06311761,-47.85185,-25.25483,-0.06763291,-8.925589,26.31779,0.3248874
8970,2023-01-20 10:50:17.239611,137267699,-14.65237,-6.003747,-0.01603599,-3.212485,-2.833303,0.0926559,-51.52606,-22.3427,-0.08667642,-9.455114,-21.83104,0.3314111
9000,2023-01-20 10:50:17.339585,137367682,-12.81479,-5.67162,0.02176619,-2.818441,2.025794,0.0513157,-54.08765,-26.71029,-0.09668481,-3.556805,2.533817,0.3414257
9033,2023-01-20 10:50:17.439528,137467626,-10.15631,-0.5968584,-0.02784252,-1.486654,-1.626133,0.06372921,-55.09659,-30.90761,-0.09497128,-9.045614,-7.938385,0.334346
9065,2023-01-20 10:50:17.539550,137567637,-11.34867,7.051737,-0.06451967,-6.467831,0.6415153,0.05984123,-55.37538,-32.22197,-0.08982737,-17.58383,-16.60042,0.3297491
9099,2023-01-20 10:50:17.639627,137667707,-11.17725,-2.16953,-0.0145999,-5.708993,2.530583,0.01330907,-54.11985,-37.11018,-0.08121436,-19.76363,-14.99701,0.3308449
9131,2023-01-20 10:50:17.739578,137767660,-12.84278,8.876858,-0.08742759,-6.939274,-6.806494,0.09888074,-52.20638,-36.16169,-0.07077873,-23.7208,-18.96553,0.3275192
9165,2023-01-20 10:50:17.836073,137867682,-13.61053,-0.1311801,-0.04326882,-7.628236,2.081023,0.01961482,-49.55478,-36.38783,-0.06393687,-26.85152,-1.623249,0.3247698
9195,2023-01-20 10:50:17.927132,137967646,-15.25019,0.119365,-0.04331637,-3.598782,3.150504,0.02723508,-47.35222,-35.73022,-0.05775608,-29.72826,-9.84211,0.3209726
9228,2023-01-20 10:50:18.022187,138067664,-16.90428,3.785695,-0.06025597,-5.483552,2.984855,0.04888534,-46.10951,-35.58573,-0.05429152,-24.70942,-41.39738,0.3235672
9259,2023-01-20 10:50:18.132961,138167641,-11.30275,0.04864156,-0.04759635,-7.290752,-0.1927489,0.02994155,-44.56706,-35.4958,-0.05223057,-23.0954,8.968258,0.3233654
9294,2023-01-20 10:50:18.239523,138267653,-10.42009,4.30767,-0.0748808,-9.452005,1.464794,0.0349432,-41.96627,-35.29637,-0.04389271,-25.29555,-1.852894,0.3169786
9324,2023-01-20 10:50:18.339635,138367724,-10.63672,5.866436,-0.09711921,-9.540348,-2.563164,0.06901143,-24.91708,-32.81785,-0.03086925,-21.38047,-49.52793,0.3242825
9357,2023-01-20 10:50:18.436069,138467656,-11.22435,-0.6771492,-0.05163557,-12.85109,6.931701,0.002435293,3.492885,-29.62403,0.02357965,-11.33241,-25.3952,0.3343746
9389,2023-01-20 10:50:18.527178,138567663,-9.391369,3.334497,-0.07270646,-15.53269,10.31081,-0.04371667,13.9651,-16.51203,0.06489194,-9.473537,-14.91051,0.3358749
9423,2023-01-20 10:50:18.620026,138667630,-10.6313,0.2168452,-0.06273875,-21.11198,3.936978,-0.04619134,19.38531,-7.682422,0.07023597,-12.2258,-2.640343,0.3319844
9455,2023-01-20 10:50:18.720017,138767655,-6.616372,0.08928944,-0.06051852,-19.58589,2.836299,-0.04930981,21.29764,-0.7961629,0.06270005,-21.60279,-19.31,0.3262392
9489,2023-01-20 10:50:18.819970,138867642,-4.326298,0.887906,-0.05865136,-20.02804,1.422742,-0.04236828,2.120403,4.032161,0.03584465,-21.74419,-18.41984,0.3276623
9521,2023-01-20 10:50:18.919905,138967613,-0.9827403,5.981687,-0.08337791,-15.95402,3.684077,-0.05862219,-33.07981,0.07693558,-0.04583105,-23.48828,-17.82618,0.3269054
9554,2023-01-20 10:50:19.019980,139067710,-1.225551,3.873183,-0.0374864,-9.849351,-1.651135,-0.03173895,-33.49566,-11.55888,-0.08993848,-25.19503,-12.5411,0.322796
9584,2023-01-20 10:50:19.119956,139167650,-0.9113333,-2.834326,-0.02572711,-6.11915,-0.2179631,0.009082302,-6.662275,-15.77808,-0.04864188,-27.3827,-11.64932,0.319353
9619,2023-01-20 10:50:19.219964,139267635,-1.994872,-1.460084,-0.03543733,-5.015792,6.364502,-0.02709385,-0.9259275,-9.037487,-0.007268064,-19.46793,-20.51907,0.3252652
9649,2023-01-20 10:50:19.319954,139367651,-0.1856309,2.013161,-0.03075513,-5.078564,-3.8353,0.06270293,2.306217,-3.371107,0.002377952,-10.28578,-17.83457,0.3323504
9682,2023-01-20 10:50:19.419939,139467666,-2.675577,7.440898,-0.09960917,-6.49618,-2.573703,0.03602153,3.666631,-2.108117,0.002125761,-6.739065,-16.3393,0.3304974
9714,2023-01-20 10:50:19.519870,139567650,-3.627495,-4.657689,-0.01601806,-6.831528,3.522799,-0.01784221,4.111844,0.5261542,-0.0001021922,-7.980483,9.628963,0.3288995
9748,2023-01-20 10:50:19.619797,139667620,-3.107747,2.198923,-0.08862379,-3.537871,1.169097,0.004427833,3.801916,2.149876,-0.003411357,-5.956337,-17.18025,0.3291857
9780,2023-01-20 10:50:19.719821,139767647,0.8015965,-1.683787,-0.03242652,-1.850299,9.265431,-0.03580716,2.450987,3.697519,-0.01207957,1.365863,-19.25373,0.3347208
9814,2023-01-20 10:50:19.819792,139867623,1.828046,3.121305,-0.05420122,-2.958356,-1.474449,0.037361,0.4423829,4.214386,-0.02050264,12.59147,-15.16161,0.3438921
9844,2023-01-20 10:50:19.919794,139967642,-0.8930812,4.982794,-0.06383765,-3.67247,5.305446,-0.0217422,-0.646551,1.836134,-0.02106063,15.55959,10.41698,0.3444494
9877,2023-01-20 10:50:20.019857,140067717,1.216042,-0.1919177,-0.06715058,-2.151911,-5.492636,0.06318502,-1.414834,1.985485,-0.02173509,11.86796,0.82798,0.3382946
9907,2023-01-20 10:50:20.119809,140167659,1.837298,-3.895778,-0.01622191,-4.909108,2.977096,-0.002379727,-2.672098,3.477584,-0.02746615,6.389068,26.99871,0.3354757
9942,2023-01-20 10:50:20.219831,140267660,6.63237,-6.344178,-0.001481617,-2.402809,-2.199207,0.03019043,-3.695252,0.6263621,-0.03041336,7.052014,3.774452,0.337146
9975,2023-01-20 10:50:20.319885,140367650,2.90657,11.95395,-0.07672833,-9.239058,5.899265,-0.03729648,-3.476957,-3.166502,-0.02497804,11.15996,10.35089,0.338946
10008,2023-01-20 10:50:20.419906,140467621,-0.9588247,-3.283555,-0.01011156,-10.72445,1.852768,-0.02465418,-2.710534,-0.7010309,-0.02182066,12.67792,-0.01955032,0.3410779
10040,2023-01-20 10:50:20.519912,140567632,-5.637295,6.553029,-0.124906,-13.51815,-5.142848,-0.006499415,-1.948174,-2.131,-0.01830178,14.56473,1.332855,0.3420342
10074,2023-01-20 10:50:20.619962,140667677,-8.724358,-9.791785,-0.01288854,-12.2761,-8.547594,-0.009599986,-0.9777172,-1.357771,-0.01487318,15.64235,25.67368,0.342676
10106,2023-01-20 10:50:20.719958,140767635,-6.323997,-8.187255,-0.03242834,-10.6527,-11.29222,0.02280941,-0.9057748,2.2132,-0.01750429,12.00871,13.54418,0.3412341
10140,2023-01-20 10:50:20.819981,140867652,-8.634625,-3.653229,-0.09593369,-6.911336,-7.247386,0.001518051,-2.455425,4.510013,-0.02784131,12.02122,5.667686,0.3424064
10170,2023-01-20 10:50:20.919822,140967612,-7.087408,-6.284137,-0.06233197,-4.110241,-11.07409,0.08175319,-4.514444,5.105806,-0.03733513,4.735008,7.803249,0.3399644
10203,2023-01-20 10:50:21.019736,141067610,-5.689538,-6.064675,-0.0607458,-3.777529,-3.448921,-0.003891471,-6.395353,3.8645,-0.04293744,-1.627702,20.02001,0.3354096
10233,2023-01-20 10:50:21.119781,141167599,-0.8139762,-3.712363,-0.02715497,-2.528751,-10.04134,0.05578032,-7.339192,1.59989,-0.04363525,-8.398751,-2.050304,0.3339876
10268,2023-01-20 10:50:21.219888,141267667,0.4640914,-10.62663,0.01796974,-1.328609,-0.5234674,-0.02108672,-7.887244,1.023582,-0.04415441,-9.373227,5.399513,0.334071
10298,2023-01-20 10:50:21.319876,141367679,2.804301,2.45864,-0.0596768,-2.367658,3.853692,-0.01582441,-9.081876,2.03372,-0.049521,-8.474137,3.32222,0.3357188
10331,2023-01-20 10:50:21.419796,141467612,2.251077,-1.957574,-0.01902864,-5.265441,9.853004,-0.0865411,-20.24968,2.242758,-0.05958167,-8.893086,12.01153,0.3321512
10363,2023-01-20 10:50:21.519839,141567619,3.201148,-1.822452,-0.01087513,-6.267825,-9.604699,0.04986871,-57.18601,-3.799747,-0.1143533,-15.21422,6.064129,0.3272653
10397,2023-01-20 10:50:21.619828,141667591,0.3934925,3.163671,-0.06111244,-5.392777,-7.567739,0.03455637,-95.98103,-22.49022,-0.1921863,-11.98159,-21.99907,0.3290328
10429,2023-01-20 10:50:21.719818,141767643,-1.129457,3.075839,-0.08071584,-5.469298,-6.334348,0.04058538,-103.9904,-42.77262,-0.2185299,-6.814826,-10.51092,0.3332612
10463,2023-01-20 10:50:21.819751,141867628,-2.231799,-4.493632,-0.02563892,-9.703148,8.997846,-0.0837616,-106.4404,-55.59368,-0.1990259,1.133759,0.7635117,0.3366512
10493,2023-01-20 10:50:21.919796,141967686,-0.6704148,2.487891,-0.07494372,-16.14298,-6.516449,-0.004008375,-105.8648,-65.93103,-0.1754007,7.042313,-5.892181,0.3396597
10526,2023-01-20 10:50:22.019768,142067659,-0.06093201,-0.8659719,-0.04654536,-19.96004,-1.061441,-0.07933337,-103.424,-71.52695,-0.1486066,12.07812,7.365894,0.3396915
10556,2023-01-20 10:50:22.119801,142167641,5.102615,10.17609,-0.1080344,-20.33601,-8.710127,-0.01532234,-68.62368,-79.41801,-0.08287066,14.44907,2.283669,0.3420744
10591,2023-01-20 10:50:22.219809,142267616,5.693862,12.23851,-0.1102471,-25.30839,-7.754,-0.03938268,-30.49827,-71.62851,0.01521388,21.24685,-24.60327,0.3457856
10621,2023-01-20 10:50:22.319817,142367659,8.159631,0.5852568,-0.008394603,-33.32853,-2.183151,-0.1180546,0.8053313,-56.05255,0.09535493,28.74926,22.10455,0.3565773
10654,2023-01-20 10:50:22.419749,142467610,7.947306,4.347124,-0.06282592,-35.76436,-11.62477,-0.07612855,23.02895,-37.72746,0.1401612,23.49539,11.65562,0.3466842
10686,2023-01-20 10:50:22.519797,142567611,8.970417,2.799104,-0.03237827,-36.04708,-18.86322,-0.0313587,34.21398,-18.5777,0.1505346,15.94957,12.04853,0.3436597
10720,2023-01-20 10:50:22.619901,142667682,8.237934,-2.618987,-0.001016377,-33.61052,-15.25865,-0.09633752,38.79799,-7.960833,0.1380041,16.73177,10.27117,0.3480965
10752,2023-01-20 10:50:22.719851,142767649,5.417439,-8.890206,0.01961366,-28.60013,-17.01276,-0.05049849,39.78022,2.248739,0.1171779,16.12569,14.71415,0.3540747
10786,2023-01-20 10:50:22.819824,142867641,7.660778,-5.809802,0.008158418,-29.35494,-7.071506,-0.1067455,37.65602,8.711704,0.09246881,23.29374,6.430721,0.3614285
10816,2023-01-20 10:50:22.919790,142967639,8.645472,2.929998,-0.03875722,-24.92081,-1.51909,-0.1367599,33.82334,13.60123,0.06916381,34.05319,-5.351543,0.3719882
10849,2023-01-20 10:50:23.019780,143067644,7.216515,11.24532,-0.07786345,-25.57504,-7.006165,-0.09156834,28.11113,14.14801,0.04503837,43.47631,15.77845,0.3786824
10879,2023-01-20 10:50:23.119804,143167617,6.879412,0.5620329,-0.03890057,-27.41623,-3.486046,-0.09030855,22.7946,10.19168,0.03259511,48.55137,23.51856,0.3785629
10915,2023-01-20 10:50:23.219891,143267669,8.627691,0.6562704,-0.02947461,-29.08509,-4.937153,-0.1403451,18.76505,6.511361,0.02641682,49.53692,20.22285,0.377975
10945,2023-01-20 10:50:23.319843,143367650,11.01671,3.896655,-0.03653786,-30.09415,-8.055296,-0.1133275,15.55322,4.501818,0.02146333,53.34532,-2.85902,0.3832151
10978,2023-01-20 10:50:23.419792,143467619,11.74573,8.686843,-0.05339457,-28.07332,-10.86785,-0.09855855,12.72796,6.631245,0.01366794,55.80539,10.58092,0.3882489
11010,2023-01-20 10:50:23.519828,143567641,13.38518,8.584728,-0.01897417,-21.42089,-11.72655,-0.05054466,10.14522,3.869681,0.006994315,52.51204,41.18967,0.3894596
11044,2023-01-20 10:50:23.619849,143667653,7.440734,8.439073,-0.02277752,-20.4707,-8.749317,-0.06614369,8.533031,4.701938,0.003252025,42.29831,54.59614,0.3850749
11076,2023-01-20 10:50:23.719797,143767615,-1.520646,-2.018344,0.01373629,-14.99386,-2.983423,-0.1360574,7.475734,5.411681,-0.001077831,34.85861,39.11963,0.3846155
11110,2023-01-20 10:50:23.819803,143867635,-11.2711,1.650627,-0.07754984,-10.57933,1.82873,-0.1283327,6.865979,3.881625,-0.002667007,30.95561,23.04163,0.387998
11143,2023-01-20 10:50:23.919828,143967677,-15.77568,-7.842834,-0.05821146,-13.2147,9.305377,-0.1702663,6.516606,0.8826474,-0.0004678294,13.9337,34.02109,0.3798264
11176,2023-01-20 10:50:24.019780,144067630,-10.43817,-19.78419,0.02454372,-14.54649,14.88097,-0.2367814,6.05201,1.13371,0.002440569,0.8472843,33.90865,0.3728437
11206,2023-01-20 10:50:24.119838,144167626,-4.883071,-2.708122,-0.03766644,-9.503017,2.755032,-0.1298215,5.774239,0.502508,0.002166674,-9.551163,10.21252,0.3690076
11241,2023-01-20 10:50:24.219855,144267606,-4.081203,2.775372,-0.07463041,-10.83182,-6.216767,-0.07462943,5.405887,-0.3244107,0.002185584,-17.57033,6.553555,0.3658671
11271,2023-01-20 10:50:24.319794,144367608,-4.616976,-11.49493,0.004469672,-15.53859,-13.4181,-0.06695373,5.171034,0.3027814,0.002663853,-23.57018,-24.88956,0.3647566
11304,2023-01-20 10:50:24.419759,144467610,-4.17465,-1.921643,-0.01353878,-11.19523,5.845542,-0.1596338,5.163176,0.8937961,0.002413473,-18.49603,26.69449,0.3738187
11337,2023-01-20 10:50:24.519893,144567678,2.573917,-1.521741,-0.04478256,-8.646726,2.983525,-0.1305622,6.957251,-6.607883,0.01487981,-39.76587,9.333992,0.345315
11372,2023-01-20 10:50:24.619884,144667632,-1.591879,18.01771,-0.1241381,-15.73103,2.512744,-0.1466213,10.16711,-4.770172,0.02918099,-45.29482,-24.2569,0.3440585
11404,2023-01-20 10:50:24.719812,144767642,9.482593,-1.804858,-0.02334841,-15.93368,-2.767785,-0.1286933,11.05014,-5.410905,0.03179318,-48.01239,-29.61893,0.3409734
11438,2023-01-20 10:50:24.819755,144867650,4.442488,-5.886349,-0.01080331,-2.786184,-1.777387,-0.125141,16.82769,-12.4024,0.05598827,-95.95959,-8.555794,0.3261161
11469,2023-01-20 10:50:24.919758,144967652,2.875105,2.978804,-0.04572726,28.07753,24.68111,-0.1662486,21.50938,-5.859267,0.07066236,-166.6029,-76.03998,0.3014825
11502,2023-01-20 10:50:25.019752,145067640,2.799307,-4.461687,0.02451683,60.08826,45.79119,-0.06670461,22.41815,2.644803,0.06476501,-225.9547,-64.92682,0.2788466
11532,2023-01-20 10:50:25.119780,145167639,6.622501,4.979394,-0.04211931,73.08569,65.9783,-0.09651612,21.06691,5.03908,0.05098194,-229.2449,-114.5996,0.2498291
11568,2023-01-20 10:50:25.219833,145267670,0.9346302,5.029835,-0.04308097,71.35696,76.51233,-0.1741151,18.09533,7.634383,0.03874112,-211.9114,-108.4787,0.2482278
11598,2023-01-20 10:50:25.319830,145367673,6.44569,-8.621449,0.0162073,39.75796,78.39175,-0.2280461,14.99049,4.054372,0.02724856,-193.3743,-63.51337,0.2443332
11631,2023-01-20 10:50:25.419817,145467662,0.7620918,16.49795,-0.08023756,11.55885,53.09512,-0.2486531,12.99628,3.947863,0.02745441,-184.4219,-84.79529,0.2295003
11663,2023-01-20 10:50:25.519879,145567711,-17.23694,0.7115158,-0.07119802,0.7313058,-7.105095,-0.1147997,7.75464,11.05342,0.006741487,-173.0224,-51.12734,0.2238012
11697,2023-01-20 10:50:25.619829,145667653,-10.64991,-28.89067,0.07079318,10.38461,-8.113795,-0.09633955,3.87674,8.459288,-0.01208178,-148.3653,-98.13089,0.2190134
11729,2023-01-20 10:50:25.719803,145767639,-0.4745481,-19.15064,0.03707803,17.1567,1.736884,-0.05088966,1.895186,1.921591,-0.01487693,-80.13225,-164.0072,0.2528982
11762,2023-01-20 10:50:25.819840,145867691,3.974535,5.272465,-0.01910624,16.60468,16.54294,-0.1369138,1.099456,2.869956,-0.01100695,2.309069,-97.5668,0.3016711
11794,2023-01-20 10:50:25.919794,145967669,1.64468,13.10046,-0.05370154,-4.802332,5.364991,-0.09699964,-0.5775371,3.542546,-0.01612416,59.21368,-24.68538,0.3273908
11827,2023-01-20 10:50:26.019749,146067636,-11.40552,22.1111,-0.1215651,-21.64586,-6.110977,-0.1788915,-3.2741,9.103011,-0.0324336,71.32997,24.22419,0.3143787
11857,2023-01-20 10:50:26.119790,146167639,-19.38623,-11.36663,-0.001843248,-25.29433,-20.52164,-0.1411274,-6.476539,6.088197,-0.04465961,72.68478,20.40052,0.3103237
11892,2023-01-20 10:50:26.219817,146267643,-16.7949,-15.61923,-0.001721956,-13.45271,-23.01262,-0.1613659,-6.943726,1.42433,-0.03864478,112.974,-76.79549,0.35203
11922,2023-01-20 10:50:26.319775,146367637,-14.50853,-9.791962,-0.02339357,-11.84783,-5.572767,-0.1851982,-6.026241,-4.411589,-0.02925419,148.3756,34.35192,0.3812564
11955,2023-01-20 10:50:26.419752,146467637,-4.788849,-5.608582,-0.04948832,-14.31061,-28.92492,-0.04073629,-1.694764,-11.87078,-0.002195007,161.322,37.31337,0.3813123
11987,2023-01-20 10:50:26.519810,146567665,-2.420668,7.624517,-0.05874521,-7.77913,-19.81219,-0.1040206,2.775552,-8.335561,0.01601407,191.3718,33.13141,0.3964095
12021,2023-01-20 10:50:26.619814,146667646,-6.146439,5.782866,-0.07320718,-2.244991,-5.480825,-0.1817923,5.326939,-2.854828,0.01913597,248.0607,52.31142,0.4211066
12053,2023-01-20 10:50:26.719797,146767634,-10.17974,3.021592,-0.08092911,-5.478798,-13.45009,-0.101898,7.569215,-5.580366,0.02223261,308.9047,144.3211,0.4460641
12086,2023-01-20 10:50:26.819884,146867730,-9.117095,-2.164052,-0.06129735,2.995698,-23.28302,-0.01703101,10.72341,-6.365861,0.03543494,311.2629,197.8276,0.4463534
12117,2023-01-20 10:50:26.919771,146967641,-2.966443,-7.275248,-0.04333853,7.401384,-24.46339,0.03041606,14.28747,-7.154468,0.05045496,284.4731,187.7722,0.4409071
12150,2023-01-20 10:50:27.019940,147067828,-1.009939,6.454294,-0.05563068,16.81902,-8.450976,-0.05503689,17.10801,-6.016283,0.06025613,264.8522,204.2611,0.4407215
12180,2023-01-20 10:50:27.119785,147167664,-0.260897,0.9361282,-0.03104317,21.47103,3.95603,-0.07500138,18.59562,-1.63083,0.06301641,220.5105,184.9749,0.430135
12215,2023-01-20 10:50:27.219762,147267630,2.273194,-6.862572,0.003729772,21.20193,3.008238,-0.0476205,18.81457,0.6737279,0.05804983,191.5856,142.4021,0.4233738
12245,2023-01-20 10:50:27.319831,147367685,8.161942,-2.903134,0.02148896,19.05548,3.05545,-0.04629394,17.55216,2.986084,0.04954397,189.346,149.5131,0.4308863
12278,2023-01-20 10:50:27.418040,147467660,7.590513,6.805733,-0.03203755,14.9905,-0.4736153,-0.05198086,15.82643,2.805191,0.04097925,167.3067,147.8659,0.4355211
12310,2023-01-20 10:50:27.509091,147567683,2.917686,15.31531,-0.1082169,11.72815,-2.965045,-0.05236798,13.07579,6.412065,0.0278233,152.7258,152.5818,0.4273869
12344,2023-01-20 10:50:27.600272,147667823,-1.879378,6.596031,-0.07359961,12.40244,-3.174688,-0.06979587,9.488739,7.850811,0.01294353,118.7652,148.2773,0.4168577
12376,2023-01-20 10:50:27.700087,147767646,-3.706736,-4.505678,-0.03064972,15.81799,2.969501,-0.09254415,6.480599,5.753328,0.004245639,107.0869,102.968,0.4116994
12409,2023-01-20 10:50:27.800270,147867836,-1.503843,-5.630078,-0.03108905,17.60988,6.896533,-0.09755151,5.562304,0.9392406,0.007511724,79.49043,96.24185,0.4138483
12441,2023-01-20 10:50:27.900030,147967660,7.400744,-8.758133,0.01867013,17.32327,17.6231,-0.1501499,5.962622,-2.174176,0.01648315,58.92066,77.72226,0.4097412
12474,2023-01-20 10:50:28.000238,148067932,7.911498,0.3740559,0.005160851,12.19962,9.704886,-0.08445033,6.977983,-0.6839896,0.02221322,43.32321,72.80074,0.4086422
12504,2023-01-20 10:50:28.099972,148167641,12.61909,12.58703,-0.05375784,7.01126,10.59135,-0.1435854,6.906092,-0.5409521,0.02285141,21.8081,60.19125,0.3995838
12539,2023-01-20 10:50:28.200254,148267898,0.6872213,8.535872,-0.0597432,4.455745,-1.400079,-0.07906993,7.386723,-1.016514,0.02312511,11.21918,53.46642,0.3887768
12570,2023-01-20 10:50:28.300051,148367670,0.6341523,-9.772075,0.04001552,2.812096,2.201307,-0.1026288,6.647927,2.608762,0.01756652,9.210724,42.4674,0.389645
12603,2023-01-20 10:50:28.400286,148467852,-0.6121027,1.850397,-0.08877572,0.4085618,-3.428832,-0.04652094,5.3011,3.903363,0.01003456,10.38707,19.81249,0.3928984
12635,2023-01-20 10:50:28.511002,148567629,6.396414,1.775843,-0.04647501,4.577919,-12.94781,0.03482743,3.561356,2.15133,0.004095834,4.714306,30.2886,0.3915384
12669,2023-01-20 10:50:28.618012,148667628,4.754889,7.054521,-0.07354253,6.556944,-8.349542,0.01215654,2.918502,-0.6312496,0.004381055,-5.407953,14.86597,0.3853216
12701,2023-01-20 10:50:28.709069,148767690,4.827467,-4.334745,0.02094074,7.385036,-5.933185,0.008420404,3.702845,-3.355841,0.01157747,-12.73978,20.48197,0.3789101
12734,2023-01-20 10:50:28.800261,148867875,2.043343,2.217786,-0.05553678,3.805508,6.077742,-0.1184786,5.433613,-4.356193,0.0208056,-4.943947,-56.32114,0.385625
12767,2023-01-20 10:50:28.899920,148967648,3.43386,-6.337934,-0.001489963,1.559161,-5.053234,-0.03214705,7.692046,-4.265255,0.03154415,3.476534,20.467,0.3932265
12800,2023-01-20 10:50:29.000180,149068022,0.5745263,2.702828,-0.06139787,3.071117,-7.796493,-0.0003544688,10.02864,-5.353101,0.03891405,-0.5352917,13.9884,0.3874813
12830,2023-01-20 10:50:29.099872,149167660,3.121466,5.720944,-0.05792037,6.608395,5.617837,-0.1151936,11.79032,-3.226995,0.04429254,-12.6551,8.677578,0.3825734
12866,2023-01-20 10:50:29.200247,149267981,4.805254,-4.987874,-0.01153846,8.03275,-10.9305,0.05825087,12.77067,-0.4903029,0.04552604,-10.90522,-5.722332,0.3808345
12896,2023-01-20 10:50:29.299844,149367643,-0.3212159,5.823824,-0.06126942,6.88574,11.50649,-0.1353934,12.7714,1.548813,0.04092075,7.159466,8.292866,0.390982
12929,2023-01-20 10:50:29.400188,149468052,-1.995508,-6.887671,-0.007920647,6.607557,-15.55153,0.07744954,10.61561,7.097497,0.02699693,9.136804,18.42251,0.3932305
12961,2023-01-20 10:50:29.499789,149567633,2.011514,0.6921527,-0.08543904,9.442817,2.445497,-0.0763135,8.010933,6.545403,0.01589765,-7.270845,4.354095,0.3847531
12995,2023-01-20 10:50:29.600191,149668016,5.39391,-6.824257,0.01079503,9.340196,-11.97329,0.07939793,6.3474,1.439347,0.01387994,-16.12762,7.372379,0.3762834
13027,2023-01-20 10:50:29.699803,149767637,15.02313,-8.232869,0.01783903,9.330552,8.15481,-0.07004065,7.285061,-5.24796,0.0256015,-22.34211,-19.03734,0.3728628
13060,2023-01-20 10:50:29.800180,149868023,19.22054,0.3844653,0.02535625,6.832625,0.5661608,0.001016507,9.661489,-4.972243,0.0392959,-17.13759,-24.54243,0.3835333
13091,2023-01-20 10:50:29.899842,149967707,26.99362,3.246533,0.04140407,7.299677,-0.2595179,-0.008665252,11.66263,-4.767628,0.04768882,-13.32303,-14.61058,0.3839701
13124,2023-01-20 10:50:30.000180,150068068,25.36758,8.067253,0.02235964,3.91349,0.8923475,-0.02343296,12.94648,-1.32382,0.04940134,-38.32216,-7.28817,0.3748627
13154,2023-01-20 10:50:30.099795,150167649,18.8962,9.712575,0.008054669,2.969154,-0.1396696,-0.04075198,11.56777,5.738482,0.03646471,-44.62286,-16.21981,0.3673931
13189,2023-01-20 10:50:30.200179,150267999,9.00469,7.99381,-0.008420584,1.568965,-1.682485,-0.04347602,7.873591,9.59782,0.01541547,-52.1947,-17.74502,0.3662504
13219,2023-01-20 10:50:30.299846,150367665,2.52384,1.550169,-0.03681906,3.352832,4.745419,-0.06413832,3.911089,9.07759,-0.0008838286,-53.61126,-19.21968,0.359583
13252,2023-01-20 10:50:30.400193,150468011,3.387217,-7.145572,0.02007043,3.171228,-5.495199,0.02658299,0.6240115,7.417531,-0.009698898,-44.23782,-44.77682,0.3616318
13284,2023-01-20 10:50:30.499798,150567621,10.56256,-0.7145863,-0.0007698722,-2.111131,0.2129066,-0.04111817,-1.62951,3.906394,-0.01258191,-49.28204,-19.72265,0.3615472
13318,2023-01-20 10:50:30.600180,150668009,10.62869,6.228318,-0.01459091,-3.90454,3.897909,-0.07847861,-3.564502,4.361281,-0.01729318,-55.45802,-13.78489,0.353742
13351,2023-01-20 10:50:30.699825,150767656,17.31586,6.508451,0.02756896,-3.764418,-3.788372,-0.01869377,-5.650352,4.491797,-0.02386416,-55.35139,-50.12064,0.3505384
13384,2023-01-20 10:50:30.800181,150868014,11.92886,3.58539,0.04161913,-4.903962,-8.359476,0.003894843,-6.955343,1.75529,-0.02617139,-46.28248,-27.948,0.3539135
13415,2023-01-20 10:50:30.899800,150967666,7.869351,0.4430381,0.03940238,-5.53385,5.345182,-0.1131443,-6.740073,-3.593527,-0.02055036,-42.96025,-13.47799,0.354735
13448,2023-01-20 10:50:31.000190,151068090,4.409153,0.674736,-0.003575281,-2.528092,-4.534021,-0.03941702,-4.802345,-6.436937,-0.008640183,-37.6957,-28.38707,0.3521671
13478,2023-01-20 10:50:31.099897,151167709,2.93879,-2.818557,0.02424346,-3.599934,-4.891472,-0.03458245,-2.048921,-7.001059,0.004779748,-36.93321,-43.72358,0.3513984
13513,2023-01-20 10:50:31.200229,151267953,-1.442709,-1.370866,0.01035172,-3.10145,-5.705634,-0.01141343,0.6942768,-4.734022,0.01466064,-29.48403,-46.48685,0.3545907
13543,2023-01-20 10:50:31.299893,151367667,-8.126957,-0.2506967,-0.01526798,-2.776863,2.175868,-0.08099727,3.055217,-5.015078,0.02090056,-16.68401,-27.35357,0.3629242
13576,2023-01-20 10:50:31.400179,151468003,-7.713484,-1.99251,-0.03182809,0.3115355,-4.040859,-0.02073321,4.625372,-2.651134,0.02292095,-9.794411,-28.36676,0.360903
13608,2023-01-20 10:50:31.499815,151567659,-14.48316,-5.451532,-0.01593141,-0.9489401,-6.53125,0.02255897,4.750114,1.979167,0.01883885,-5.199957,-17.81845,0.3609481
13641,2023-01-20 10:50:31.600185,151668048,-13.35835,-14.91947,0.02549921,0.03889311,6.980286,-0.09900489,2.924201,5.463935,0.005889188,-56.51693,2.873135,0.3511842
13674,2023-01-20 10:50:31.699796,151767646,-8.352835,3.972134,-0.08374438,3.340539,0.110592,-0.03369628,-0.8676341,9.93529,-0.0138748,-127.7062,-42.02957,0.3281473
13707,2023-01-20 10:50:31.800180,151868017,-6.763982,-9.553478,0.04254353,7.248891,-3.919627,0.01293694,-5.252398,8.84938,-0.03130959,-214.8354,-65.55977,0.2955374
13739,2023-01-20 10:50:31.899841,151967701,-3.847414,3.239981,-0.07521758,6.447723,7.945735,-0.04886736,-7.951847,4.569436,-0.03566405,-303.3121,-135.3578,0.2648075
13772,2023-01-20 10:50:32.000178,152068061,-2.405961,-1.141628,-0.01894484,2.958017,6.577165,-0.04917406,-9.58067,3.117647,-0.03783871,-365.7316,-198.5076,0.241108
13802,2023-01-20 10:50:32.099798,152167654,-1.614043,-3.091969,0.007600692,1.6838,-0.01930892,-0.03406797,-10.54212,0.08760411,-0.03805989,-337.2937,-263.5618,0.2380238
13837,2023-01-20 10:50:32.200186,152268015,2.351366,-0.0829138,-0.01098069,2.71013,-1.13321,-0.02085413,-9.968038,-1.583616,-0.03133152,-286.9095,-253.6959,0.2495676
13867,2023-01-20 10:50:32.299842,152367664,5.325594,3.901034,-0.01365077,1.969791,0.7577865,-0.03327885,-8.537285,-3.275352,-0.0227491,-238.5651,-169.1053,0.2582723
13900,2023-01-20 10:50:32.400191,152468007,1.1218,5.742251,-0.0180589,3.347188,0.5346108,-0.03720444,-6.573804,-4.717718,-0.0147716,-193.1127,-165.685,0.2617423
13932,2023-01-20 10:50:32.499792,152567633,-6.337067,5.810697,-0.03927464,1.373219,1.374753,-0.02493425,-4.870008,-2.675969,-0.00883223,-149.1597,-154.8214,0.2718139
13965,2023-01-20 10:50:32.600181,152668047,-8.535909,-1.400476,-0.02621904,2.889326,1.190037,-0.03596443,-2.846872,-3.819342,-0.001676443,-109.7299,-101.9504,0.2801748
13998,2023-01-20 10:50:32.699790,152767643,-6.655981,-5.285571,-0.01734791,3.025412,3.437431,-0.0366556,-1.263918,-2.553513,0.002634011,-73.86078,-107.0415,0.2906555
14031,2023-01-20 10:50:32.800186,152868025,-6.062294,-5.301342,0.01433561,3.185637,2.435053,-0.03010144,-0.3608674,-1.84556,0.00285171,-38.68962,-91.81786,0.3034181
14062,2023-01-20 10:50:32.899839,152967699,-3.421021,-2.346881,-0.0253734,-0.6239762,5.111859,-0.08005731,0.4078087,-3.072328,0.004613963,-10.12765,-79.00247,0.3162065
