LineNo,UTC_Approx,TimeUS,C1,C2,C3,C4,C5,C6,C7,C8,C9,C10,C11,C12,C13,C14
376,2023-01-20 10:49:56.259262,116248276,1506,1505,1057,1956,1505,1505,1055,1054,0,0,0,0,0,0
966,2023-01-20 10:49:56.350249,116348311,1505,1505,1058,1956,1505,1505,1054,1055,0,0,0,0,0,0
1124,2023-01-20 10:49:56.452198,116454740,1505,1505,1058,1955,1506,1505,1054,1054,0,0,0,0,0,0
1343,2023-01-20 10:49:56.564893,116566426,1506,1505,1056,1956,1505,1505,1054,1055,0,0,0,0,0,0
1563,2023-01-20 10:49:56.665758,116667224,1505,1505,1057,1956,1505,1505,1054,1055,0,0,0,0,0,0
1883,2023-01-20 10:49:56.765305,116767146,1505,1505,1056,1954,1506,1505,1054,1054,0,0,0,0,0,0
1928,2023-01-20 10:49:56.865190,116867161,1506,1505,1056,1953,1505,1505,1055,1054,0,0,0,0,0,0
1976,2023-01-20 10:49:56.965165,116967137,1505,1505,1056,1950,1505,1505,1054,1054,0,0,0,0,0,0
2026,2023-01-20 10:49:57.065190,117067149,1505,1505,1054,1937,1505,1506,1054,1054,0,0,0,0,0,0
2072,2023-01-20 10:49:57.165286,117167224,1505,1506,1054,1956,1505,1505,1055,1054,0,0,0,0,0,0
2122,2023-01-20 10:49:57.272393,117267135,1505,1505,1054,1957,1505,1505,1054,1054,0,0,0,0,0,0
2181,2023-01-20 10:49:57.383504,117367213,1505,1505,1054,1956,1505,1506,1054,1054,0,0,0,0,0,0
2237,2023-01-20 10:49:57.477423,117467232,1505,1506,1054,1956,1505,1505,1055,1054,0,0,0,0,0,0
2296,2023-01-20 10:49:57.568251,117567138,1505,1505,1054,1957,1505,1505,1054,1054,0,0,0,0,0,0
2352,2023-01-20 10:49:57.665146,117667220,1505,1505,1054,1956,1505,1506,1054,1054,0,0,0,0,0,0
2410,2023-01-20 10:49:57.765168,117767264,1505,1506,1054,1956,1505,1505,1055,1055,0,0,0,0,0,0
2453,2023-01-20 10:49:57.865085,117867209,1505,1505,1055,1956,1505,1505,1054,1054,0,0,0,0,0,0
2498,2023-01-20 10:49:57.964981,117967134,1505,1505,1054,1956,1506,1505,1054,1054,0,0,0,0,0,0
2537,2023-01-20 10:49:58.065117,118067227,1506,1505,1054,1956,1505,1505,1054,1055,0,0,0,0,0,0
2579,2023-01-20 10:49:58.165197,118167225,1505,1505,1055,1956,1505,1505,1054,1055,0,0,0,0,0,0
2619,2023-01-20 10:49:58.265123,118267142,1505,1505,1054,1956,1506,1505,1054,1054,0,0,0,0,0,0
2659,2023-01-20 10:49:58.365156,118367205,1506,1505,1054,1956,1505,1506,1054,1054,0,0,0,0,0,0
2698,2023-01-20 10:49:58.465183,118467244,1505,1506,1054,1956,1505,1505,1054,1055,0,0,0,0,0,0
2739,2023-01-20 10:49:58.565078,118567141,1505,1505,1054,1957,1505,1505,1054,1054,0,0,0,0,0,0
2781,2023-01-20 10:49:58.665136,118667217,1505,1505,1054,1956,1505,1506,1054,1054,0,0,0,0,0,0
2820,2023-01-20 10:49:58.765147,118767255,1505,1506,1066,1919,1505,1505,1054,1055,0,0,0,0,0,0
2864,2023-01-20 10:49:58.865096,118867212,1505,1505,1325,1632,1505,1506,1054,1054,0,0,0,0,0,0
2903,2023-01-20 10:49:58.965020,118967135,1505,1505,1505,1506,1505,1505,1054,1054,0,0,0,0,0,0
2942,2023-01-20 10:49:59.065136,119067233,1505,1505,1505,1505,1505,1506,1054,1054,0,0,0,0,0,0
2983,2023-01-20 10:49:59.165152,119167222,1506,1505,1505,1505,1505,1505,1055,1054,0,0,0,0,0,0
3022,2023-01-20 10:49:59.265070,119267132,1505,1505,1506,1505,1505,1505,1054,1055,0,0,0,0,0,0
3061,2023-01-20 10:49:59.365143,119367206,1505,1505,1505,1506,1505,1505,1054,1054,0,0,0,0,0,0
3101,2023-01-20 10:49:59.465161,119467228,1505,1505,1505,1505,1505,1506,1054,1054,0,0,0,0,0,0
3142,2023-01-20 10:49:59.565072,119567143,1506,1505,1505,1505,1505,1505,1054,1055,0,0,0,0,0,0
3183,2023-01-20 10:49:59.665136,119667220,1505,1505,1506,1505,1505,1505,1054,1055,0,0,0,0,0,0
3222,2023-01-20 10:49:59.765152,119767255,1505,1505,1505,1506,1505,1505,1054,1054,0,0,0,0,0,0
3261,2023-01-20 10:49:59.865087,119867199,1505,1505,1505,1505,1506,1505,1054,1054,0,0,0,0,0,0
3300,2023-01-20 10:49:59.965023,119967140,1506,1505,1505,1505,1505,1505,1055,1054,0,0,0,0,0,0
3339,2023-01-20 10:50:00.065116,120067217,1505,1506,1505,1505,1505,1505,1055,1054,0,0,0,0,0,0
3381,2023-01-20 10:50:00.165148,120167222,1505,1505,1505,1506,1505,1505,1054,1054,0,0,0,0,0,0
3420,2023-01-20 10:50:00.265063,120267133,1505,1505,1505,1505,1506,1505,1054,1054,0,0,0,0,0,0
3459,2023-01-20 10:50:00.365079,120367157,1505,1505,1505,1505,1505,1506,1054,1054,0,0,0,0,0,0
3499,2023-01-20 10:50:00.465068,120467144,1505,1505,1505,1505,1505,1505,1055,1054,0,0,0,0,0,0
3539,2023-01-20 10:50:00.565074,120567144,1505,1506,1505,1505,1505,1505,1054,1054,0,0,0,0,0,0
3582,2023-01-20 10:50:00.665137,120667212,1505,1505,1505,1506,1505,1505,1054,1054,0,0,0,0,0,0
3621,2023-01-20 10:50:00.765164,120767251,1505,1505,1515,1505,1506,1505,1054,1054,0,0,0,0,0,0
3662,2023-01-20 10:50:00.865049,120867152,1505,1505,1537,1505,1506,1505,1055,1053,0,0,0,0,0,0
3699,2023-01-20 10:50:00.965015,120967137,1505,1505,1562,1505,1505,1505,1054,1055,0,0,0,0,0,0
3731,2023-01-20 10:50:01.065133,121067257,1505,1505,1586,1506,1505,1505,1054,1054,0,0,0,0,0,0
3764,2023-01-20 10:50:01.165151,121167268,1506,1505,1602,1505,1505,1506,1054,1054,0,0,0,0,0,0
3796,2023-01-20 10:50:01.265093,121267243,1505,1505,1605,1505,1506,1505,1054,1054,0,0,0,0,0,0
3827,2023-01-20 10:50:01.365109,121367313,1505,1505,1605,1505,1506,1505,1054,1054,0,0,0,0,0,0
3859,2023-01-20 10:50:01.465050,121467239,1506,1505,1606,1505,1505,1506,1054,1054,0,0,0,0,0,0
3892,2023-01-20 10:50:01.565105,121567243,1506,1505,1605,1505,1506,1505,1054,1054,0,0,0,0,0,0
3927,2023-01-20 10:50:01.665195,121667314,1506,1505,1606,1505,1506,1505,1054,1054,0,0,0,0,0,0
3958,2023-01-20 10:50:01.765437,121767554,1505,1506,1606,1505,1505,1506,1054,1054,0,0,0,0,0,0
3991,2023-01-20 10:50:01.865386,121867552,1506,1505,1602,1505,1505,1506,1054,1054,0,0,0,0,0,0
4023,2023-01-20 10:50:01.965345,121967586,1506,1505,1601,1505,1505,1506,1054,1054,0,0,0,0,0,0
4055,2023-01-20 10:50:02.065328,122067552,1505,1506,1595,1505,1505,1505,1054,1055,0,0,0,0,0,0
4088,2023-01-20 10:50:02.165415,122167573,1505,1505,1597,1505,1505,1505,1054,1055,0,0,0,0,0,0
4120,2023-01-20 10:50:02.265471,122267607,1505,1505,1592,1505,1505,1505,1054,1055,0,0,0,0,0,0
4151,2023-01-20 10:50:02.365402,122367540,1505,1505,1590,1506,1505,1505,1054,1054,0,0,0,0,0,0
4183,2023-01-20 10:50:02.465141,122467540,1505,1505,1591,1505,1506,1505,1054,1054,0,0,0,0,0,0
4216,2023-01-20 10:50:02.564517,122567313,1505,1505,1593,1505,1506,1505,1054,1054,0,0,0,0,0,0
4252,2023-01-20 10:50:02.664366,122667279,1506,1505,1598,1505,1505,1506,1054,1054,0,0,0,0,0,0
4282,2023-01-20 10:50:02.764398,122767274,1506,1505,1607,1505,1506,1505,1054,1054,0,0,0,0,0,0
4317,2023-01-20 10:50:02.864412,122867291,1505,1505,1621,1506,1505,1505,1054,1054,0,0,0,0,0,0
4347,2023-01-20 10:50:02.964350,122967254,1505,1505,1636,1505,1505,1505,1054,1055,0,0,0,0,0,0
4380,2023-01-20 10:50:03.064359,123067273,1505,1505,1650,1505,1506,1505,1054,1054,0,0,0,0,0,0
4412,2023-01-20 10:50:03.164445,123167361,1505,1506,1658,1505,1505,1506,1054,1054,0,0,0,0,0,0
4445,2023-01-20 10:50:03.264332,123267245,1505,1505,1667,1505,1505,1505,1054,1055,0,0,0,0,0,0
4475,2023-01-20 10:50:03.364360,123367268,1505,1505,1676,1505,1505,1505,1055,1054,0,0,0,0,0,0
4508,2023-01-20 10:50:03.464362,123467259,1505,1505,1688,1506,1505,1505,1054,1054,0,0,0,0,0,0
4540,2023-01-20 10:50:03.564361,123567245,1505,1505,1704,1505,1505,1505,1054,1055,0,0,0,0,0,0
4576,2023-01-20 10:50:03.664404,123667285,1505,1505,1746,1506,1505,1505,1054,1054,0,0,0,0,0,0
4606,2023-01-20 10:50:03.764400,123767285,1505,1505,1748,1505,1505,1506,1054,1054,0,0,0,0,0,0
4640,2023-01-20 10:50:03.864588,123867274,1505,1505,1747,1505,1505,1506,1054,1054,0,0,0,0,0,0
4672,2023-01-20 10:50:03.964923,123967297,1471,1505,1728,1505,1505,1505,1055,1054,0,0,0,0,0,0
4705,2023-01-20 10:50:04.065034,124067255,1428,1505,1702,1505,1506,1505,1054,1054,0,0,0,0,0,0
4737,2023-01-20 10:50:04.165138,124167292,1400,1505,1678,1506,1505,1505,1054,1055,0,0,0,0,0,0
4770,2023-01-20 10:50:04.265181,124267314,1377,1505,1641,1505,1505,1505,1055,1054,0,0,0,0,0,0
4800,2023-01-20 10:50:04.365131,124367268,1384,1506,1647,1505,1505,1506,1054,1054,0,0,0,0,0,0
4833,2023-01-20 10:50:04.465085,124467250,1430,1505,1672,1505,1505,1506,1054,1054,0,0,0,0,0,0
4866,2023-01-20 10:50:04.565054,124567259,1478,1505,1682,1505,1505,1505,1055,1054,0,0,0,0,0,0
4902,2023-01-20 10:50:04.665083,124667274,1496,1505,1682,1506,1505,1505,1054,1055,0,0,0,0,0,0
4932,2023-01-20 10:50:04.765132,124767281,1505,1505,1689,1505,1505,1506,1054,1054,0,0,0,0,0,0
4966,2023-01-20 10:50:04.865146,124867311,1505,1505,1693,1506,1505,1505,1054,1054,0,0,0,0,0,0
4996,2023-01-20 10:50:04.965039,124967251,1505,1505,1701,1505,1505,1505,1055,1054,0,0,0,0,0,0
5029,2023-01-20 10:50:05.065085,125067282,1506,1505,1700,1506,1505,1505,1054,1054,0,0,0,0,0,0
5061,2023-01-20 10:50:05.165135,125167284,1505,1505,1698,1506,1505,1505,1054,1055,0,0,0,0,0,0
5094,2023-01-20 10:50:05.265110,125267245,1505,1506,1692,1505,1506,1505,1054,1054,0,0,0,0,0,0
5124,2023-01-20 10:50:05.365449,125367589,1505,1505,1683,1505,1505,1505,1054,1055,0,0,0,0,0,0
5157,2023-01-20 10:50:05.465122,125467255,1505,1505,1674,1505,1505,1505,1055,1054,0,0,0,0,0,0
5189,2023-01-20 10:50:05.565137,125567256,1505,1456,1663,1505,1505,1505,1055,1054,0,0,0,0,0,0
5226,2023-01-20 10:50:05.665169,125667281,1506,1430,1660,1505,1505,1506,1054,1054,0,0,0,0,0,0
5256,2023-01-20 10:50:05.765454,125767564,1506,1403,1658,1505,1505,1506,1054,1054,0,0,0,0,0,0
5290,2023-01-20 10:50:05.859516,125867565,1505,1416,1643,1505,1505,1506,1054,1054,0,0,0,0,0,0
5320,2023-01-20 10:50:05.950412,125967533,1505,1416,1640,1505,1505,1506,1054,1054,0,0,0,0,0,0
5353,2023-01-20 10:50:06.045511,126067565,1505,1407,1656,1505,1505,1505,1055,1054,0,0,0,0,0,0
5385,2023-01-20 10:50:06.145269,126167287,1505,1398,1631,1505,1505,1505,1054,1054,0,0,0,0,0,0
5418,2023-01-20 10:50:06.244705,126267262,1505,1380,1637,1505,1506,1505,1054,1054,0,0,0,0,0,0
5450,2023-01-20 10:50:06.343718,126367513,1505,1380,1634,1505,1505,1505,1054,1055,0,0,0,0,0,0
5483,2023-01-20 10:50:06.442754,126467258,1502,1366,1628,1505,1505,1506,1054,1054,0,0,0,0,0,0
5515,2023-01-20 10:50:06.542741,126567257,1495,1341,1618,1505,1505,1505,1055,1054,0,0,0,0,0,0
5551,2023-01-20 10:50:06.642777,126667328,1505,1335,1613,1506,1505,1505,1054,1055,0,0,0,0,0,0
5581,2023-01-20 10:50:06.742658,126767273,1505,1328,1598,1505,1506,1505,1054,1054,0,0,0,0,0,0
5615,2023-01-20 10:50:06.842579,126867269,1506,1342,1596,1505,1505,1505,1055,1054,0,0,0,0,0,0
5645,2023-01-20 10:50:06.942481,126967260,1505,1311,1606,1505,1506,1505,1054,1054,0,0,0,0,0,0
5678,2023-01-20 10:50:07.042486,127067325,1505,1306,1567,1505,1506,1505,1054,1054,0,0,0,0,0,0
5710,2023-01-20 10:50:07.142413,127167270,1505,1300,1562,1505,1506,1505,1054,1054,0,0,0,0,0,0
5743,2023-01-20 10:50:07.242415,127267255,1505,1301,1575,1505,1505,1506,1054,1054,0,0,0,0,0,0
5773,2023-01-20 10:50:07.342764,127367541,1505,1317,1572,1505,1505,1506,1054,1054,0,0,0,0,0,0
5806,2023-01-20 10:50:07.442461,127467239,1505,1327,1572,1506,1505,1505,1054,1054,0,0,0,0,0,0
5838,2023-01-20 10:50:07.542386,127567250,1505,1321,1573,1506,1505,1505,1054,1054,0,0,0,0,0,0
5874,2023-01-20 10:50:07.647150,127667287,1502,1312,1594,1505,1505,1505,1055,1054,0,0,0,0,0,0
5904,2023-01-20 10:50:07.758394,127767261,1505,1300,1598,1505,1505,1506,1054,1054,0,0,0,0,0,0
5938,2023-01-20 10:50:07.856840,127867260,1498,1283,1621,1505,1506,1505,1054,1054,0,0,0,0,0,0
5970,2023-01-20 10:50:07.947629,127967262,1505,1288,1618,1506,1505,1505,1054,1054,0,0,0,0,0,0
6003,2023-01-20 10:50:08.042317,128067273,1504,1305,1616,1505,1505,1505,1055,1054,0,0,0,0,0,0
6035,2023-01-20 10:50:08.142356,128167330,1505,1317,1633,1506,1505,1505,1054,1054,0,0,0,0,0,0
6068,2023-01-20 10:50:08.242281,128267248,1505,1351,1633,1506,1505,1505,1054,1054,0,0,0,0,0,0
6098,2023-01-20 10:50:08.342617,128367542,1505,1361,1636,1505,1505,1505,1054,1055,0,0,0,0,0,0
6131,2023-01-20 10:50:08.442348,128467252,1497,1347,1640,1505,1505,1506,1054,1054,0,0,0,0,0,0
6163,2023-01-20 10:50:08.542348,128567258,1496,1342,1623,1505,1505,1506,1054,1054,0,0,0,0,0,0
6199,2023-01-20 10:50:08.642367,128667285,1497,1345,1622,1505,1505,1506,1054,1054,0,0,0,0,0,0
6229,2023-01-20 10:50:08.742327,128767253,1497,1343,1625,1505,1505,1506,1054,1054,0,0,0,0,0,0
6263,2023-01-20 10:50:08.842417,128867306,1501,1350,1622,1505,1505,1506,1054,1054,0,0,0,0,0,0
6296,2023-01-20 10:50:08.942460,128967251,1505,1356,1633,1505,1506,1505,1054,1054,0,0,0,0,0,0
6329,2023-01-20 10:50:09.042553,129067272,1505,1358,1637,1506,1505,1505,1054,1055,0,0,0,0,0,0
6361,2023-01-20 10:50:09.142594,129167274,1506,1376,1628,1505,1505,1506,1054,1054,0,0,0,0,0,0
6394,2023-01-20 10:50:09.242521,129267255,1505,1381,1622,1506,1505,1505,1054,1054,0,0,0,0,0,0
6424,2023-01-20 10:50:09.342606,129367521,1505,1446,1607,1505,1506,1505,1054,1054,0,0,0,0,0,0
6457,2023-01-20 10:50:09.442334,129467874,1505,1505,1538,1506,1505,1505,1054,1054,0,0,0,0,0,0
6489,2023-01-20 10:50:09.541176,129567936,1505,1505,1505,1505,1505,1506,1054,1054,0,0,0,0,0,0
6525,2023-01-20 10:50:09.640459,129667946,1505,1506,1505,1505,1505,1505,1055,1054,0,0,0,0,0,0
6555,2023-01-20 10:50:09.740435,129767923,1505,1505,1505,1506,1505,1505,1054,1054,0,0,0,0,0,0
6589,2023-01-20 10:50:09.840501,129867999,1505,1505,1505,1505,1505,1506,1054,1054,0,0,0,0,0,0
6620,2023-01-20 10:50:09.940418,129967938,1505,1506,1505,1505,1505,1505,1055,1054,0,0,0,0,0,0
6653,2023-01-20 10:50:10.040437,130067960,1505,1505,1505,1506,1505,1505,1054,1054,0,0,0,0,0,0
6685,2023-01-20 10:50:10.140531,130168029,1505,1505,1505,1505,1506,1505,1054,1054,0,0,0,0,0,0
6718,2023-01-20 10:50:10.240351,130267939,1505,1506,1505,1505,1505,1505,1055,1054,0,0,0,0,0,0
6748,2023-01-20 10:50:10.340187,130368033,1505,1505,1505,1506,1505,1505,1054,1055,0,0,0,0,0,0
6781,2023-01-20 10:50:10.439950,130467962,1505,1505,1505,1506,1505,1505,1054,1054,0,0,0,0,0,0
6813,2023-01-20 10:50:10.539942,130567981,1506,1505,1505,1505,1505,1506,1054,1054,0,0,0,0,0,0
6849,2023-01-20 10:50:10.639942,130668004,1505,1506,1505,1505,1505,1505,1055,1054,0,0,0,0,0,0
6879,2023-01-20 10:50:10.739891,130767971,1505,1505,1505,1506,1505,1505,1054,1054,0,0,0,0,0,0
6913,2023-01-20 10:50:10.839915,130868041,1505,1505,1505,1506,1505,1505,1054,1054,0,0,0,0,0,0
6943,2023-01-20 10:50:10.939772,130967987,1505,1505,1505,1505,1505,1506,1054,1054,0,0,0,0,0,0
6976,2023-01-20 10:50:11.039754,131067988,1505,1506,1505,1505,1505,1505,1055,1054,0,0,0,0,0,0
7008,2023-01-20 10:50:11.139914,131168061,1505,1505,1506,1505,1505,1505,1054,1054,0,0,0,0,0,0
7042,2023-01-20 10:50:11.239876,131267974,1505,1505,1505,1506,1505,1505,1054,1054,0,0,0,0,0,0
7072,2023-01-20 10:50:11.339882,131367987,1505,1505,1505,1505,1506,1505,1054,1054,0,0,0,0,0,0
7105,2023-01-20 10:50:11.439865,131467972,1506,1505,1505,1505,1505,1506,1054,1054,0,0,0,0,0,0
7136,2023-01-20 10:50:11.539876,131567977,1505,1506,1505,1505,1505,1505,1055,1054,0,0,0,0,0,0
7172,2023-01-20 10:50:11.639900,131667997,1505,1505,1505,1506,1505,1505,1054,1055,0,0,0,0,0,0
7202,2023-01-20 10:50:11.739877,131767975,1505,1505,1505,1506,1505,1505,1054,1055,0,0,0,0,0,0
7236,2023-01-20 10:50:11.839899,131868027,1505,1505,1505,1505,1506,1505,1054,1054,0,0,0,0,0,0
7266,2023-01-20 10:50:11.939768,131967971,1506,1505,1505,1505,1505,1506,1054,1054,0,0,0,0,0,0
7299,2023-01-20 10:50:12.039785,132068001,1505,1506,1505,1505,1505,1505,1055,1054,0,0,0,0,0,0
7331,2023-01-20 10:50:12.139925,132168060,1505,1506,1505,1505,1505,1505,1054,1055,0,0,0,0,0,0
7364,2023-01-20 10:50:12.239879,132267966,1505,1505,1505,1506,1505,1505,1054,1055,0,0,0,0,0,0
7394,2023-01-20 10:50:12.339900,132367991,1505,1505,1505,1506,1505,1505,1054,1054,0,0,0,0,0,0
7427,2023-01-20 10:50:12.439868,132467964,1505,1505,1505,1505,1506,1505,1054,1054,0,0,0,0,0,0
7459,2023-01-20 10:50:12.539870,132567973,1506,1505,1505,1505,1505,1506,1054,1054,0,0,0,0,0,0
7495,2023-01-20 10:50:12.639891,132667995,1506,1505,1505,1505,1505,1506,1054,1054,0,0,0,0,0,0
7525,2023-01-20 10:50:12.739874,132767967,1505,1506,1505,1505,1505,1505,1055,1054,0,0,0,0,0,0
7559,2023-01-20 10:50:12.839867,132867983,1505,1505,1506,1486,1505,1505,1054,1055,0,0,0,0,0,0
7590,2023-01-20 10:50:12.939792,132967982,1505,1505,1505,1472,1506,1505,1054,1054,0,0,0,0,0,0
7623,2023-01-20 10:50:13.039780,133067985,1505,1506,1505,1462,1505,1505,1054,1055,0,0,0,0,0,0
7655,2023-01-20 10:50:13.139940,133168070,1505,1505,1505,1462,1505,1506,1054,1054,0,0,0,0,0,0
7688,2023-01-20 10:50:13.239880,133267967,1505,1505,1505,1464,1505,1505,1054,1054,0,0,0,0,0,0
7718,2023-01-20 10:50:13.339896,133367986,1505,1505,1505,1491,1505,1506,1054,1054,0,0,0,0,0,0
7751,2023-01-20 10:50:13.439877,133467969,1506,1505,1505,1505,1505,1506,1054,1054,0,0,0,0,0,0
7783,2023-01-20 10:50:13.539881,133567972,1505,1506,1505,1505,1505,1505,1055,1054,0,0,0,0,0,0
7819,2023-01-20 10:50:13.639907,133667999,1505,1506,1505,1505,1505,1505,1054,1055,0,0,0,0,0,0
7849,2023-01-20 10:50:13.739879,133767972,1505,1506,1505,1505,1505,1505,1055,1054,0,0,0,0,0,0
7883,2023-01-20 10:50:13.839860,133867987,1505,1505,1506,1505,1505,1505,1054,1055,0,0,0,0,0,0
7915,2023-01-20 10:50:13.939758,133967968,1505,1505,1506,1505,1505,1505,1054,1055,0,0,0,0,0,0
7948,2023-01-20 10:50:14.039773,134068004,1505,1505,1505,1506,1505,1505,1054,1055,0,0,0,0,0,0
7980,2023-01-20 10:50:14.139886,134168043,1505,1505,1505,1506,1505,1505,1054,1055,0,0,0,0,0,0
8013,2023-01-20 10:50:14.239854,134267964,1505,1505,1505,1506,1505,1505,1054,1054,0,0,0,0,0,0
8043,2023-01-20 10:50:14.339897,134367999,1505,1505,1505,1505,1506,1505,1054,1054,0,0,0,0,0,0
8076,2023-01-20 10:50:14.439866,134467964,1505,1505,1505,1505,1506,1505,1054,1054,0,0,0,0,0,0
8109,2023-01-20 10:50:14.539874,134567972,1505,1505,1505,1505,1505,1506,1054,1054,0,0,0,0,0,0
8145,2023-01-20 10:50:14.639897,134667995,1506,1505,1505,1505,1505,1506,1054,1054,0,0,0,0,0,0
8175,2023-01-20 10:50:14.739878,134767976,1506,1505,1505,1505,1505,1506,1054,1054,0,0,0,0,0,0
8209,2023-01-20 10:50:14.839854,134867986,1505,1506,1505,1505,1505,1505,1055,1054,0,0,0,0,0,0
8239,2023-01-20 10:50:14.939756,134967971,1505,1506,1505,1505,1505,1505,1054,1055,0,0,0,0,0,0
8272,2023-01-20 10:50:15.039747,135067987,1505,1506,1505,1505,1505,1505,1055,1054,0,0,0,0,0,0
8304,2023-01-20 10:50:15.139871,135168046,1505,1506,1505,1505,1505,1505,1055,1054,0,0,0,0,0,0
8337,2023-01-20 10:50:15.239845,135267973,1505,1506,1505,1505,1505,1505,1054,1055,0,0,0,0,0,0
8367,2023-01-20 10:50:15.339886,135367994,1505,1506,1505,1505,1505,1505,1055,1054,0,0,0,0,0,0
8400,2023-01-20 10:50:15.439911,135468008,1505,1506,1505,1486,1505,1505,1055,1054,0,0,0,0,0,0
8432,2023-01-20 10:50:15.539874,135567974,1505,1505,1505,1468,1505,1505,1054,1055,0,0,0,0,0,0
8468,2023-01-20 10:50:15.639901,135668002,1506,1505,1505,1461,1505,1505,1055,1054,0,0,0,0,0,0
8498,2023-01-20 10:50:15.739879,135767978,1505,1505,1505,1447,1506,1505,1054,1055,0,0,0,0,0,0
8532,2023-01-20 10:50:15.839890,135868000,1505,1506,1505,1435,1505,1505,1054,1055,0,0,0,0,0,0
8562,2023-01-20 10:50:15.939841,135967981,1506,1505,1505,1423,1505,1505,1054,1055,0,0,0,0,0,0
8595,2023-01-20 10:50:16.039857,136068004,1506,1505,1505,1411,1505,1505,1054,1055,0,0,0,0,0,0
8627,2023-01-20 10:50:16.139898,136168014,1506,1505,1505,1411,1505,1505,1055,1054,0,0,0,0,0,0
8660,2023-01-20 10:50:16.239847,136267966,1506,1505,1505,1412,1505,1505,1055,1054,0,0,0,0,0,0
8690,2023-01-20 10:50:16.339802,136367975,1505,1506,1505,1417,1505,1505,1054,1055,0,0,0,0,0,0
8723,2023-01-20 10:50:16.439785,136467968,1506,1505,1505,1417,1505,1505,1055,1054,0,0,0,0,0,0
8755,2023-01-20 10:50:16.539883,136568008,1506,1505,1505,1418,1505,1505,1055,1054,0,0,0,0,0,0
8791,2023-01-20 10:50:16.639900,136667991,1506,1505,1505,1418,1505,1505,1055,1054,0,0,0,0,0,0
8821,2023-01-20 10:50:16.739877,136767971,1506,1505,1505,1418,1505,1505,1055,1054,0,0,0,0,0,0
8855,2023-01-20 10:50:16.839883,136867987,1506,1505,1505,1418,1505,1505,1054,1055,0,0,0,0,0,0
8885,2023-01-20 10:50:16.939844,136967972,1506,1505,1505,1418,1505,1505,1054,1055,0,0,0,0,0,0
8918,2023-01-20 10:50:17.039843,137067974,1506,1505,1505,1418,1505,1505,1055,1054,0,0,0,0,0,0
8950,2023-01-20 10:50:17.139906,137168008,1506,1505,1505,1417,1505,1505,1055,1054,0,0,0,0,0,0
8983,2023-01-20 10:50:17.239933,137268021,1506,1505,1505,1417,1505,1505,1054,1055,0,0,0,0,0,0
9013,2023-01-20 10:50:17.339920,137368017,1506,1505,1505,1417,1505,1505,1054,1055,0,0,0,0,0,0
9046,2023-01-20 10:50:17.439874,137467972,1506,1505,1505,1417,1505,1505,1055,1054,0,0,0,0,0,0
9078,2023-01-20 10:50:17.539882,137567969,1506,1505,1505,1417,1505,1505,1055,1054,0,0,0,0,0,0
9114,2023-01-20 10:50:17.639961,137668042,1506,1505,1505,1416,1505,1505,1055,1054,0,0,0,0,0,0
9144,2023-01-20 10:50:17.739897,137767978,1506,1505,1505,1416,1505,1505,1055,1054,0,0,0,0,0,0
9178,2023-01-20 10:50:17.836358,137867995,1506,1505,1505,1417,1505,1505,1055,1054,0,0,0,0,0,0
9208,2023-01-20 10:50:17.927432,137967975,1505,1505,1505,1417,1505,1506,1054,1054,0,0,0,0,0,0
9242,2023-01-20 10:50:18.022591,138068028,1505,1505,1505,1416,1505,1506,1054,1054,0,0,0,0,0,0
9274,2023-01-20 10:50:18.133352,138167994,1505,1505,1505,1417,1505,1506,1054,1054,0,0,0,0,0,0
9307,2023-01-20 10:50:18.239844,138267974,1505,1505,1505,1418,1505,1506,1054,1054,0,0,0,0,0,0
9337,2023-01-20 10:50:18.339955,138368044,1505,1505,1505,1448,1506,1505,1054,1054,0,0,0,0,0,0
9370,2023-01-20 10:50:18.436348,138467963,1506,1505,1505,1505,1505,1506,1054,1054,0,0,0,0,0,0
9402,2023-01-20 10:50:18.527457,138567969,1505,1505,1505,1505,1506,1505,1054,1054,0,0,0,0,0,0
9438,2023-01-20 10:50:18.620393,138667997,1505,1505,1505,1505,1506,1505,1054,1054,0,0,0,0,0,0
9468,2023-01-20 10:50:18.720327,138767965,1505,1505,1505,1505,1506,1505,1054,1054,0,0,0,0,0,0
9502,2023-01-20 10:50:18.820308,138867980,1505,1505,1505,1447,1505,1506,1054,1054,0,0,0,0,0,0
9534,2023-01-20 10:50:18.920269,138967977,1505,1505,1505,1408,1505,1506,1054,1054,0,0,0,0,0,0
9567,2023-01-20 10:50:19.020292,139068022,1505,1505,1505,1455,1506,1505,1054,1054,0,0,0,0,0,0
9599,2023-01-20 10:50:19.120300,139167994,1505,1505,1505,1505,1506,1505,1054,1054,0,0,0,0,0,0
9632,2023-01-20 10:50:19.220297,139267968,1505,1505,1505,1506,1505,1505,1054,1055,0,0,0,0,0,0
9662,2023-01-20 10:50:19.320290,139367987,1505,1505,1506,1505,1505,1505,1054,1055,0,0,0,0,0,0
9695,2023-01-20 10:50:19.420247,139467975,1505,1505,1506,1505,1505,1505,1054,1055,0,0,0,0,0,0
9727,2023-01-20 10:50:19.520192,139567973,1505,1506,1505,1505,1505,1505,1055,1054,0,0,0,0,0,0
9763,2023-01-20 10:50:19.620168,139667992,1506,1505,1505,1505,1505,1506,1054,1054,0,0,0,0,0,0
9793,2023-01-20 10:50:19.720142,139767968,1506,1505,1505,1505,1505,1506,1054,1054,0,0,0,0,0,0
9827,2023-01-20 10:50:19.820146,139867977,1505,1505,1505,1505,1506,1505,1054,1054,0,0,0,0,0,0
9857,2023-01-20 10:50:19.920130,139967979,1505,1505,1505,1506,1505,1505,1054,1055,0,0,0,0,0,0
9890,2023-01-20 10:50:20.020169,140068029,1505,1506,1505,1505,1505,1505,1055,1054,0,0,0,0,0,0
9922,2023-01-20 10:50:20.120160,140168010,1505,1506,1505,1505,1054,1506,1054,1054,0,0,0,0,0,0
9955,2023-01-20 10:50:20.220142,140267971,1505,1505,1505,1506,1054,1505,1054,1055,0,0,0,0,0,0
9988,2023-01-20 10:50:20.320204,140367969,1505,1505,1505,1505,1055,1505,1054,1054,0,0,0,0,0,0
10021,2023-01-20 10:50:20.420236,140467951,1505,1506,1505,1505,1054,1506,1054,1054,0,0,0,0,0,0
10053,2023-01-20 10:50:20.520239,140567958,1505,1505,1506,1505,1054,1505,1055,1054,0,0,0,0,0,0
10089,2023-01-20 10:50:20.620296,140668011,1505,1505,1505,1505,1055,1505,1054,1054,0,0,0,0,0,0
10119,2023-01-20 10:50:20.720278,140767955,1505,1506,1505,1505,1054,1505,1055,1054,0,0,0,0,0,0
10153,2023-01-20 10:50:20.820290,140867961,1505,1505,1505,1506,1054,1505,1054,1055,0,0,0,0,0,0
10183,2023-01-20 10:50:20.920153,140967943,1505,1505,1505,1505,1055,1505,1054,1054,0,0,0,0,0,0
10216,2023-01-20 10:50:21.020101,141067975,1506,1505,1505,1505,1054,1506,1054,1054,0,0,0,0,0,0
10248,2023-01-20 10:50:21.120152,141167970,1505,1506,1505,1505,1054,1505,1054,1055,0,0,0,0,0,0
10281,2023-01-20 10:50:21.220210,141267989,1505,1505,1505,1506,1054,1505,1054,1055,0,0,0,0,0,0
10311,2023-01-20 10:50:21.320222,141368025,1505,1505,1505,1505,1055,1505,1054,1054,0,0,0,0,0,0
10344,2023-01-20 10:50:21.420132,141467948,1505,1506,1505,1505,1054,1505,1054,1055,0,0,0,0,0,0
10376,2023-01-20 10:50:21.520169,141567949,1505,1505,1505,1506,1054,1505,1054,1055,0,0,0,0,0,0
10412,2023-01-20 10:50:21.620203,141667967,1505,1505,1505,1505,1055,1505,1054,1054,0,0,0,0,0,0
10442,2023-01-20 10:50:21.720131,141767956,1505,1505,1505,1505,1055,1505,1054,1054,0,0,0,0,0,0
10476,2023-01-20 10:50:21.820088,141867965,1505,1506,1505,1505,1054,1506,1054,1054,0,0,0,0,0,0
10506,2023-01-20 10:50:21.920111,141968001,1505,1505,1506,1505,1054,1505,1055,1054,0,0,0,0,0,0
10539,2023-01-20 10:50:22.020085,142067976,1505,1505,1505,1505,1055,1505,1054,1054,0,0,0,0,0,0
10571,2023-01-20 10:50:22.120139,142167979,1506,1505,1505,1505,1054,1506,1054,1054,0,0,0,0,0,0
10604,2023-01-20 10:50:22.220134,142267941,1505,1506,1505,1505,1054,1506,1054,1054,0,0,0,0,0,0
10634,2023-01-20 10:50:22.320136,142367978,1505,1505,1506,1505,1054,1505,1054,1055,0,0,0,0,0,0
10667,2023-01-20 10:50:22.420081,142467942,1505,1505,1505,1506,1054,1505,1054,1055,0,0,0,0,0,0
10699,2023-01-20 10:50:22.520135,142567949,1505,1505,1505,1506,1054,1505,1054,1054,0,0,0,0,0,0
10735,2023-01-20 10:50:22.620239,142668020,1505,1505,1505,1505,1055,1505,1054,1055,0,0,0,0,0,0
10765,2023-01-20 10:50:22.720158,142767955,1505,1506,1505,1505,1054,1506,1054,1054,0,0,0,0,0,0
10799,2023-01-20 10:50:22.820144,142867961,1505,1506,1505,1505,1054,1506,1054,1054,0,0,0,0,0,0
10829,2023-01-20 10:50:22.920105,142967954,1505,1506,1505,1505,1054,1505,1055,1054,0,0,0,0,0,0
10862,2023-01-20 10:50:23.020103,143067967,1505,1505,1506,1505,1054,1505,1055,1054,0,0,0,0,0,0
10895,2023-01-20 10:50:23.120212,143168025,1505,1505,1506,1505,1054,1505,1055,1054,0,0,0,0,0,0
10928,2023-01-20 10:50:23.220217,143267995,1505,1505,1506,1505,1054,1505,1054,1055,0,0,0,0,0,0
10958,2023-01-20 10:50:23.320172,143367979,1505,1505,1505,1505,1055,1505,1054,1054,0,0,0,0,0,0
10991,2023-01-20 10:50:23.420121,143467948,1505,1505,1505,1505,1055,1505,1054,1054,0,0,0,0,0,0
11023,2023-01-20 10:50:23.520141,143567954,1505,1505,1505,1505,1055,1505,1054,1054,0,0,0,0,0,0
11059,2023-01-20 10:50:23.620183,143667987,1505,1505,1505,1505,1054,1506,1054,1054,0,0,0,0,0,0
11089,2023-01-20 10:50:23.720129,143767947,1505,1505,1505,1505,1055,1505,1054,1054,0,0,0,0,0,0
11123,2023-01-20 10:50:23.820136,143867968,1505,1505,1505,1505,1054,1506,1054,1054,0,0,0,0,0,0
11156,2023-01-20 10:50:23.920161,143968010,1505,1505,1505,1505,1055,1505,1054,1054,0,0,0,0,0,0
11189,2023-01-20 10:50:24.020110,144067960,1505,1506,1505,1505,1054,1505,1055,1054,0,0,0,0,0,0
11221,2023-01-20 10:50:24.120186,144167974,1505,1506,1505,1505,1054,1505,1055,1054,0,0,0,0,0,0
11254,2023-01-20 10:50:24.220187,144267939,1505,1506,1505,1505,1054,1506,1054,1054,0,0,0,0,0,0
11284,2023-01-20 10:50:24.320155,144367969,1505,1506,1505,1505,1054,1506,1054,1054,0,0,0,0,0,0
11317,2023-01-20 10:50:24.420091,144467942,1505,1506,1505,1505,1054,1506,1054,1054,0,0,0,0,0,0
11350,2023-01-20 10:50:24.520213,144567998,1505,1506,1505,1505,1054,1506,1054,1054,0,0,0,0,0,0
11387,2023-01-20 10:50:24.620221,144667970,1505,1505,1505,1506,1505,1505,1054,1054,0,0,0,0,0,0
11417,2023-01-20 10:50:24.720122,144767952,1506,1505,1505,1505,1505,1506,1054,1054,0,0,0,0,0,0
11451,2023-01-20 10:50:24.820102,144867997,1505,1505,1506,1505,1505,1505,1055,1054,0,0,0,0,0,0
11482,2023-01-20 10:50:24.920082,144967976,1506,1505,1505,1505,1505,1506,1054,1054,0,0,0,0,0,0
11515,2023-01-20 10:50:25.020094,145067982,1505,1506,1505,1505,1505,1505,1054,1055,0,0,0,0,0,0
11547,2023-01-20 10:50:25.120152,145168011,1505,1505,1505,1506,1505,1505,1054,1055,0,0,0,0,0,0
11581,2023-01-20 10:50:25.220143,145267980,1505,1506,1505,1505,1505,1505,1055,1054,0,0,0,0,0,0
11611,2023-01-20 10:50:25.320143,145367986,1505,1505,1505,1506,1505,1505,1054,1054,0,0,0,0,0,0
11644,2023-01-20 10:50:25.420132,145467977,1505,1505,1505,1505,1506,1505,1054,1054,0,0,0,0,0,0
11676,2023-01-20 10:50:25.520189,145568021,1505,1506,1505,1505,1505,1505,1055,1054,0,0,0,0,0,0
11712,2023-01-20 10:50:25.620167,145667991,1505,1505,1505,1505,1506,1505,1054,1054,0,0,0,0,0,0
11742,2023-01-20 10:50:25.720139,145767975,1506,1505,1505,1505,1505,1506,1054,1054,0,0,0,0,0,0
11775,2023-01-20 10:50:25.820174,145868025,1505,1506,1505,1505,1505,1505,1055,1054,0,0,0,0,0,0
11807,2023-01-20 10:50:25.920100,145967975,1505,1505,1505,1505,1506,1505,1054,1054,0,0,0,0,0,0
11840,2023-01-20 10:50:26.020100,146067986,1506,1505,1505,1505,1506,1505,1054,1054,0,0,0,0,0,0
11872,2023-01-20 10:50:26.120147,146167996,1505,1506,1508,1505,1505,1505,1055,1054,0,0,0,0,0,0
11905,2023-01-20 10:50:26.220141,146267967,1505,1505,1543,1506,1505,1505,1054,1055,0,0,0,0,0,0
11935,2023-01-20 10:50:26.320112,146367974,1505,1506,1577,1505,1505,1506,1054,1054,0,0,0,0,0,0
11968,2023-01-20 10:50:26.420085,146467970,1505,1505,1606,1505,1505,1505,1055,1054,0,0,0,0,0,0
12000,2023-01-20 10:50:26.520120,146567975,1505,1505,1628,1506,1505,1505,1054,1055,0,0,0,0,0,0
12036,2023-01-20 10:50:26.620174,146668006,1505,1506,1680,1505,1506,1505,1054,1054,0,0,0,0,0,0
12066,2023-01-20 10:50:26.720145,146767982,1506,1505,1722,1506,1505,1505,1054,1054,0,0,0,0,0,0
12099,2023-01-20 10:50:26.820201,146868047,1506,1505,1746,1506,1505,1505,1054,1055,0,0,0,0,0,0
12130,2023-01-20 10:50:26.920107,146967977,1505,1506,1760,1506,1505,1505,1054,1055,0,0,0,0,0,0
12163,2023-01-20 10:50:27.020194,147068082,1505,1506,1778,1506,1505,1505,1054,1055,0,0,0,0,0,0
12195,2023-01-20 10:50:27.120121,147167999,1505,1505,1779,1505,1505,1505,1055,1054,0,0,0,0,0,0
12228,2023-01-20 10:50:27.220105,147267973,1505,1505,1794,1505,1506,1505,1054,1054,0,0,0,0,0,0
12258,2023-01-20 10:50:27.320153,147368007,1505,1505,1817,1505,1505,1505,1055,1054,0,0,0,0,0,0
12291,2023-01-20 10:50:27.418322,147467969,1506,1505,1821,1505,1505,1505,1055,1054,0,0,0,0,0,0
12323,2023-01-20 10:50:27.509389,147568011,1505,1506,1839,1505,1505,1505,1054,1055,0,0,0,0,0,0
12359,2023-01-20 10:50:27.600552,147668103,1506,1505,1842,1505,1505,1505,1054,1055,0,0,0,0,0,0
12389,2023-01-20 10:50:27.700410,147767969,1505,1505,1858,1505,1505,1506,1054,1054,0,0,0,0,0,0
12422,2023-01-20 10:50:27.800520,147868086,1505,1505,1853,1505,1506,1505,1054,1054,0,0,0,0,0,0
12454,2023-01-20 10:50:27.900342,147967972,1505,1506,1850,1506,1505,1505,1054,1055,0,0,0,0,0,0
12487,2023-01-20 10:50:28.000571,148068265,1506,1505,1853,1505,1505,1505,1055,1054,0,0,0,0,0,0
12519,2023-01-20 10:50:28.100322,148167991,1505,1505,1849,1505,1505,1506,1054,1054,0,0,0,0,0,0
12553,2023-01-20 10:50:28.200582,148268226,1505,1505,1858,1505,1506,1505,1054,1055,0,0,0,0,0,0
12583,2023-01-20 10:50:28.300385,148368004,1506,1505,1863,1505,1505,1505,1055,1054,0,0,0,0,0,0
12616,2023-01-20 10:50:28.400592,148468127,1505,1505,1866,1505,1506,1505,1054,1054,0,0,0,0,0,0
12648,2023-01-20 10:50:28.511380,148567970,1506,1505,1867,1505,1505,1505,1054,1055,0,0,0,0,0,0
12684,2023-01-20 10:50:28.618347,148667996,1505,1505,1867,1506,1505,1505,1054,1055,0,0,0,0,0,0
12714,2023-01-20 10:50:28.709354,148768003,1505,1505,1869,1505,1505,1506,1054,1054,0,0,0,0,0,0
12747,2023-01-20 10:50:28.800514,148868129,1505,1506,1871,1506,1505,1505,1054,1055,0,0,0,0,0,0
12780,2023-01-20 10:50:28.900250,148967978,1505,1505,1873,1505,1506,1505,1054,1054,0,0,0,0,0,0
12813,2023-01-20 10:50:29.000506,149068348,1506,1505,1871,1505,1505,1505,1055,1054,0,0,0,0,0,0
12845,2023-01-20 10:50:29.100231,149168019,1505,1506,1865,1506,1505,1505,1054,1055,0,0,0,0,0,0
12879,2023-01-20 10:50:29.200556,149268290,1505,1505,1869,1506,1505,1505,1054,1054,0,0,0,0,0,0
12909,2023-01-20 10:50:29.300197,149367996,1505,1505,1877,1505,1505,1506,1054,1054,0,0,0,0,0,0
12942,2023-01-20 10:50:29.400489,149468353,1506,1505,1877,1505,1505,1505,1055,1054,0,0,0,0,0,0
12974,2023-01-20 10:50:29.500121,149567965,1506,1505,1868,1506,1505,1505,1054,1055,0,0,0,0,0,0
13010,2023-01-20 10:50:29.600520,149668345,1505,1505,1866,1505,1506,1505,1054,1054,0,0,0,0,0,0
13040,2023-01-20 10:50:29.700142,149767976,1505,1505,1866,1505,1505,1505,1055,1054,0,0,0,0,0,0
13073,2023-01-20 10:50:29.800499,149868342,1505,1506,1862,1506,1505,1505,1054,1055,0,0,0,0,0,0
13104,2023-01-20 10:50:29.900147,149968013,1505,1505,1863,1506,1505,1505,1054,1055,0,0,0,0,0,0
13137,2023-01-20 10:50:30.000517,150068405,1505,1505,1847,1505,1505,1505,1055,1054,0,0,0,0,0,0
13169,2023-01-20 10:50:30.100147,150168001,1505,1506,1848,1506,1505,1505,1054,1055,0,0,0,0,0,0
13202,2023-01-20 10:50:30.200495,150268315,1505,1505,1842,1505,1505,1506,1054,1054,0,0,0,0,0,0
13232,2023-01-20 10:50:30.300188,150368007,1505,1506,1842,1506,1505,1505,1054,1054,0,0,0,0,0,0
13265,2023-01-20 10:50:30.400507,150468325,1505,1505,1847,1505,1505,1506,1054,1054,0,0,0,0,0,0
13297,2023-01-20 10:50:30.500155,150567979,1505,1506,1841,1506,1505,1505,1054,1055,0,0,0,0,0,0
13333,2023-01-20 10:50:30.600509,150668338,1505,1505,1837,1505,1505,1506,1054,1054,0,0,0,0,0,0
13364,2023-01-20 10:50:30.700132,150767963,1505,1506,1837,1506,1505,1505,1054,1055,0,0,0,0,0,0
13397,2023-01-20 10:50:30.800492,150868325,1505,1505,1839,1505,1505,1506,1054,1054,0,0,0,0,0,0
13428,2023-01-20 10:50:30.900110,150967976,1505,1506,1836,1506,1505,1505,1054,1055,0,0,0,0,0,0
13461,2023-01-20 10:50:31.000509,151068408,1505,1505,1838,1505,1505,1506,1054,1054,0,0,0,0,0,0
13493,2023-01-20 10:50:31.100232,151168044,1506,1505,1839,1505,1505,1505,1054,1055,0,0,0,0,0,0
13526,2023-01-20 10:50:31.200548,151268272,1505,1505,1839,1505,1506,1505,1054,1054,0,0,0,0,0,0
13556,2023-01-20 10:50:31.300216,151367990,1506,1505,1839,1505,1505,1505,1055,1054,0,0,0,0,0,0
13589,2023-01-20 10:50:31.400494,151468318,1505,1505,1841,1505,1506,1505,1054,1054,0,0,0,0,0,0
13621,2023-01-20 10:50:31.500136,151567980,1505,1505,1843,1505,1505,1506,1054,1054,0,0,0,0,0,0
13656,2023-01-20 10:50:31.600519,151668382,1505,1505,1753,1505,1505,1506,1054,1054,0,0,0,0,0,0
13687,2023-01-20 10:50:31.700113,151767963,1505,1505,1582,1505,1505,1505,1054,1055,0,0,0,0,0,0
13720,2023-01-20 10:50:31.800494,151868331,1505,1505,1505,1505,1506,1505,1054,1054,0,0,0,0,0,0
13752,2023-01-20 10:50:31.900159,151968019,1505,1506,1505,1505,1505,1505,1055,1054,0,0,0,0,0,0
13785,2023-01-20 10:50:32.000508,152068391,1505,1506,1505,1505,1505,1505,1055,1054,0,0,0,0,0,0
13817,2023-01-20 10:50:32.100139,152167995,1505,1505,1505,1506,1505,1505,1054,1055,0,0,0,0,0,0
13850,2023-01-20 10:50:32.200501,152268330,1505,1506,1505,1505,1505,1505,1055,1054,0,0,0,0,0,0
13880,2023-01-20 10:50:32.300161,152367983,1506,1505,1505,1505,1505,1506,1054,1054,0,0,0,0,0,0
13913,2023-01-20 10:50:32.400501,152468317,1505,1505,1505,1506,1505,1505,1054,1054,0,0,0,0,0,0
13945,2023-01-20 10:50:32.500135,152567976,1506,1505,1505,1505,1505,1506,1054,1054,0,0,0,0,0,0
13980,2023-01-20 10:50:32.600513,152668379,1505,1505,1505,1506,1505,1505,1055,1054,0,0,0,0,0,0
14011,2023-01-20 10:50:32.700111,152767964,1505,1505,1506,1505,1505,1505,1054,1055,0,0,0,0,0,0
14044,2023-01-20 10:50:32.800494,152868333,1505,1505,1505,1505,1506,1505,1054,1054,0,0,0,0,0,0
14075,2023-01-20 10:50:32.900149,152968009,1505,1506,1505,1505,1505,1505,1055,1054,0,0,0,0,0,0
14108,2023-01-20 10:50:33.000487,153068368,1506,1505,1505,1505,1505,1506,1054,1054,0,0,0,0,0,0
14140,2023-01-20 10:50:33.100158,153168011,1505,1505,1505,1506,1505,1505,1054,1055,0,0,0,0,0,0
14173,2023-01-20 10:50:33.200494,153268319,1506,1505,1505,1505,1505,1506,1054,1054,0,0,0,0,0,0
14204,2023-01-20 10:50:33.300180,153368001,1505,1505,1505,1505,1506,1505,1054,1054,0,0,0,0,0,0
14237,2023-01-20 10:50:33.400501,153468318,1505,1506,1505,1505,1505,1505,1055,1054,0,0,0,0,0,0
14270,2023-01-20 10:50:33.500159,153567980,1505,1505,1505,1506,1505,1505,1054,1055,0,0,0,0,0,0
14306,2023-01-20 10:50:33.600510,153668336,1505,1505,1505,1506,1505,1505,1054,1055,0,0,0,0,0,0
14337,2023-01-20 10:50:33.700135,153767968,1506,1505,1505,1505,1505,1506,1054,1054,0,0,0,0,0,0
14370,2023-01-20 10:50:33.800484,153868323,1505,1505,1506,1505,1505,1505,1054,1055,0,0,0,0,0,0
14403,2023-01-20 10:50:33.900141,153968006,1505,1505,1505,1505,1506,1505,1054,1054,0,0,0,0,0,0
14436,2023-01-20 10:50:34.000482,154068374,1505,1505,1505,1506,1505,1505,1054,1054,0,0,0,0,0,0
14468,2023-01-20 10:50:34.100118,154167996,1506,1505,1505,1505,1505,1506,1054,1054,0,0,0,0,0,0
14501,2023-01-20 10:50:34.200508,154268372,1505,1505,1506,1505,1505,1505,1054,1055,0,0,0,0,0,0
14531,2023-01-20 10:50:34.300155,154367995,1505,1506,1505,1505,1505,1505,1055,1054,0,0,0,0,0,0
14564,2023-01-20 10:50:34.400493,154468309,1505,1505,1505,1506,1505,1505,1054,1054,0,0,0,0,0,0
14597,2023-01-20 10:50:34.500175,154567955,1506,1505,1505,1505,1505,1506,1054,1054,0,0,0,0,0,0
14631,2023-01-20 10:50:34.600585,154668328,1505,1505,1505,1505,1506,1505,1054,1054,0,0,0,0,0,0
14663,2023-01-20 10:50:34.700180,154767972,1505,1506,1505,1505,1054,1505,1055,1054,0,0,0,0,0,0
14696,2023-01-20 10:50:34.800491,154868332,1505,1506,1505,1505,1054,1506,1054,1054,0,0,0,0,0,0
14729,2023-01-20 10:50:34.900113,154967987,1505,1506,1505,1505,1054,1506,1054,1054,0,0,0,0,0,0
14762,2023-01-20 10:50:35.000500,155068407,1505,1506,1505,1505,1054,1506,1054,1054,0,0,0,0,0,0
14794,2023-01-20 10:50:35.100202,155168023,1505,1506,1505,1505,1054,1506,1054,1054,0,0,0,0,0,0
14827,2023-01-20 10:50:35.200561,155268297,1505,1505,1505,1506,1054,1505,1054,1055,0,0,0,0,0,0
14857,2023-01-20 10:50:35.300224,155367962,1505,1505,1505,1506,1054,1505,1055,1054,0,0,0,0,0,0
14890,2023-01-20 10:50:35.400557,155468298,1505,1505,1506,1505,1054,1505,1055,1054,0,0,0,0,0,0
14922,2023-01-20 10:50:35.500210,155567950,1505,1506,1505,1505,1054,1505,1055,1054,0,0,0,0,0,0
14957,2023-01-20 10:50:35.600576,155668315,1505,1506,1505,1505,1054,1506,1054,1054,0,0,0,0,0,0
14988,2023-01-20 10:50:35.700227,155767987,1505,1506,1505,1505,1054,1506,1054,1054,0,0,0,0,0,0
15021,2023-01-20 10:50:35.800528,155868308,1505,1505,1505,1506,1054,1505,1055,1054,0,0,0,0,0,0
15052,2023-01-20 10:50:35.900129,155967950,1505,1505,1506,1505,1054,1505,1055,1054,0,0,0,0,0,0
15085,2023-01-20 10:50:36.000495,156068357,1506,1505,1505,1505,1054,1505,1055,1054,0,0,0,0,0,0
15117,2023-01-20 10:50:36.100171,156167975,1505,1506,1505,1505,1054,1506,1054,1054,0,0,0,0,0,0
15150,2023-01-20 10:50:36.200553,156268299,1506,1505,1505,1505,1054,1506,1054,1054,0,0,0,0,0,0
15180,2023-01-20 10:50:36.300179,156367973,1505,1505,1505,1505,1055,1505,1054,1054,0,0,0,0,0,0
15213,2023-01-20 10:50:36.400498,156468341,1505,1505,1505,1505,1055,1505,1054,1054,0,0,0,0,0,0
15245,2023-01-20 10:50:36.500161,156567947,1505,1506,1505,1505,1054,1506,1054,1054,0,0,0,0,0,0
15280,2023-01-20 10:50:36.600584,156668314,1506,1505,1505,1505,1055,1505,1054,1054,0,0,0,0,0,0
15311,2023-01-20 10:50:36.700214,156767940,1505,1505,1505,1505,1055,1505,1054,1054,0,0,0,0,0,0
15344,2023-01-20 10:50:36.800592,156868315,1505,1505,1505,1506,1054,1505,1054,1055,0,0,0,0,0,0
15375,2023-01-20 10:50:36.900144,156967959,1505,1505,1506,1505,1054,1505,1054,1055,0,0,0,0,0,0
15408,2023-01-20 10:50:37.000489,157068397,1505,1506,1505,1505,1054,1505,1055,1054,0,0,0,0,0,0
15440,2023-01-20 10:50:37.100145,157167973,1505,1505,1505,1506,1054,1505,1054,1055,0,0,0,0,0,0
15473,2023-01-20 10:50:37.200555,157268303,1505,1505,1506,1505,1054,1505,1054,1055,0,0,0,0,0,0
15503,2023-01-20 10:50:37.300228,157367973,1505,1506,1505,1505,1054,1506,1054,1054,0,0,0,0,0,0
15536,2023-01-20 10:50:37.400555,157468298,1506,1505,1505,1505,1054,1506,1054,1054,0,0,0,0,0,0
15568,2023-01-20 10:50:37.500232,157567959,1505,1505,1505,1505,1054,1506,1054,1054,0,0,0,0,0,0
15603,2023-01-20 10:50:37.600924,157668636,1505,1505,1505,1506,1054,1505,1054,1055,0,0,0,0,0,0
15634,2023-01-20 10:50:37.700265,157767992,1505,1505,1505,1506,1054,1505,1054,1055,0,0,0,0,0,0
15667,2023-01-20 10:50:37.800572,157868314,1505,1505,1505,1505,1055,1505,1054,1054,0,0,0,0,0,0
15699,2023-01-20 10:50:37.900165,157967950,1505,1505,1505,1506,1054,1505,1054,1055,0,0,0,0,0,0
15732,2023-01-20 10:50:38.000490,158068367,1505,1505,1505,1506,1054,1505,1055,1054,0,0,0,0,0,0
15764,2023-01-20 10:50:38.091141,158167974,1505,1506,1505,1505,1054,1506,1054,1054,0,0,0,0,0,0
15795,2023-01-20 10:50:38.182422,158268274,1506,1505,1505,1505,1054,1506,1054,1054,0,0,0,0,0,0
15827,2023-01-20 10:50:38.280417,158368004,1505,1505,1505,1505,1055,1505,1054,1055,0,0,0,0,0,0
15859,2023-01-20 10:50:38.380761,158468346,1505,1505,1505,1506,1054,1505,1054,1055,0,0,0,0,0,0
15893,2023-01-20 10:50:38.480340,158567950,1506,1505,1505,1505,1055,1505,1054,1054,0,0,0,0,0,0
15927,2023-01-20 10:50:38.580808,158668450,1505,1505,1505,1506,1054,1505,1054,1055,0,0,0,0,0,0
15960,2023-01-20 10:50:38.680287,158767939,1505,1505,1506,1505,1054,1505,1055,1054,0,0,0,0,0,0
15991,2023-01-20 10:50:38.780506,158868163,1505,1506,1505,1505,1054,1506,1054,1054,0,0,0,0,0,0
16026,2023-01-20 10:50:38.889117,158967956,1506,1505,1505,1505,1055,1505,1054,1054,0,0,0,0,0,0
16059,2023-01-20 10:50:39.000439,159068349,1505,1505,1505,1506,1054,1505,1054,1054,0,0,0,0,0,0
16091,2023-01-20 10:50:39.091102,159167977,1506,1505,1505,1505,1055,1505,1054,1054,0,0,0,0,0,0
16123,2023-01-20 10:50:39.182257,159268146,1505,1505,1505,1506,1054,1505,1054,1054,0,0,0,0,0,0
16155,2023-01-20 10:50:39.280285,159367956,1505,1505,1505,1506,1054,1505,1054,1055,0,0,0,0,0,0
16186,2023-01-20 10:50:39.380401,159468108,1505,1506,1505,1505,1054,1506,1054,1054,0,0,0,0,0,0
16220,2023-01-20 10:50:39.480219,159567946,1506,1505,1505,1505,1055,1505,1054,1054,0,0,0,0,0,0
16253,2023-01-20 10:50:39.580603,159668346,1505,1505,1505,1505,1055,1505,1054,1055,0,0,0,0,0,0
16286,2023-01-20 10:50:39.680213,159768006,1505,1505,1505,1506,1054,1505,1055,1054,0,0,0,0,0,0
16317,2023-01-20 10:50:39.780202,159868053,1505,1505,1505,1505,1055,1505,1054,1055,0,0,0,0,0,0
16351,2023-01-20 10:50:39.880088,159967946,1505,1505,1505,1506,1054,1505,1055,1054,0,0,0,0,0,0
16382,2023-01-20 10:50:39.980121,160067974,1505,1506,1505,1505,1054,1505,1055,1054,0,0,0,0,0,0
16416,2023-01-20 10:50:40.080174,160167982,1506,1505,1505,1505,1054,1506,1054,1054,0,0,0,0,0,0
16448,2023-01-20 10:50:40.180198,160267951,1505,1505,1505,1505,1055,1505,1054,1055,0,0,0,0,0,0
16480,2023-01-20 10:50:40.280228,160368011,1505,1505,1505,1506,1054,1505,1054,1055,0,0,0,0,0,0
16511,2023-01-20 10:50:40.380108,160467943,1505,1505,1505,1505,1055,1505,1054,1055,0,0,0,0,0,0
16545,2023-01-20 10:50:40.480119,160567953,1505,1505,1505,1506,1054,1505,1054,1055,0,0,0,0,0,0
16579,2023-01-20 10:50:40.580421,160668243,1505,1505,1506,1505,1054,1505,1054,1055,0,0,0,0,0,0
16612,2023-01-20 10:50:40.680144,160767949,1505,1506,1505,1505,1054,1506,1054,1054,0,0,0,0,0,0
16643,2023-01-20 10:50:40.780181,160867968,1506,1505,1505,1505,1055,1505,1054,1054,0,0,0,0,0,0
16677,2023-01-20 10:50:40.880126,160967944,1505,1505,1505,1506,1054,1505,1054,1055,0,0,0,0,0,0
16708,2023-01-20 10:50:40.980156,161068017,1505,1505,1506,1505,1054,1505,1054,1055,0,0,0,0,0,0
16742,2023-01-20 10:50:41.080166,161167988,1505,1505,1505,1506,1054,1505,1054,1054,0,0,0,0,0,0
16774,2023-01-20 10:50:41.180182,161267945,1505,1505,1506,1505,1054,1505,1055,1054,0,0,0,0,0,0
16806,2023-01-20 10:50:41.280224,161367971,1505,1506,1505,1505,1054,1506,1054,1054,0,0,0,0,0,0
16837,2023-01-20 10:50:41.380213,161467953,1505,1505,1505,1505,1055,1505,1054,1055,0,0,0,0,0,0
16871,2023-01-20 10:50:41.480175,161567948,1505,1505,1505,1506,1054,1505,1054,1055,0,0,0,0,0,0
16905,2023-01-20 10:50:41.580565,161668380,1505,1506,1505,1505,1054,1506,1054,1054,0,0,0,0,0,0
16938,2023-01-20 10:50:41.680174,161767965,1505,1505,1505,1506,1054,1505,1055,1054,0,0,0,0,0,0
16969,2023-01-20 10:50:41.780209,161867961,1505,1506,1505,1505,1054,1506,1054,1054,0,0,0,0,0,0
17003,2023-01-20 10:50:41.880157,161967943,1505,1505,1505,1505,1054,1506,1054,1054,0,0,0,0,0,0
17034,2023-01-20 10:50:41.980111,162067949,1505,1505,1505,1506,1054,1505,1054,1055,0,0,0,0,0,0
17068,2023-01-20 10:50:42.080169,162167978,1505,1506,1505,1505,1054,1505,1055,1054,0,0,0,0,0,0
17100,2023-01-20 10:50:42.180183,162267943,1506,1505,1505,1505,1055,1505,1054,1054,0,0,0,0,0,0
17132,2023-01-20 10:50:42.280231,162368020,1505,1505,1505,1506,1054,1505,1054,1055,0,0,0,0,0,0
17163,2023-01-20 10:50:42.380109,162467946,1506,1505,1505,1505,1054,1506,1054,1054,0,0,0,0,0,0
17197,2023-01-20 10:50:42.480099,162567934,1505,1505,1505,1506,1054,1505,1054,1055,0,0,0,0,0,0
17231,2023-01-20 10:50:42.580398,162668219,1505,1505,1506,1505,1054,1505,1055,1054,0,0,0,0,0,0
17264,2023-01-20 10:50:42.680125,162767945,1505,1506,1505,1505,1054,1506,1054,1054,0,0,0,0,0,0
17295,2023-01-20 10:50:42.780138,162867961,1505,1505,1505,1505,1055,1505,1054,1055,0,0,0,0,0,0
17329,2023-01-20 10:50:42.880141,162967994,1505,1505,1505,1506,1054,1505,1054,1055,0,0,0,0,0,0
17360,2023-01-20 10:50:42.980056,163067946,1505,1505,1505,1505,1055,1505,1054,1055,0,0,0,0,0,0
17394,2023-01-20 10:50:43.080142,163167977,1505,1505,1505,1506,1054,1505,1055,1054,0,0,0,0,0,0
17426,2023-01-20 10:50:43.180188,163267945,1505,1506,1505,1505,1054,1506,1054,1054,0,0,0,0,0,0
17458,2023-01-20 10:50:43.280231,163367973,1506,1505,1505,1505,1054,1506,1054,1054,0,0,0,0,0,0
17489,2023-01-20 10:50:43.380203,163467944,1505,1505,1505,1506,1054,1505,1054,1055,0,0,0,0,0,0
17524,2023-01-20 10:50:43.480181,163567957,1505,1505,1506,1505,1054,1505,1055,1054,0,0,0,0,0,0
17558,2023-01-20 10:50:43.580400,163668220,1505,1505,1505,1506,1054,1505,1054,1054,0,0,0,0,0,0
17591,2023-01-20 10:50:43.680120,163767946,1505,1505,1506,1505,1054,1505,1055,1054,0,0,0,0,0,0
17622,2023-01-20 10:50:43.780137,163867960,1505,1506,1505,1505,1054,1506,1054,1054,0,0,0,0,0,0
17658,2023-01-20 10:50:43.880105,163967941,1505,1505,1505,1505,1055,1505,1054,1055,0,0,0,0,0,0
17689,2023-01-20 10:50:43.980088,164067942,1505,1505,1506,1505,1054,1505,1054,1055,0,0,0,0,0,0
17723,2023-01-20 10:50:44.080161,164167974,1505,1506,1505,1505,1054,1506,1054,1054,0,0,0,0,0,0
17755,2023-01-20 10:50:44.180225,164267983,1506,1505,1505,1505,1055,1505,1054,1054,0,0,0,0,0,0
17787,2023-01-20 10:50:44.280218,164367965,1505,1506,1505,1505,1054,1506,1054,1054,0,0,0,0,0,0
17818,2023-01-20 10:50:44.380194,164467942,1506,1505,1505,1505,1055,1505,1054,1054,0,0,0,0,0,0
17853,2023-01-20 10:50:44.480190,164567938,1505,1505,1505,1506,1054,1505,1054,1055,0,0,0,0,0,0
17887,2023-01-20 10:50:44.580256,164668005,1505,1506,1505,1505,1054,1506,1054,1054,0,0,0,0,0,0
17920,2023-01-20 10:50:44.680193,164767955,1505,1505,1505,1505,1055,1505,1054,1054,0,0,0,0,0,0
17951,2023-01-20 10:50:44.780178,164867957,1505,1505,1505,1506,1054,1505,1055,1054,0,0,0,0,0,0
17985,2023-01-20 10:50:44.880162,164967990,1505,1506,1505,1505,1054,1506,1054,1054,0,0,0,0,0,0
18016,2023-01-20 10:50:44.980062,165067947,1505,1505,1506,1505,1054,1505,1055,1054,0,0,0,0,0,0
18050,2023-01-20 10:50:45.080153,165167979,1506,1505,1505,1505,1054,1506,1054,1054,0,0,0,0,0,0
18082,2023-01-20 10:50:45.180213,165267950,1505,1505,1505,1505,1055,1505,1054,1054,0,0,0,0,0,0
18114,2023-01-20 10:50:45.280237,165367969,1505,1505,1505,1506,1054,1505,1055,1054,0,0,0,0,0,0
18145,2023-01-20 10:50:45.380200,165467947,1505,1506,1505,1505,1054,1506,1054,1054,0,0,0,0,0,0
18179,2023-01-20 10:50:45.480202,165567989,1506,1505,1505,1505,1055,1505,1054,1054,0,0,0,0,0,0
18213,2023-01-20 10:50:45.580178,165668010,1505,1506,1505,1505,1054,1506,1054,1054,0,0,0,0,0,0
18246,2023-01-20 10:50:45.680139,165767942,1506,1505,1505,1505,1055,1505,1054,1054,0,0,0,0,0,0
18277,2023-01-20 10:50:45.780203,165867959,1505,1505,1505,1506,1054,1505,1054,1055,0,0,0,0,0,0
18311,2023-01-20 10:50:45.880165,165967949,1505,1505,1505,1506,1054,1505,1054,1055,0,0,0,0,0,0
18342,2023-01-20 10:50:45.980118,166067949,1505,1506,1505,1505,1054,1506,1054,1054,0,0,0,0,0,0
18376,2023-01-20 10:50:46.080167,166167997,1506,1505,1505,1505,1055,1505,1054,1054,0,0,0,0,0,0
18408,2023-01-20 10:50:46.180166,166267984,1505,1505,1505,1506,1054,1505,1054,1055,0,0,0,0,0,0
18440,2023-01-20 10:50:46.280193,166367968,1506,1505,1505,1505,1055,1505,1054,1054,0,0,0,0,0,0
18471,2023-01-20 10:50:46.380214,166467938,1505,1505,1505,1505,1055,1505,1054,1054,0,0,0,0,0,0
18505,2023-01-20 10:50:46.480214,166567941,1505,1505,1505,1506,1054,1505,1054,1055,0,0,0,0,0,0
18539,2023-01-20 10:50:46.580252,166667996,1505,1505,1506,1505,1054,1505,1055,1054,0,0,0,0,0,0
18572,2023-01-20 10:50:46.680169,166767946,1505,1506,1505,1505,1054,1506,1054,1054,0,0,0,0,0,0
18603,2023-01-20 10:50:46.780195,166868009,1505,1505,1505,1505,1055,1505,1054,1054,0,0,0,0,0,0
18637,2023-01-20 10:50:46.872896,166967955,1505,1506,1505,1505,1054,1506,1054,1054,0,0,0,0,0,0
18668,2023-01-20 10:50:46.963844,167067932,1506,1505,1505,1505,1054,1506,1054,1054,0,0,0,0,0,0
18702,2023-01-20 10:50:47.060316,167167972,1505,1505,1505,1506,1054,1505,1054,1055,0,0,0,0,0,0
18734,2023-01-20 10:50:47.160330,167267949,1505,1505,1506,1505,1054,1505,1055,1054,0,0,0,0,0,0
18766,2023-01-20 10:50:47.260372,167367974,1505,1506,1505,1505,1054,1506,1054,1054,0,0,0,0,0,0
18797,2023-01-20 10:50:47.360349,167467948,1505,1505,1505,1505,1055,1505,1054,1055,0,0,0,0,0,0
18830,2023-01-20 10:50:47.460397,167567996,1505,1505,1505,1506,1054,1505,1054,1055,0,0,0,0,0,0
18864,2023-01-20 10:50:47.560382,167667984,1505,1505,1505,1505,1055,1505,1054,1055,0,0,0,0,0,0
18897,2023-01-20 10:50:47.660364,167767954,1505,1505,1506,1505,1054,1505,1055,1054,0,0,0,0,0,0
18928,2023-01-20 10:50:47.760398,167867967,1506,1505,1505,1505,1054,1506,1054,1054,0,0,0,0,0,0
18962,2023-01-20 10:50:47.860361,167967945,1505,1505,1505,1506,1054,1505,1054,1054,0,0,0,0,0,0
18993,2023-01-20 10:50:47.960319,168067943,1504,1505,1506,1505,1054,1505,1055,1054,0,0,0,0,0,0
19027,2023-01-20 10:50:48.060387,168168027,1506,1505,1505,1505,1054,1506,1054,1054,0,0,0,0,0,0
19059,2023-01-20 10:50:48.160305,168267945,1505,1506,1505,1505,1054,1506,1054,1054,0,0,0,0,0,0
19091,2023-01-20 10:50:48.260341,168368001,1505,1505,1505,1505,1055,1505,1054,1054,0,0,0,0,0,0
19122,2023-01-20 10:50:48.360248,168467941,1505,1505,1505,1506,1054,1505,1054,1055,0,0,0,0,0,0
19156,2023-01-20 10:50:48.460234,168567948,1505,1506,1505,1505,1054,1505,1055,1054,0,0,0,0,0,0
19191,2023-01-20 10:50:48.560282,168668009,1506,1505,1505,1505,1055,1505,1054,1054,0,0,0,0,0,0
19224,2023-01-20 10:50:48.660207,168767959,1505,1505,1505,1506,1054,1505,1054,1054,0,0,0,0,0,0
19255,2023-01-20 10:50:48.760222,168868009,1505,1505,1506,1505,1054,1505,1055,1054,0,0,0,0,0,0
19291,2023-01-20 10:50:48.860429,168968258,1505,1505,1505,1506,1054,1505,1054,1054,0,0,0,0,0,0
19322,2023-01-20 10:50:48.960046,169067923,1505,1505,1506,1505,1054,1505,1054,1055,0,0,0,0,0,0
19356,2023-01-20 10:50:49.060125,169167992,1506,1505,1505,1505,1054,1506,1054,1054,0,0,0,0,0,0
19388,2023-01-20 10:50:49.160128,169267946,1505,1505,1505,1505,1055,1505,1054,1055,0,0,0,0,0,0
19420,2023-01-20 10:50:49.260204,169367967,1505,1505,1506,1505,1054,1505,1055,1054,0,0,0,0,0,0
19451,2023-01-20 10:50:49.360294,169467997,1506,1505,1505,1505,1054,1506,1054,1054,0,0,0,0,0,0
19485,2023-01-20 10:50:49.460214,169567942,1505,1506,1505,1505,1054,1506,1054,1054,0,0,0,0,0,0
19519,2023-01-20 10:50:49.560181,169667991,1506,1505,1505,1505,1055,1505,1054,1054,0,0,0,0,0,0
19552,2023-01-20 10:50:49.660130,169767943,1505,1505,1505,1506,1054,1505,1055,1054,0,0,0,0,0,0
19583,2023-01-20 10:50:49.760198,169867960,1505,1506,1505,1505,1054,1506,1054,1054,0,0,0,0,0,0
19617,2023-01-20 10:50:49.860180,169967953,1505,1505,1505,1505,1055,1505,1054,1055,0,0,0,0,0,0
19648,2023-01-20 10:50:49.960123,170067947,1505,1505,1506,1505,1054,1505,1055,1054,0,0,0,0,0,0
19682,2023-01-20 10:50:50.060168,170168018,1506,1505,1505,1505,1055,1505,1054,1054,0,0,0,0,0,0
19756,2023-01-20 10:50:50.160084,170267943,1505,1506,1505,1505,1054,1506,1054,1054,0,0,0,0,0,0
19788,2023-01-20 10:50:50.260115,170367951,1505,1505,1505,1505,1055,1505,1054,1054,0,0,0,0,0,0
19819,2023-01-20 10:50:50.360148,170467941,1505,1505,1506,1505,1054,1505,1055,1054,0,0,0,0,0,0
19853,2023-01-20 10:50:50.460180,170567945,1505,1505,1505,1505,1054,1506,1054,1054,0,0,0,0,0,0
19887,2023-01-20 10:50:50.560235,170667983,1505,1505,1505,1506,1054,1505,1055,1054,0,0,0,0,0,0
19920,2023-01-20 10:50:50.660247,170767989,1506,1505,1505,1505,1054,1506,1054,1054,0,0,0,0,0,0
19951,2023-01-20 10:50:50.760256,170868000,1505,1505,1505,1506,1054,1505,1054,1055,0,0,0,0,0,0
19985,2023-01-20 10:50:50.860153,170967942,1505,1505,1505,1506,1054,1505,1054,1055,0,0,0,0,0,0
20016,2023-01-20 10:50:50.960081,171067942,1505,1506,1505,1505,1054,1506,1054,1054,0,0,0,0,0,0
20050,2023-01-20 10:50:51.060142,171167988,1505,1505,1505,1505,1055,1505,1054,1055,0,0,0,0,0,0
20082,2023-01-20 10:50:51.160175,171267948,1505,1505,1506,1505,1054,1505,1055,1054,0,0,0,0,0,0
20114,2023-01-20 10:50:51.260233,171367979,1505,1505,1505,1505,1055,1505,1054,1055,0,0,0,0,0,0
20145,2023-01-20 10:50:51.360233,171467982,1505,1505,1506,1505,1054,1505,1055,1054,0,0,0,0,0,0
20179,2023-01-20 10:50:51.460175,171567954,1505,1505,1505,1506,1054,1505,1054,1055,0,0,0,0,0,0
20213,2023-01-20 10:50:51.560171,171667997,1506,1505,1505,1505,1054,1506,1054,1054,0,0,0,0,0,0
20246,2023-01-20 10:50:51.660133,171767943,1505,1505,1505,1506,1054,1505,1054,1054,0,0,0,0,0,0
20277,2023-01-20 10:50:51.760212,171867963,1505,1506,1505,1505,1054,1506,1054,1054,0,0,0,0,0,0
20311,2023-01-20 10:50:51.860171,171967938,1505,1505,1505,1505,1055,1505,1054,1054,0,0,0,0,0,0
20342,2023-01-20 10:50:51.960150,172067983,1505,1505,1505,1506,1054,1505,1055,1054,0,0,0,0,0,0
20376,2023-01-20 10:50:52.060187,172168047,1505,1506,1505,1505,1054,1506,1054,1054,0,0,0,0,0,0
20408,2023-01-20 10:50:52.160088,172267951,1505,1506,1505,1505,1054,1505,1055,1054,0,0,0,0,0,0
20440,2023-01-20 10:50:52.260126,172367964,1506,1505,1505,1505,1054,1506,1054,1054,0,0,0,0,0,0
20471,2023-01-20 10:50:52.360146,172467940,1505,1505,1505,1506,1054,1505,1054,1055,0,0,0,0,0,0
20505,2023-01-20 10:50:52.460184,172567951,1505,1506,1505,1505,1054,1506,1054,1054,0,0,0,0,0,0
20539,2023-01-20 10:50:52.560254,172668004,1505,1505,1505,1505,1055,1505,1054,1054,0,0,0,0,0,0
20572,2023-01-20 10:50:52.660206,172767982,1505,1505,1505,1506,1054,1505,1055,1054,0,0,0,0,0,0
20603,2023-01-20 10:50:52.760147,172867977,1505,1505,1505,1506,1054,1505,1054,1054,0,0,0,0,0,0
20637,2023-01-20 10:50:52.860091,172967944,1505,1506,1505,1505,1054,1505,1055,1054,0,0,0,0,0,0
20668,2023-01-20 10:50:52.960085,173067940,1505,1505,1505,1505,1055,1505,1054,1054,0,0,0,0,0,0
20702,2023-01-20 10:50:53.060159,173167991,1505,1505,1505,1506,1054,1505,1054,1055,0,0,0,0,0,0
20734,2023-01-20 10:50:53.160148,173267941,1505,1506,1505,1505,1054,1506,1054,1054,0,0,0,0,0,0
20766,2023-01-20 10:50:53.260196,173367965,1505,1505,1505,1505,1055,1505,1054,1054,0,0,0,0,0,0
20797,2023-01-20 10:50:53.360243,173467998,1505,1505,1506,1505,1054,1505,1055,1054,0,0,0,0,0,0
20831,2023-01-20 10:50:53.460165,173567944,1505,1505,1505,1506,1054,1505,1055,1054,0,0,0,0,0,0
20865,2023-01-20 10:50:53.560171,173667999,1505,1506,1505,1505,1054,1506,1054,1054,0,0,0,0,0,0
20899,2023-01-20 10:50:53.660166,173767975,1505,1505,1505,1505,1055,1505,1054,1055,0,0,0,0,0,0
20930,2023-01-20 10:50:53.760226,173867971,1505,1505,1506,1505,1054,1505,1055,1054,0,0,0,0,0,0
20966,2023-01-20 10:50:53.860512,173968273,1506,1505,1505,1505,1054,1506,1054,1054,0,0,0,0,0,0
20997,2023-01-20 10:50:53.960155,174067983,1505,1505,1505,1505,1055,1505,1054,1055,0,0,0,0,0,0
21031,2023-01-20 10:50:54.054666,174167998,1506,1505,1505,1505,1054,1506,1054,1054,0,0,0,0,0,0
21063,2023-01-20 10:50:54.145509,174267943,1505,1505,1505,1506,1054,1505,1054,1055,0,0,0,0,0,0
21095,2023-01-20 10:50:54.244556,174367961,1505,1505,1506,1505,1054,1505,1055,1054,0,0,0,0,0,0
21126,2023-01-20 10:50:54.355748,174467950,1505,1506,1505,1505,1054,1506,1054,1054,0,0,0,0,0,0
21161,2023-01-20 10:50:54.460186,174567940,1505,1505,1505,1505,1055,1505,1054,1055,0,0,0,0,0,0
21195,2023-01-20 10:50:54.560221,174667993,1505,1505,1505,1506,1054,1505,1054,1055,0,0,0,0,0,0
21228,2023-01-20 10:50:54.660189,174767989,1505,1506,1505,1505,1054,1506,1054,1054,0,0,0,0,0,0
21259,2023-01-20 10:50:54.760130,174867964,1505,1505,1505,1506,1054,1505,1055,1054,0,0,0,0,0,0
21293,2023-01-20 10:50:54.860087,174967940,1505,1506,1505,1505,1054,1506,1054,1054,0,0,0,0,0,0
21324,2023-01-20 10:50:54.960080,175067942,1506,1505,1505,1505,1055,1505,1054,1054,0,0,0,0,0,0
21358,2023-01-20 10:50:55.060144,175167982,1505,1505,1505,1506,1054,1505,1054,1054,0,0,0,0,0,0
21390,2023-01-20 10:50:55.160164,175267958,1505,1505,1506,1505,1054,1505,1055,1054,0,0,0,0,0,0
21422,2023-01-20 10:50:55.260206,175368012,1505,1506,1505,1505,1054,1506,1054,1054,0,0,0,0,0,0
21453,2023-01-20 10:50:55.360094,175467950,1505,1506,1505,1505,1054,1505,1055,1054,0,0,0,0,0,0
21487,2023-01-20 10:50:55.460110,175567948,1506,1505,1505,1505,1055,1505,1054,1054,0,0,0,0,0,0
21521,2023-01-20 10:50:55.560212,175667988,1505,1505,1505,1506,1054,1505,1054,1054,0,0,0,0,0,0
21554,2023-01-20 10:50:55.660218,175767966,1505,1505,1506,1505,1054,1505,1055,1054,0,0,0,0,0,0
21585,2023-01-20 10:50:55.760216,175867959,1505,1506,1505,1505,1054,1506,1054,1054,0,0,0,0,0,0
21619,2023-01-20 10:50:55.860177,175967951,1505,1505,1505,1505,1055,1505,1054,1055,0,0,0,0,0,0
21650,2023-01-20 10:50:55.960165,176067995,1505,1505,1505,1506,1054,1505,1055,1054,0,0,0,0,0,0
21684,2023-01-20 10:50:56.060120,176167979,1505,1505,1505,1505,1055,1505,1054,1054,0,0,0,0,0,0
21716,2023-01-20 10:50:56.160080,176267950,1505,1505,1506,1505,1054,1505,1055,1054,0,0,0,0,0,0
21748,2023-01-20 10:50:56.254634,176367975,1505,1506,1505,1505,1054,1506,1054,1054,0,0,0,0,0,0
21779,2023-01-20 10:50:56.345516,176467949,1505,1505,1505,1505,1055,1505,1054,1055,0,0,0,0,0,0
21813,2023-01-20 10:50:56.440058,176567949,1505,1505,1505,1506,1054,1505,1055,1054,0,0,0,0,0,0
21847,2023-01-20 10:50:56.540129,176668039,1505,1506,1505,1505,1054,1506,1054,1054,0,0,0,0,0,0
21880,2023-01-20 10:50:56.640030,176767951,1505,1505,1506,1505,1054,1505,1055,1054,0,0,0,0,0,0
21911,2023-01-20 10:50:56.740041,176867961,1506,1505,1505,1505,1054,1506,1054,1054,0,0,0,0,0,0
21945,2023-01-20 10:50:56.840003,176967941,1505,1505,1505,1505,1055,1505,1054,1054,0,0,0,0,0,0
21976,2023-01-20 10:50:56.939966,177067950,1505,1505,1506,1505,1054,1505,1055,1054,0,0,0,0,0,0
22010,2023-01-20 10:50:57.044460,177167974,1505,1506,1505,1505,1054,1506,1054,1054,0,0,0,0,0,0
22042,2023-01-20 10:50:57.155684,177267945,1505,1505,1505,1505,1055,1505,1054,1055,0,0,0,0,0,0
22074,2023-01-20 10:50:57.254725,177368016,1505,1505,1506,1505,1054,1505,1055,1054,0,0,0,0,0,0
22104,2023-01-20 10:50:57.345515,177467951,1505,1505,1505,1506,1054,1505,1054,1054,0,0,0,0,0,0
22138,2023-01-20 10:50:57.440006,177567943,1505,1506,1505,1505,1054,1505,1055,1054,0,0,0,0,0,0
22172,2023-01-20 10:50:57.540029,177667997,1506,1505,1505,1505,1054,1506,1054,1054,0,0,0,0,0,0
22205,2023-01-20 10:50:57.639967,177767947,1505,1505,1505,1506,1054,1505,1054,1055,0,0,0,0,0,0
22236,2023-01-20 10:50:57.740010,177867972,1505,1506,1505,1505,1054,1506,1054,1054,0,0,0,0,0,0
22270,2023-01-20 10:50:57.840028,177968006,1505,1505,1505,1505,1055,1505,1054,1054,0,0,0,0,0,0
22301,2023-01-20 10:50:57.939903,178067949,1505,1506,1505,1505,1054,1506,1054,1054,0,0,0,0,0,0
22335,2023-01-20 10:50:58.039889,178167971,1505,1505,1505,1505,1055,1505,1054,1054,0,0,0,0,0,0
22367,2023-01-20 10:50:58.139880,178267951,1505,1505,1505,1506,1054,1505,1054,1055,0,0,0,0,0,0
22399,2023-01-20 10:50:58.239896,178367963,1505,1506,1505,1505,1054,1506,1054,1054,0,0,0,0,0,0
22430,2023-01-20 10:50:58.339866,178467942,1505,1505,1505,1505,1055,1505,1054,1054,0,0,0,0,0,0
22464,2023-01-20 10:50:58.439881,178567950,1505,1505,1505,1506,1054,1505,1054,1054,0,0,0,0,0,0
22498,2023-01-20 10:50:58.540004,178668042,1505,1506,1505,1505,1054,1505,1055,1054,0,0,0,0,0,0
22531,2023-01-20 10:50:58.639919,178767941,1505,1505,1505,1506,1054,1505,1054,1055,0,0,0,0,0,0
22563,2023-01-20 10:50:58.739949,178867978,1505,1506,1505,1505,1054,1505,1055,1054,0,0,0,0,0,0
22597,2023-01-20 10:50:58.839897,178967950,1506,1505,1505,1505,1054,1506,1054,1054,0,0,0,0,0,0
22630,2023-01-20 10:50:58.939842,179067945,1505,1505,1505,1506,1054,1505,1054,1054,0,0,0,0,0,0
22664,2023-01-20 10:50:59.039858,179167977,1505,1505,1506,1505,1054,1505,1055,1054,0,0,0,0,0,0
22696,2023-01-20 10:50:59.139908,179267993,1506,1505,1505,1505,1054,1506,1054,1054,0,0,0,0,0,0
22728,2023-01-20 10:50:59.239897,179367963,1505,1505,1506,1505,1054,1505,1055,1054,0,0,0,0,0,0
22759,2023-01-20 10:50:59.339881,179467950,1506,1505,1505,1505,1054,1506,1054,1054,0,0,0,0,0,0
