LineNo,UTC_Approx,TimeUS,C1,C2,C3,C4,C5,C6,C7,C8,C9,C10,C11,C12,C13,C14
377,2023-01-20 10:49:56.259280,116248296,1000,1000,1000,1000,1000,0,0,0,0,0,0,0,0,0
967,2023-01-20 10:49:56.350267,116348331,1000,1000,1000,1000,1000,0,0,0,0,0,0,0,0,0
1125,2023-01-20 10:49:56.452258,116454800,1000,1000,1000,1000,1000,0,0,0,0,0,0,0,0,0
1344,2023-01-20 10:49:56.564913,116566446,1000,1000,1000,1000,1000,0,0,0,0,0,0,0,0,0
1564,2023-01-20 10:49:56.665778,116667244,1000,1000,1000,1000,1000,0,0,0,0,0,0,0,0,0
1884,2023-01-20 10:49:56.765376,116767217,1000,1000,1000,1000,1000,0,0,0,0,0,0,0,0,0
1929,2023-01-20 10:49:56.865260,116867231,1000,1000,1000,1000,1000,0,0,0,0,0,0,0,0,0
1977,2023-01-20 10:49:56.965234,116967206,1000,1000,1000,1000,1000,0,0,0,0,0,0,0,0,0
2027,2023-01-20 10:49:57.065270,117067229,1000,1000,1000,1000,1000,0,0,0,0,0,0,0,0,0
2073,2023-01-20 10:49:57.165306,117167244,1000,1000,1000,1000,1000,0,0,0,0,0,0,0,0,0
2123,2023-01-20 10:49:57.272468,117267203,1000,1000,1000,1000,1000,0,0,0,0,0,0,0,0,0
2182,2023-01-20 10:49:57.383528,117367235,1000,1000,1000,1000,1000,0,0,0,0,0,0,0,0,0
2238,2023-01-20 10:49:57.477440,117467251,1000,1000,1000,1000,1000,0,0,0,0,0,0,0,0,0
2297,2023-01-20 10:49:57.568269,117567158,1000,1000,1000,1000,1000,0,0,0,0,0,0,0,0,0
2353,2023-01-20 10:49:57.665164,117667239,1000,1000,1000,1000,1000,0,0,0,0,0,0,0,0,0
2411,2023-01-20 10:49:57.765188,117767284,1000,1000,1000,1000,1000,0,0,0,0,0,0,0,0,0
2454,2023-01-20 10:49:57.865105,117867229,1000,1000,1000,1000,1000,0,0,0,0,0,0,0,0,0
2499,2023-01-20 10:49:57.965004,117967158,1000,1000,1000,1000,1000,0,0,0,0,0,0,0,0,0
2538,2023-01-20 10:49:58.065141,118067251,1000,1000,1000,1000,1000,0,0,0,0,0,0,0,0,0
2580,2023-01-20 10:49:58.165216,118167244,1006,1006,1006,1006,1000,0,0,0,0,0,0,0,0,0
2620,2023-01-20 10:49:58.265192,118267211,1036,1036,1036,1036,1000,0,0,0,0,0,0,0,0,0
2660,2023-01-20 10:49:58.365182,118367231,1066,1066,1066,1066,1000,0,0,0,0,0,0,0,0,0
2699,2023-01-20 10:49:58.465203,118467264,1096,1096,1096,1096,1000,0,0,0,0,0,0,0,0,0
2740,2023-01-20 10:49:58.565147,118567210,1100,1100,1100,1100,1000,0,0,0,0,0,0,0,0,0
2782,2023-01-20 10:49:58.665156,118667237,1100,1100,1100,1100,1000,0,0,0,0,0,0,0,0,0
2821,2023-01-20 10:49:58.765166,118767274,1100,1100,1100,1100,1000,0,0,0,0,0,0,0,0,0
2865,2023-01-20 10:49:58.865115,118867231,1100,1100,1100,1100,1000,0,0,0,0,0,0,0,0,0
2904,2023-01-20 10:49:58.965039,118967154,1122,1122,1122,1122,1000,0,0,0,0,0,0,0,0,0
2943,2023-01-20 10:49:59.065155,119067252,1162,1150,1208,1193,1000,0,0,0,0,0,0,0,0,0
2984,2023-01-20 10:49:59.165172,119167242,1150,1171,1216,1239,1000,0,0,0,0,0,0,0,0,0
3023,2023-01-20 10:49:59.265089,119267151,1150,1151,1206,1206,1000,0,0,0,0,0,0,0,0,0
3062,2023-01-20 10:49:59.365162,119367225,1159,1150,1219,1209,1000,0,0,0,0,0,0,0,0,0
3102,2023-01-20 10:49:59.465180,119467247,1160,1150,1216,1209,1000,0,0,0,0,0,0,0,0,0
3143,2023-01-20 10:49:59.565141,119567212,1152,1150,1229,1227,1000,0,0,0,0,0,0,0,0,0
3184,2023-01-20 10:49:59.665159,119667243,1164,1150,1222,1209,1000,0,0,0,0,0,0,0,0,0
3223,2023-01-20 10:49:59.765174,119767277,1171,1150,1222,1207,1000,0,0,0,0,0,0,0,0,0
3262,2023-01-20 10:49:59.865107,119867219,1150,1160,1203,1215,1000,0,0,0,0,0,0,0,0,0
3301,2023-01-20 10:49:59.965096,119967213,1152,1150,1216,1214,1000,0,0,0,0,0,0,0,0,0
3340,2023-01-20 10:50:00.065136,120067237,1165,1150,1221,1209,1000,0,0,0,0,0,0,0,0,0
3382,2023-01-20 10:50:00.165167,120167241,1150,1155,1217,1223,1000,0,0,0,0,0,0,0,0,0
3421,2023-01-20 10:50:00.265082,120267152,1150,1154,1209,1209,1000,0,0,0,0,0,0,0,0,0
3460,2023-01-20 10:50:00.365148,120367226,1162,1150,1216,1205,1000,0,0,0,0,0,0,0,0,0
3500,2023-01-20 10:50:00.465137,120467213,1150,1151,1213,1217,1000,0,0,0,0,0,0,0,0,0
3540,2023-01-20 10:50:00.565147,120567217,1163,1150,1224,1215,1000,0,0,0,0,0,0,0,0,0
3583,2023-01-20 10:50:00.665156,120667231,1166,1150,1224,1211,1000,0,0,0,0,0,0,0,0,0
3622,2023-01-20 10:50:00.765184,120767271,1150,1166,1220,1234,1000,0,0,0,0,0,0,0,0,0
3663,2023-01-20 10:50:00.865118,120867221,1150,1150,1216,1214,1000,0,0,0,0,0,0,0,0,0
3700,2023-01-20 10:50:00.965035,120967157,1163,1150,1221,1207,1000,0,0,0,0,0,0,0,0,0
3732,2023-01-20 10:50:01.065153,121067277,1160,1150,1225,1219,1000,0,0,0,0,0,0,0,0,0
3765,2023-01-20 10:50:01.165170,121167287,1187,1150,1234,1206,1000,0,0,0,0,0,0,0,0,0
3797,2023-01-20 10:50:01.265113,121267263,1224,1211,1282,1271,1000,0,0,0,0,0,0,0,0,0
3828,2023-01-20 10:50:01.365128,121367332,1300,1307,1337,1345,1000,0,0,0,0,0,0,0,0,0
3860,2023-01-20 10:50:01.465069,121467258,1368,1398,1379,1408,1000,0,0,0,0,0,0,0,0,0
3893,2023-01-20 10:50:01.565125,121567263,1437,1437,1458,1458,1000,0,0,0,0,0,0,0,0,0
3928,2023-01-20 10:50:01.665215,121667334,1481,1454,1545,1520,1000,0,0,0,0,0,0,0,0,0
3959,2023-01-20 10:50:01.765457,121767574,1507,1529,1579,1582,1000,0,0,0,0,0,0,0,0,0
3992,2023-01-20 10:50:01.865407,121867572,1609,1530,1641,1599,1000,0,0,0,0,0,0,0,0,0
4024,2023-01-20 10:50:01.965365,121967606,1676,1600,1654,1618,1000,0,0,0,0,0,0,0,0,0
4056,2023-01-20 10:50:02.065347,122067571,1597,1610,1602,1654,1000,0,0,0,0,0,0,0,0,0
4089,2023-01-20 10:50:02.165435,122167593,1620,1520,1611,1551,1000,0,0,0,0,0,0,0,0,0
4121,2023-01-20 10:50:02.265491,122267627,1598,1533,1590,1557,1000,0,0,0,0,0,0,0,0,0
4152,2023-01-20 10:50:02.365421,122367559,1584,1538,1573,1554,1000,0,0,0,0,0,0,0,0,0
4184,2023-01-20 10:50:02.465161,122467560,1509,1542,1549,1613,1000,0,0,0,0,0,0,0,0,0
4217,2023-01-20 10:50:02.564536,122567332,1556,1470,1599,1575,1000,0,0,0,0,0,0,0,0,0
4253,2023-01-20 10:50:02.664389,122667302,1568,1502,1573,1582,1000,0,0,0,0,0,0,0,0,0
4283,2023-01-20 10:50:02.764418,122767294,1579,1493,1585,1589,1000,0,0,0,0,0,0,0,0,0
4318,2023-01-20 10:50:02.864440,122867319,1610,1492,1600,1576,1000,0,0,0,0,0,0,0,0,0
4348,2023-01-20 10:50:02.964369,122967273,1562,1517,1592,1635,1000,0,0,0,0,0,0,0,0,0
4381,2023-01-20 10:50:03.064379,123067293,1603,1526,1597,1600,1000,0,0,0,0,0,0,0,0,0
4413,2023-01-20 10:50:03.164465,123167381,1621,1549,1583,1576,1000,0,0,0,0,0,0,0,0,0
4446,2023-01-20 10:50:03.264356,123267269,1607,1532,1615,1601,1000,0,0,0,0,0,0,0,0,0
4476,2023-01-20 10:50:03.364380,123367288,1622,1532,1617,1598,1000,0,0,0,0,0,0,0,0,0
4509,2023-01-20 10:50:03.464390,123467287,1636,1508,1624,1587,1000,0,0,0,0,0,0,0,0,0
4541,2023-01-20 10:50:03.564381,123567265,1646,1553,1598,1611,1000,0,0,0,0,0,0,0,0,0
4577,2023-01-20 10:50:03.664424,123667305,1659,1597,1572,1635,1000,0,0,0,0,0,0,0,0,0
4607,2023-01-20 10:50:03.764419,123767304,1676,1536,1646,1646,1000,0,0,0,0,0,0,0,0,0
4641,2023-01-20 10:50:03.864609,123867294,1642,1531,1649,1683,1000,0,0,0,0,0,0,0,0,0
4673,2023-01-20 10:50:03.964946,123967320,1628,1569,1612,1694,1000,0,0,0,0,0,0,0,0,0
4706,2023-01-20 10:50:04.065061,124067282,1608,1564,1601,1689,1000,0,0,0,0,0,0,0,0,0
4738,2023-01-20 10:50:04.165159,124167312,1648,1562,1585,1613,1000,0,0,0,0,0,0,0,0,0
4771,2023-01-20 10:50:04.265200,124267333,1643,1516,1609,1587,1000,0,0,0,0,0,0,0,0,0
4801,2023-01-20 10:50:04.365161,124367298,1624,1530,1570,1571,1000,0,0,0,0,0,0,0,0,0
4834,2023-01-20 10:50:04.465104,124467269,1574,1534,1586,1631,1000,0,0,0,0,0,0,0,0,0
4867,2023-01-20 10:50:04.565078,124567283,1575,1520,1625,1645,1000,0,0,0,0,0,0,0,0,0
4903,2023-01-20 10:50:04.665102,124667293,1597,1556,1611,1633,1000,0,0,0,0,0,0,0,0,0
4933,2023-01-20 10:50:04.765152,124767301,1582,1599,1586,1643,1000,0,0,0,0,0,0,0,0,0
4967,2023-01-20 10:50:04.865165,124867330,1570,1615,1576,1634,1000,0,0,0,0,0,0,0,0,0
4997,2023-01-20 10:50:04.965058,124967270,1561,1588,1598,1641,1000,0,0,0,0,0,0,0,0,0
5030,2023-01-20 10:50:05.065104,125067302,1567,1574,1588,1642,1000,0,0,0,0,0,0,0,0,0
5062,2023-01-20 10:50:05.165154,125167303,1561,1539,1613,1673,1000,0,0,0,0,0,0,0,0,0
5095,2023-01-20 10:50:05.265137,125267272,1569,1582,1559,1684,1000,0,0,0,0,0,0,0,0,0
5125,2023-01-20 10:50:05.365468,125367608,1592,1520,1602,1658,1000,0,0,0,0,0,0,0,0,0
5158,2023-01-20 10:50:05.465141,125467274,1615,1527,1583,1621,1000,0,0,0,0,0,0,0,0,0
5190,2023-01-20 10:50:05.565164,125567283,1630,1520,1591,1589,1000,0,0,0,0,0,0,0,0,0
5227,2023-01-20 10:50:05.665188,125667300,1588,1549,1577,1619,1000,0,0,0,0,0,0,0,0,0
5257,2023-01-20 10:50:05.765474,125767584,1548,1579,1556,1635,1000,0,0,0,0,0,0,0,0,0
5291,2023-01-20 10:50:05.859533,125867584,1579,1584,1545,1572,1000,0,0,0,0,0,0,0,0,0
5321,2023-01-20 10:50:05.950430,125967553,1558,1570,1576,1577,1000,0,0,0,0,0,0,0,0,0
5354,2023-01-20 10:50:06.045532,126067585,1505,1591,1575,1613,1000,0,0,0,0,0,0,0,0,0
5386,2023-01-20 10:50:06.145288,126167306,1527,1588,1589,1569,1000,0,0,0,0,0,0,0,0,0
5419,2023-01-20 10:50:06.244725,126267282,1516,1598,1591,1571,1000,0,0,0,0,0,0,0,0,0
5451,2023-01-20 10:50:06.343745,126367541,1560,1593,1583,1526,1000,0,0,0,0,0,0,0,0,0
5484,2023-01-20 10:50:06.442774,126467278,1571,1553,1597,1528,1000,0,0,0,0,0,0,0,0,0
5516,2023-01-20 10:50:06.542766,126567282,1560,1582,1580,1576,1000,0,0,0,0,0,0,0,0,0
5552,2023-01-20 10:50:06.642797,126667348,1535,1573,1575,1595,1000,0,0,0,0,0,0,0,0,0
5582,2023-01-20 10:50:06.742678,126767293,1522,1567,1555,1575,1000,0,0,0,0,0,0,0,0,0
5616,2023-01-20 10:50:06.842599,126867289,1485,1549,1577,1592,1000,0,0,0,0,0,0,0,0,0
5646,2023-01-20 10:50:06.942500,126967280,1572,1600,1552,1504,1000,0,0,0,0,0,0,0,0,0
5679,2023-01-20 10:50:07.042506,127067345,1529,1600,1577,1551,1000,0,0,0,0,0,0,0,0,0
5711,2023-01-20 10:50:07.142437,127167293,1455,1567,1609,1608,1000,0,0,0,0,0,0,0,0,0
5744,2023-01-20 10:50:07.242435,127267275,1474,1607,1582,1610,1000,0,0,0,0,0,0,0,0,0
5774,2023-01-20 10:50:07.342783,127367560,1518,1570,1624,1592,1000,0,0,0,0,0,0,0,0,0
5807,2023-01-20 10:50:07.442485,127467263,1555,1586,1595,1549,1000,0,0,0,0,0,0,0,0,0
5839,2023-01-20 10:50:07.542406,127567270,1556,1571,1609,1551,1000,0,0,0,0,0,0,0,0,0
5875,2023-01-20 10:50:07.647171,127667306,1576,1578,1617,1550,1000,0,0,0,0,0,0,0,0,0
5905,2023-01-20 10:50:07.758416,127767281,1567,1616,1581,1558,1000,0,0,0,0,0,0,0,0,0
5939,2023-01-20 10:50:07.856858,127867280,1545,1577,1633,1597,1000,0,0,0,0,0,0,0,0,0
5971,2023-01-20 10:50:07.947647,127967282,1524,1588,1626,1624,1000,0,0,0,0,0,0,0,0,0
6004,2023-01-20 10:50:08.042337,128067293,1519,1609,1599,1626,1000,0,0,0,0,0,0,0,0,0
6036,2023-01-20 10:50:08.142376,128167350,1567,1599,1603,1580,1000,0,0,0,0,0,0,0,0,0
6069,2023-01-20 10:50:08.242300,128267267,1592,1623,1598,1588,1000,0,0,0,0,0,0,0,0,0
6099,2023-01-20 10:50:08.342636,128367561,1590,1609,1595,1599,1000,0,0,0,0,0,0,0,0,0
6132,2023-01-20 10:50:08.442368,128467272,1583,1588,1602,1616,1000,0,0,0,0,0,0,0,0,0
6164,2023-01-20 10:50:08.542368,128567278,1568,1586,1608,1643,1000,0,0,0,0,0,0,0,0,0
6200,2023-01-20 10:50:08.642387,128667305,1573,1573,1617,1632,1000,0,0,0,0,0,0,0,0,0
6230,2023-01-20 10:50:08.742350,128767276,1558,1574,1620,1641,1000,0,0,0,0,0,0,0,0,0
6264,2023-01-20 10:50:08.842436,128867325,1585,1597,1612,1613,1000,0,0,0,0,0,0,0,0,0
6297,2023-01-20 10:50:08.942480,128967271,1597,1584,1617,1574,1000,0,0,0,0,0,0,0,0,0
6330,2023-01-20 10:50:09.042572,129067291,1570,1579,1617,1586,1000,0,0,0,0,0,0,0,0,0
6362,2023-01-20 10:50:09.142613,129167293,1539,1579,1620,1624,1000,0,0,0,0,0,0,0,0,0
6395,2023-01-20 10:50:09.242541,129267275,1567,1532,1649,1607,1000,0,0,0,0,0,0,0,0,0
6425,2023-01-20 10:50:09.342626,129367541,1566,1533,1617,1591,1000,0,0,0,0,0,0,0,0,0
6458,2023-01-20 10:50:09.442353,129467894,1597,1514,1611,1557,1000,0,0,0,0,0,0,0,0,0
6490,2023-01-20 10:50:09.541199,129567960,1603,1510,1604,1571,1000,0,0,0,0,0,0,0,0,0
6526,2023-01-20 10:50:09.640478,129667965,1616,1538,1565,1574,1000,0,0,0,0,0,0,0,0,0
6556,2023-01-20 10:50:09.740455,129767943,1559,1536,1547,1624,1000,0,0,0,0,0,0,0,0,0
6590,2023-01-20 10:50:09.840521,129868019,1583,1524,1555,1606,1000,0,0,0,0,0,0,0,0,0
6621,2023-01-20 10:50:09.940437,129967957,1589,1518,1567,1606,1000,0,0,0,0,0,0,0,0,0
6654,2023-01-20 10:50:10.040457,130067980,1586,1544,1550,1612,1000,0,0,0,0,0,0,0,0,0
6686,2023-01-20 10:50:10.140550,130168048,1613,1534,1552,1583,1000,0,0,0,0,0,0,0,0,0
6719,2023-01-20 10:50:10.240371,130267959,1576,1505,1570,1618,1000,0,0,0,0,0,0,0,0,0
6749,2023-01-20 10:50:10.340207,130368053,1583,1497,1581,1614,1000,0,0,0,0,0,0,0,0,0
6782,2023-01-20 10:50:10.439970,130467982,1611,1494,1586,1582,1000,0,0,0,0,0,0,0,0,0
6814,2023-01-20 10:50:10.539962,130568001,1554,1483,1608,1642,1000,0,0,0,0,0,0,0,0,0
6850,2023-01-20 10:50:10.639961,130668023,1626,1489,1612,1572,1000,0,0,0,0,0,0,0,0,0
6880,2023-01-20 10:50:10.739910,130767990,1619,1492,1622,1582,1000,0,0,0,0,0,0,0,0,0
6914,2023-01-20 10:50:10.839935,130868061,1617,1551,1597,1599,1000,0,0,0,0,0,0,0,0,0
6944,2023-01-20 10:50:10.939791,130968006,1609,1556,1589,1598,1000,0,0,0,0,0,0,0,0,0
6977,2023-01-20 10:50:11.039773,131068007,1600,1570,1566,1582,1000,0,0,0,0,0,0,0,0,0
7009,2023-01-20 10:50:11.139933,131168080,1591,1588,1555,1578,1000,0,0,0,0,0,0,0,0,0
7043,2023-01-20 10:50:11.239895,131267993,1563,1576,1569,1592,1000,0,0,0,0,0,0,0,0,0
7073,2023-01-20 10:50:11.339905,131368010,1525,1567,1588,1623,1000,0,0,0,0,0,0,0,0,0
7106,2023-01-20 10:50:11.439885,131467992,1526,1561,1604,1619,1000,0,0,0,0,0,0,0,0,0
7137,2023-01-20 10:50:11.539895,131567996,1512,1564,1598,1615,1000,0,0,0,0,0,0,0,0,0
7173,2023-01-20 10:50:11.639920,131668017,1507,1569,1579,1602,1000,0,0,0,0,0,0,0,0,0
7203,2023-01-20 10:50:11.739897,131767995,1519,1587,1550,1589,1000,0,0,0,0,0,0,0,0,0
7237,2023-01-20 10:50:11.839919,131868047,1569,1548,1570,1534,1000,0,0,0,0,0,0,0,0,0
7267,2023-01-20 10:50:11.939787,131967990,1527,1552,1544,1574,1000,0,0,0,0,0,0,0,0,0
7300,2023-01-20 10:50:12.039805,132068021,1572,1520,1572,1557,1000,0,0,0,0,0,0,0,0,0
7332,2023-01-20 10:50:12.139944,132168079,1524,1548,1529,1623,1000,0,0,0,0,0,0,0,0,0
7365,2023-01-20 10:50:12.239913,132268000,1567,1518,1548,1600,1000,0,0,0,0,0,0,0,0,0
7395,2023-01-20 10:50:12.339920,132368011,1538,1549,1536,1637,1000,0,0,0,0,0,0,0,0,0
7428,2023-01-20 10:50:12.439887,132467983,1559,1528,1571,1619,1000,0,0,0,0,0,0,0,0,0
7460,2023-01-20 10:50:12.539888,132567992,1566,1533,1567,1606,1000,0,0,0,0,0,0,0,0,0
7496,2023-01-20 10:50:12.639910,132668014,1535,1546,1561,1642,1000,0,0,0,0,0,0,0,0,0
7526,2023-01-20 10:50:12.739894,132767987,1568,1556,1564,1629,1000,0,0,0,0,0,0,0,0,0
7560,2023-01-20 10:50:12.839886,132868002,1540,1562,1573,1648,1000,0,0,0,0,0,0,0,0,0
7591,2023-01-20 10:50:12.939812,132968002,1556,1571,1573,1618,1000,0,0,0,0,0,0,0,0,0
7624,2023-01-20 10:50:13.039800,133068005,1593,1584,1556,1581,1000,0,0,0,0,0,0,0,0,0
7656,2023-01-20 10:50:13.139959,133168089,1531,1586,1549,1637,1000,0,0,0,0,0,0,0,0,0
7689,2023-01-20 10:50:13.239899,133267986,1518,1536,1602,1643,1000,0,0,0,0,0,0,0,0,0
7719,2023-01-20 10:50:13.339916,133368006,1543,1586,1579,1600,1000,0,0,0,0,0,0,0,0,0
7752,2023-01-20 10:50:13.439897,133467989,1531,1615,1574,1566,1000,0,0,0,0,0,0,0,0,0
7784,2023-01-20 10:50:13.539901,133567992,1520,1614,1599,1562,1000,0,0,0,0,0,0,0,0,0
7820,2023-01-20 10:50:13.639927,133668019,1550,1628,1598,1530,1000,0,0,0,0,0,0,0,0,0
7850,2023-01-20 10:50:13.739899,133767992,1514,1595,1611,1550,1000,0,0,0,0,0,0,0,0,0
7884,2023-01-20 10:50:13.839879,133868006,1534,1591,1606,1554,1000,0,0,0,0,0,0,0,0,0
7916,2023-01-20 10:50:13.939777,133967987,1530,1633,1557,1572,1000,0,0,0,0,0,0,0,0,0
7949,2023-01-20 10:50:14.039795,134068026,1507,1603,1560,1578,1000,0,0,0,0,0,0,0,0,0
7981,2023-01-20 10:50:14.139913,134168070,1476,1583,1584,1628,1000,0,0,0,0,0,0,0,0,0
8014,2023-01-20 10:50:14.239874,134267984,1547,1602,1599,1619,1000,0,0,0,0,0,0,0,0,0
8044,2023-01-20 10:50:14.339916,134368019,1580,1601,1615,1612,1000,0,0,0,0,0,0,0,0,0
8077,2023-01-20 10:50:14.439886,134467984,1580,1652,1574,1626,1000,0,0,0,0,0,0,0,0,0
8110,2023-01-20 10:50:14.539894,134567992,1603,1613,1608,1603,1000,0,0,0,0,0,0,0,0,0
8146,2023-01-20 10:50:14.639917,134668015,1596,1634,1583,1620,1000,0,0,0,0,0,0,0,0,0
8176,2023-01-20 10:50:14.739897,134767995,1600,1607,1611,1632,1000,0,0,0,0,0,0,0,0,0
8210,2023-01-20 10:50:14.839874,134868005,1584,1596,1609,1641,1000,0,0,0,0,0,0,0,0,0
8240,2023-01-20 10:50:14.939790,134968005,1572,1638,1558,1633,1000,0,0,0,0,0,0,0,0,0
8273,2023-01-20 10:50:15.039766,135068006,1573,1611,1598,1629,1000,0,0,0,0,0,0,0,0,0
8305,2023-01-20 10:50:15.139891,135168066,1579,1635,1564,1595,1000,0,0,0,0,0,0,0,0,0
8338,2023-01-20 10:50:15.239865,135267993,1539,1583,1618,1630,1000,0,0,0,0,0,0,0,0,0
8368,2023-01-20 10:50:15.339916,135368024,1520,1608,1604,1658,1000,0,0,0,0,0,0,0,0,0
8401,2023-01-20 10:50:15.439934,135468031,1498,1623,1571,1663,1000,0,0,0,0,0,0,0,0,0
8433,2023-01-20 10:50:15.539893,135567993,1502,1609,1577,1667,1000,0,0,0,0,0,0,0,0,0
8469,2023-01-20 10:50:15.639921,135668022,1559,1616,1537,1625,1000,0,0,0,0,0,0,0,0,0
8499,2023-01-20 10:50:15.739903,135768002,1500,1563,1561,1671,1000,0,0,0,0,0,0,0,0,0
8533,2023-01-20 10:50:15.839911,135868020,1577,1592,1517,1635,1000,0,0,0,0,0,0,0,0,0
8563,2023-01-20 10:50:15.939861,135968001,1563,1558,1539,1666,1000,0,0,0,0,0,0,0,0,0
8596,2023-01-20 10:50:16.039877,136068024,1568,1539,1554,1660,1000,0,0,0,0,0,0,0,0,0
8628,2023-01-20 10:50:16.139918,136168034,1582,1570,1532,1641,1000,0,0,0,0,0,0,0,0,0
8661,2023-01-20 10:50:16.239867,136267986,1553,1601,1520,1658,1000,0,0,0,0,0,0,0,0,0
8691,2023-01-20 10:50:16.339822,136367995,1556,1591,1552,1649,1000,0,0,0,0,0,0,0,0,0
8724,2023-01-20 10:50:16.439804,136467987,1557,1626,1536,1651,1000,0,0,0,0,0,0,0,0,0
8756,2023-01-20 10:50:16.539910,136568035,1585,1605,1565,1626,1000,0,0,0,0,0,0,0,0,0
8792,2023-01-20 10:50:16.639920,136668011,1568,1626,1540,1646,1000,0,0,0,0,0,0,0,0,0
8822,2023-01-20 10:50:16.739897,136767991,1581,1607,1560,1642,1000,0,0,0,0,0,0,0,0,0
8856,2023-01-20 10:50:16.839903,136868007,1604,1627,1521,1625,1000,0,0,0,0,0,0,0,0,0
8886,2023-01-20 10:50:16.939864,136967992,1598,1605,1535,1639,1000,0,0,0,0,0,0,0,0,0
8919,2023-01-20 10:50:17.039862,137067993,1595,1650,1478,1646,1000,0,0,0,0,0,0,0,0,0
8951,2023-01-20 10:50:17.139926,137168028,1594,1589,1518,1637,1000,0,0,0,0,0,0,0,0,0
8984,2023-01-20 10:50:17.239952,137268040,1596,1601,1498,1661,1000,0,0,0,0,0,0,0,0,0
9014,2023-01-20 10:50:17.339942,137368039,1611,1570,1542,1671,1000,0,0,0,0,0,0,0,0,0
9047,2023-01-20 10:50:17.439894,137467992,1620,1593,1506,1650,1000,0,0,0,0,0,0,0,0,0
9079,2023-01-20 10:50:17.539902,137567989,1631,1605,1486,1627,1000,0,0,0,0,0,0,0,0,0
9115,2023-01-20 10:50:17.639982,137668062,1627,1567,1541,1626,1000,0,0,0,0,0,0,0,0,0
9145,2023-01-20 10:50:17.739917,137767998,1614,1638,1461,1624,1000,0,0,0,0,0,0,0,0,0
9179,2023-01-20 10:50:17.836378,137868017,1624,1585,1526,1604,1000,0,0,0,0,0,0,0,0,0
9209,2023-01-20 10:50:17.927449,137967994,1615,1588,1521,1601,1000,0,0,0,0,0,0,0,0,0
9243,2023-01-20 10:50:18.022612,138068047,1614,1609,1506,1604,1000,0,0,0,0,0,0,0,0,0
9275,2023-01-20 10:50:18.133374,138168014,1615,1596,1523,1600,1000,0,0,0,0,0,0,0,0,0
9308,2023-01-20 10:50:18.239864,138267994,1616,1608,1505,1580,1000,0,0,0,0,0,0,0,0,0
9338,2023-01-20 10:50:18.339975,138368064,1611,1644,1490,1587,1000,0,0,0,0,0,0,0,0,0
9371,2023-01-20 10:50:18.436366,138467982,1606,1628,1581,1561,1000,0,0,0,0,0,0,0,0,0
9403,2023-01-20 10:50:18.527474,138567988,1618,1636,1611,1510,1000,0,0,0,0,0,0,0,0,0
9439,2023-01-20 10:50:18.620413,138668017,1609,1630,1616,1507,1000,0,0,0,0,0,0,0,0,0
9469,2023-01-20 10:50:18.720367,138768005,1608,1620,1610,1505,1000,0,0,0,0,0,0,0,0,0
9503,2023-01-20 10:50:18.820328,138868000,1617,1611,1597,1524,1000,0,0,0,0,0,0,0,0,0
9535,2023-01-20 10:50:18.920289,138967997,1667,1578,1555,1543,1000,0,0,0,0,0,0,0,0,0
9568,2023-01-20 10:50:19.020314,139068044,1652,1545,1539,1593,1000,0,0,0,0,0,0,0,0,0
9600,2023-01-20 10:50:19.120319,139168013,1610,1575,1542,1595,1000,0,0,0,0,0,0,0,0,0
9633,2023-01-20 10:50:19.220317,139267988,1617,1587,1579,1561,1000,0,0,0,0,0,0,0,0,0
9663,2023-01-20 10:50:19.320309,139368006,1577,1634,1551,1606,1000,0,0,0,0,0,0,0,0,0
9696,2023-01-20 10:50:19.420267,139467995,1618,1650,1528,1561,1000,0,0,0,0,0,0,0,0,0
9728,2023-01-20 10:50:19.520226,139568007,1605,1589,1590,1574,1000,0,0,0,0,0,0,0,0,0
9764,2023-01-20 10:50:19.620192,139668016,1628,1629,1545,1553,1000,0,0,0,0,0,0,0,0,0
9794,2023-01-20 10:50:19.720162,139767988,1630,1588,1591,1569,1000,0,0,0,0,0,0,0,0,0
9828,2023-01-20 10:50:19.820166,139867997,1619,1633,1552,1605,1000,0,0,0,0,0,0,0,0,0
9858,2023-01-20 10:50:19.920155,139968003,1649,1613,1575,1575,1000,0,0,0,0,0,0,0,0,0
9891,2023-01-20 10:50:20.020196,140068056,1609,1645,1527,1606,1000,0,0,0,0,0,0,0,0,0
9923,2023-01-20 10:50:20.120180,140168030,1616,1590,1577,1600,1000,0,0,0,0,0,0,0,0,0
9956,2023-01-20 10:50:20.220161,140267990,1598,1598,1569,1623,1000,0,0,0,0,0,0,0,0,0
9989,2023-01-20 10:50:20.320226,140367991,1658,1605,1570,1558,1000,0,0,0,0,0,0,0,0,0
10022,2023-01-20 10:50:20.420255,140467970,1625,1584,1597,1595,1000,0,0,0,0,0,0,0,0,0
10054,2023-01-20 10:50:20.520257,140567977,1664,1644,1538,1550,1000,0,0,0,0,0,0,0,0,0
10090,2023-01-20 10:50:20.620316,140668031,1618,1597,1594,1599,1000,0,0,0,0,0,0,0,0,0
10120,2023-01-20 10:50:20.720298,140767975,1613,1617,1568,1604,1000,0,0,0,0,0,0,0,0,0
10154,2023-01-20 10:50:20.820312,140867983,1654,1632,1544,1572,1000,0,0,0,0,0,0,0,0,0
10184,2023-01-20 10:50:20.920172,140967962,1608,1645,1514,1624,1000,0,0,0,0,0,0,0,0,0
10217,2023-01-20 10:50:21.020120,141067994,1642,1602,1550,1586,1000,0,0,0,0,0,0,0,0,0
10249,2023-01-20 10:50:21.120172,141167990,1601,1612,1536,1626,1000,0,0,0,0,0,0,0,0,0
10282,2023-01-20 10:50:21.220241,141268020,1615,1556,1592,1613,1000,0,0,0,0,0,0,0,0,0
10312,2023-01-20 10:50:21.320241,141368044,1649,1593,1553,1584,1000,0,0,0,0,0,0,0,0,0
10345,2023-01-20 10:50:21.420152,141467968,1663,1534,1596,1572,1000,0,0,0,0,0,0,0,0,0
10377,2023-01-20 10:50:21.520188,141567968,1621,1564,1505,1654,1000,0,0,0,0,0,0,0,0,0
10413,2023-01-20 10:50:21.620224,141667987,1682,1545,1445,1661,1000,0,0,0,0,0,0,0,0,0
10443,2023-01-20 10:50:21.720151,141767976,1701,1549,1420,1669,1000,0,0,0,0,0,0,0,0,0
10477,2023-01-20 10:50:21.820110,141867987,1722,1471,1531,1636,1000,0,0,0,0,0,0,0,0,0
10507,2023-01-20 10:50:21.920130,141968020,1704,1552,1480,1641,1000,0,0,0,0,0,0,0,0,0
10540,2023-01-20 10:50:22.020104,142067995,1712,1514,1546,1610,1000,0,0,0,0,0,0,0,0,0
10572,2023-01-20 10:50:22.120158,142167998,1687,1606,1519,1584,1000,0,0,0,0,0,0,0,0,0
10605,2023-01-20 10:50:22.220153,142267960,1662,1642,1580,1529,1000,0,0,0,0,0,0,0,0,0
10635,2023-01-20 10:50:22.320171,142368013,1628,1608,1698,1511,1000,0,0,0,0,0,0,0,0,0
10668,2023-01-20 10:50:22.420101,142467962,1605,1659,1670,1470,1000,0,0,0,0,0,0,0,0,0
10700,2023-01-20 10:50:22.520154,142567968,1564,1667,1666,1502,1000,0,0,0,0,0,0,0,0,0
10736,2023-01-20 10:50:22.620260,142668040,1589,1626,1703,1495,1000,0,0,0,0,0,0,0,0,0
10766,2023-01-20 10:50:22.720177,142767975,1574,1633,1689,1545,1000,0,0,0,0,0,0,0,0,0
10800,2023-01-20 10:50:22.820170,142867987,1621,1609,1703,1531,1000,0,0,0,0,0,0,0,0,0
10830,2023-01-20 10:50:22.920125,142967974,1672,1616,1696,1515,1000,0,0,0,0,0,0,0,0,0
10863,2023-01-20 10:50:23.020138,143068002,1684,1647,1658,1537,1000,0,0,0,0,0,0,0,0,0
10896,2023-01-20 10:50:23.120231,143168044,1673,1626,1668,1562,1000,0,0,0,0,0,0,0,0,0
10929,2023-01-20 10:50:23.220237,143268015,1691,1597,1689,1545,1000,0,0,0,0,0,0,0,0,0
10959,2023-01-20 10:50:23.320192,143367999,1690,1614,1678,1562,1000,0,0,0,0,0,0,0,0,0
10992,2023-01-20 10:50:23.420141,143467968,1697,1629,1666,1569,1000,0,0,0,0,0,0,0,0,0
11024,2023-01-20 10:50:23.520160,143567973,1668,1633,1659,1610,1000,0,0,0,0,0,0,0,0,0
11060,2023-01-20 10:50:23.620211,143668015,1674,1622,1659,1600,1000,0,0,0,0,0,0,0,0,0
11090,2023-01-20 10:50:23.720149,143767967,1689,1573,1699,1586,1000,0,0,0,0,0,0,0,0,0
11124,2023-01-20 10:50:23.820156,143867988,1724,1619,1662,1551,1000,0,0,0,0,0,0,0,0,0
11157,2023-01-20 10:50:23.920181,143968030,1726,1586,1680,1531,1000,0,0,0,0,0,0,0,0,0
11190,2023-01-20 10:50:24.020145,144067995,1713,1509,1733,1531,1000,0,0,0,0,0,0,0,0,0
11222,2023-01-20 10:50:24.120210,144167998,1693,1586,1665,1549,1000,0,0,0,0,0,0,0,0,0
11255,2023-01-20 10:50:24.220206,144267958,1683,1624,1624,1555,1000,0,0,0,0,0,0,0,0,0
11285,2023-01-20 10:50:24.320175,144367989,1647,1592,1653,1594,1000,0,0,0,0,0,0,0,0,0
11318,2023-01-20 10:50:24.420114,144467965,1699,1566,1690,1551,1000,0,0,0,0,0,0,0,0,0
11351,2023-01-20 10:50:24.520232,144568017,1672,1573,1648,1516,1000,0,0,0,0,0,0,0,0,0
11388,2023-01-20 10:50:24.620241,144667990,1703,1607,1626,1456,1000,0,0,0,0,0,0,0,0,0
11418,2023-01-20 10:50:24.720142,144767972,1652,1568,1659,1515,1000,0,0,0,0,0,0,0,0,0
11452,2023-01-20 10:50:24.820121,144868016,1623,1561,1661,1495,1000,0,0,0,0,0,0,0,0,0
11483,2023-01-20 10:50:24.920101,144967995,1628,1542,1649,1416,1000,0,0,0,0,0,0,0,0,0
11516,2023-01-20 10:50:25.020114,145068002,1533,1531,1615,1490,1000,0,0,0,0,0,0,0,0,0
11548,2023-01-20 10:50:25.120172,145168031,1558,1513,1566,1410,1000,0,0,0,0,0,0,0,0,0
11582,2023-01-20 10:50:25.220162,145267999,1597,1464,1594,1365,1000,0,0,0,0,0,0,0,0,0
11612,2023-01-20 10:50:25.320165,145368008,1597,1385,1634,1371,1000,0,0,0,0,0,0,0,0,0
11645,2023-01-20 10:50:25.420155,145468000,1634,1414,1588,1259,1000,0,0,0,0,0,0,0,0,0
11677,2023-01-20 10:50:25.520209,145568041,1575,1468,1513,1374,1000,0,0,0,0,0,0,0,0,0
11713,2023-01-20 10:50:25.620186,145668010,1502,1377,1560,1475,1000,0,0,0,0,0,0,0,0,0
11743,2023-01-20 10:50:25.720159,145767995,1531,1463,1553,1518,1000,0,0,0,0,0,0,0,0,0
11776,2023-01-20 10:50:25.820194,145868045,1637,1501,1612,1493,1000,0,0,0,0,0,0,0,0,0
11808,2023-01-20 10:50:25.920119,145967994,1659,1560,1600,1524,1000,0,0,0,0,0,0,0,0,0
11841,2023-01-20 10:50:26.020118,146068005,1713,1534,1587,1439,1000,0,0,0,0,0,0,0,0,0
11873,2023-01-20 10:50:26.120167,146168016,1653,1482,1614,1525,1000,0,0,0,0,0,0,0,0,0
11906,2023-01-20 10:50:26.220160,146267986,1692,1517,1660,1553,1000,0,0,0,0,0,0,0,0,0
11936,2023-01-20 10:50:26.320131,146367993,1728,1549,1688,1555,1000,0,0,0,0,0,0,0,0,0
11969,2023-01-20 10:50:26.420104,146467989,1672,1637,1630,1597,1000,0,0,0,0,0,0,0,0,0
12001,2023-01-20 10:50:26.520154,146568009,1705,1635,1672,1570,1000,0,0,0,0,0,0,0,0,0
12037,2023-01-20 10:50:26.620194,146668026,1757,1631,1717,1548,1000,0,0,0,0,0,0,0,0,0
12067,2023-01-20 10:50:26.720168,146768005,1748,1688,1704,1603,1000,0,0,0,0,0,0,0,0,0
12100,2023-01-20 10:50:26.820221,146868067,1704,1718,1684,1642,1000,0,0,0,0,0,0,0,0,0
12131,2023-01-20 10:50:26.920126,146967997,1669,1731,1675,1658,1000,0,0,0,0,0,0,0,0,0
12164,2023-01-20 10:50:27.020214,147068102,1703,1707,1707,1613,1000,0,0,0,0,0,0,0,0,0
12196,2023-01-20 10:50:27.120139,147168018,1692,1683,1717,1605,1000,0,0,0,0,0,0,0,0,0
12229,2023-01-20 10:50:27.220125,147267993,1664,1673,1713,1628,1000,0,0,0,0,0,0,0,0,0
12259,2023-01-20 10:50:27.320177,147368030,1666,1669,1721,1646,1000,0,0,0,0,0,0,0,0,0
12292,2023-01-20 10:50:27.418353,147468003,1696,1688,1703,1629,1000,0,0,0,0,0,0,0,0,0
12324,2023-01-20 10:50:27.509407,147568030,1724,1706,1662,1594,1000,0,0,0,0,0,0,0,0,0
12360,2023-01-20 10:50:27.600571,147668122,1716,1672,1668,1599,1000,0,0,0,0,0,0,0,0,0
12390,2023-01-20 10:50:27.700429,147767988,1707,1637,1687,1607,1000,0,0,0,0,0,0,0,0,0
12423,2023-01-20 10:50:27.800546,147868112,1710,1638,1692,1605,1000,0,0,0,0,0,0,0,0,0
12455,2023-01-20 10:50:27.900362,147967992,1704,1594,1731,1596,1000,0,0,0,0,0,0,0,0,0
12488,2023-01-20 10:50:28.000594,148068288,1681,1630,1702,1616,1000,0,0,0,0,0,0,0,0,0
12520,2023-01-20 10:50:28.100342,148168011,1719,1623,1696,1554,1000,0,0,0,0,0,0,0,0,0
12554,2023-01-20 10:50:28.200602,148268246,1689,1644,1659,1571,1000,0,0,0,0,0,0,0,0,0
12584,2023-01-20 10:50:28.300414,148368033,1661,1589,1706,1609,1000,0,0,0,0,0,0,0,0,0
12617,2023-01-20 10:50:28.400613,148468146,1696,1667,1632,1583,1000,0,0,0,0,0,0,0,0,0
12649,2023-01-20 10:50:28.511401,148567989,1647,1679,1612,1638,1000,0,0,0,0,0,0,0,0,0
12685,2023-01-20 10:50:28.618366,148668016,1663,1676,1604,1611,1000,0,0,0,0,0,0,0,0,0
12715,2023-01-20 10:50:28.709372,148768023,1616,1633,1644,1641,1000,0,0,0,0,0,0,0,0,0
12748,2023-01-20 10:50:28.800534,148868149,1701,1622,1674,1553,1000,0,0,0,0,0,0,0,0,0
12781,2023-01-20 10:50:28.900270,148967998,1647,1646,1671,1618,1000,0,0,0,0,0,0,0,0,0
12814,2023-01-20 10:50:29.000525,149068367,1650,1682,1632,1598,1000,0,0,0,0,0,0,0,0,0
12846,2023-01-20 10:50:29.100250,149168038,1689,1631,1678,1539,1000,0,0,0,0,0,0,0,0,0
12880,2023-01-20 10:50:29.200575,149268309,1596,1682,1625,1636,1000,0,0,0,0,0,0,0,0,0
12910,2023-01-20 10:50:29.300221,149368020,1706,1630,1690,1537,1000,0,0,0,0,0,0,0,0,0
12943,2023-01-20 10:50:29.400512,149468376,1605,1691,1621,1663,1000,0,0,0,0,0,0,0,0,0
12975,2023-01-20 10:50:29.500140,149567985,1697,1649,1642,1560,1000,0,0,0,0,0,0,0,0,0
13011,2023-01-20 10:50:29.600540,149668365,1586,1666,1608,1663,1000,0,0,0,0,0,0,0,0,0
13041,2023-01-20 10:50:29.700161,149767995,1640,1602,1675,1595,1000,0,0,0,0,0,0,0,0,0
13074,2023-01-20 10:50:29.800519,149868362,1610,1644,1664,1632,1000,0,0,0,0,0,0,0,0,0
13105,2023-01-20 10:50:29.900167,149968033,1604,1637,1678,1632,1000,0,0,0,0,0,0,0,0,0
13138,2023-01-20 10:50:30.000536,150068424,1610,1632,1670,1609,1000,0,0,0,0,0,0,0,0,0
13170,2023-01-20 10:50:30.100175,150168029,1623,1619,1660,1594,1000,0,0,0,0,0,0,0,0,0
13203,2023-01-20 10:50:30.200515,150268335,1639,1615,1645,1594,1000,0,0,0,0,0,0,0,0,0
13233,2023-01-20 10:50:30.300211,150368030,1660,1605,1629,1573,1000,0,0,0,0,0,0,0,0,0
13266,2023-01-20 10:50:30.400526,150468344,1603,1618,1612,1643,1000,0,0,0,0,0,0,0,0,0
13298,2023-01-20 10:50:30.500175,150567999,1642,1596,1631,1607,1000,0,0,0,0,0,0,0,0,0
13334,2023-01-20 10:50:30.600529,150668358,1659,1576,1632,1579,1000,0,0,0,0,0,0,0,0,0
13365,2023-01-20 10:50:30.700151,150767982,1616,1578,1619,1624,1000,0,0,0,0,0,0,0,0,0
13398,2023-01-20 10:50:30.800512,150868345,1604,1584,1618,1643,1000,0,0,0,0,0,0,0,0,0
13429,2023-01-20 10:50:30.900132,150967999,1653,1534,1668,1590,1000,0,0,0,0,0,0,0,0,0
13462,2023-01-20 10:50:31.000529,151068428,1633,1591,1623,1596,1000,0,0,0,0,0,0,0,0,0
13494,2023-01-20 10:50:31.100252,151168064,1613,1586,1638,1604,1000,0,0,0,0,0,0,0,0,0
13527,2023-01-20 10:50:31.200568,151268292,1607,1610,1629,1606,1000,0,0,0,0,0,0,0,0,0
13557,2023-01-20 10:50:31.300243,151368017,1652,1601,1657,1568,1000,0,0,0,0,0,0,0,0,0
13590,2023-01-20 10:50:31.400514,151468338,1631,1633,1624,1585,1000,0,0,0,0,0,0,0,0,0
13622,2023-01-20 10:50:31.500170,151568014,1608,1643,1610,1613,1000,0,0,0,0,0,0,0,0,0
13657,2023-01-20 10:50:31.600538,151668401,1639,1556,1665,1575,1000,0,0,0,0,0,0,0,0,0
13688,2023-01-20 10:50:31.700132,151767982,1646,1606,1561,1542,1000,0,0,0,0,0,0,0,0,0
13721,2023-01-20 10:50:31.800514,151868351,1548,1531,1559,1599,1000,0,0,0,0,0,0,0,0,0
13753,2023-01-20 10:50:31.900179,151968039,1604,1526,1499,1485,1000,0,0,0,0,0,0,0,0,0
13786,2023-01-20 10:50:32.000527,152068410,1558,1470,1502,1491,1000,0,0,0,0,0,0,0,0,0
13818,2023-01-20 10:50:32.100159,152168015,1535,1460,1505,1509,1000,0,0,0,0,0,0,0,0,0
13851,2023-01-20 10:50:32.200521,152268350,1546,1493,1504,1514,1000,0,0,0,0,0,0,0,0,0
13881,2023-01-20 10:50:32.300183,152368005,1557,1502,1522,1511,1000,0,0,0,0,0,0,0,0,0
13914,2023-01-20 10:50:32.400520,152468336,1560,1510,1529,1506,1000,0,0,0,0,0,0,0,0,0
13946,2023-01-20 10:50:32.500155,152567996,1571,1539,1525,1509,1000,0,0,0,0,0,0,0,0,0
13981,2023-01-20 10:50:32.600533,152668399,1575,1539,1548,1515,1000,0,0,0,0,0,0,0,0,0
14012,2023-01-20 10:50:32.700130,152767983,1578,1547,1565,1527,1000,0,0,0,0,0,0,0,0,0
14045,2023-01-20 10:50:32.800516,152868355,1572,1547,1588,1558,1000,0,0,0,0,0,0,0,0,0
14076,2023-01-20 10:50:32.900169,152968029,1623,1555,1605,1526,1000,0,0,0,0,0,0,0,0,0
14109,2023-01-20 10:50:33.000527,153068408,1556,1588,1598,1623,1000,0,0,0,0,0,0,0,0,0
14141,2023-01-20 10:50:33.100177,153168030,1608,1569,1638,1600,1000,0,0,0,0,0,0,0,0,0
14174,2023-01-20 10:50:33.200514,153268339,1636,1576,1628,1574,1000,0,0,0,0,0,0,0,0,0
14205,2023-01-20 10:50:33.300199,153368020,1650,1580,1622,1570,1000,0,0,0,0,0,0,0,0,0
14238,2023-01-20 10:50:33.400521,153468338,1654,1601,1581,1567,1000,0,0,0,0,0,0,0,0,0
14271,2023-01-20 10:50:33.500181,153568003,1639,1626,1532,1585,1000,0,0,0,0,0,0,0,0,0
14307,2023-01-20 10:50:33.600530,153668356,1624,1566,1575,1595,1000,0,0,0,0,0,0,0,0,0
14338,2023-01-20 10:50:33.700154,153767987,1643,1572,1562,1576,1000,0,0,0,0,0,0,0,0,0
14371,2023-01-20 10:50:33.800506,153868345,1623,1566,1559,1598,1000,0,0,0,0,0,0,0,0,0
14404,2023-01-20 10:50:33.900159,153968025,1636,1557,1564,1580,1000,0,0,0,0,0,0,0,0,0
14437,2023-01-20 10:50:34.000502,154068394,1634,1544,1572,1582,1000,0,0,0,0,0,0,0,0,0
14469,2023-01-20 10:50:34.100138,154168016,1621,1583,1537,1592,1000,0,0,0,0,0,0,0,0,0
14502,2023-01-20 10:50:34.200528,154268392,1623,1575,1555,1580,1000,0,0,0,0,0,0,0,0,0
14532,2023-01-20 10:50:34.300174,154368014,1628,1529,1612,1572,1000,0,0,0,0,0,0,0,0,0
14565,2023-01-20 10:50:34.400513,154468329,1642,1582,1581,1560,1000,0,0,0,0,0,0,0,0,0
14598,2023-01-20 10:50:34.500196,154567975,1605,1577,1605,1600,1000,0,0,0,0,0,0,0,0,0
14632,2023-01-20 10:50:34.600605,154668348,1615,1580,1619,1599,1000,0,0,0,0,0,0,0,0,0
14664,2023-01-20 10:50:34.700200,154767992,1609,1593,1604,1597,1000,0,0,0,0,0,0,0,0,0
14697,2023-01-20 10:50:34.800513,154868354,1617,1576,1623,1583,1000,0,0,0,0,0,0,0,0,0
14730,2023-01-20 10:50:34.900133,154968007,1619,1602,1607,1588,1000,0,0,0,0,0,0,0,0,0
14763,2023-01-20 10:50:35.000520,155068427,1651,1597,1617,1550,1000,0,0,0,0,0,0,0,0,0
14795,2023-01-20 10:50:35.100221,155168042,1654,1561,1650,1542,1000,0,0,0,0,0,0,0,0,0
14828,2023-01-20 10:50:35.200581,155268317,1641,1630,1586,1557,1000,0,0,0,0,0,0,0,0,0
14858,2023-01-20 10:50:35.300243,155367981,1599,1610,1614,1602,1000,0,0,0,0,0,0,0,0,0
14891,2023-01-20 10:50:35.400576,155468317,1596,1603,1627,1608,1000,0,0,0,0,0,0,0,0,0
14923,2023-01-20 10:50:35.500229,155567969,1644,1584,1643,1534,1000,0,0,0,0,0,0,0,0,0
14958,2023-01-20 10:50:35.600595,155668334,1630,1598,1628,1528,1000,0,0,0,0,0,0,0,0,0
14989,2023-01-20 10:50:35.700246,155768006,1580,1572,1651,1573,1000,0,0,0,0,0,0,0,0,0
15022,2023-01-20 10:50:35.800548,155868328,1643,1572,1646,1502,1000,0,0,0,0,0,0,0,0,0
15053,2023-01-20 10:50:35.900149,155967970,1616,1560,1652,1552,1000,0,0,0,0,0,0,0,0,0
15086,2023-01-20 10:50:36.000514,156068376,1618,1575,1633,1558,1000,0,0,0,0,0,0,0,0,0
15118,2023-01-20 10:50:36.100191,156167995,1656,1601,1606,1528,1000,0,0,0,0,0,0,0,0,0
15151,2023-01-20 10:50:36.200573,156268319,1655,1545,1640,1529,1000,0,0,0,0,0,0,0,0,0
15181,2023-01-20 10:50:36.300197,156367992,1609,1567,1625,1591,1000,0,0,0,0,0,0,0,0,0
15214,2023-01-20 10:50:36.400518,156468361,1636,1561,1651,1583,1000,0,0,0,0,0,0,0,0,0
15246,2023-01-20 10:50:36.500180,156567967,1665,1580,1632,1533,1000,0,0,0,0,0,0,0,0,0
15281,2023-01-20 10:50:36.600604,156668334,1641,1623,1610,1562,1000,0,0,0,0,0,0,0,0,0
15312,2023-01-20 10:50:36.700237,156767963,1677,1565,1682,1527,1000,0,0,0,0,0,0,0,0,0
15345,2023-01-20 10:50:36.800616,156868339,1625,1611,1660,1612,1000,0,0,0,0,0,0,0,0,0
15376,2023-01-20 10:50:36.900164,156967979,1666,1643,1641,1588,1000,0,0,0,0,0,0,0,0,0
15409,2023-01-20 10:50:37.000510,157068417,1702,1590,1694,1549,1000,0,0,0,0,0,0,0,0,0
15441,2023-01-20 10:50:37.100165,157167993,1715,1565,1705,1518,1000,0,0,0,0,0,0,0,0,0
15474,2023-01-20 10:50:37.200574,157268322,1685,1574,1683,1540,1000,0,0,0,0,0,0,0,0,0
15504,2023-01-20 10:50:37.300246,157367992,1647,1561,1683,1569,1000,0,0,0,0,0,0,0,0,0
15537,2023-01-20 10:50:37.400574,157468317,1655,1588,1649,1540,1000,0,0,0,0,0,0,0,0,0
15569,2023-01-20 10:50:37.500252,157567979,1647,1579,1660,1542,1000,0,0,0,0,0,0,0,0,0
15604,2023-01-20 10:50:37.600943,157668655,1647,1548,1685,1543,1000,0,0,0,0,0,0,0,0,0
15635,2023-01-20 10:50:37.700285,157768012,1711,1595,1655,1495,1000,0,0,0,0,0,0,0,0,0
15668,2023-01-20 10:50:37.800591,157868333,1702,1603,1654,1535,1000,0,0,0,0,0,0,0,0,0
15700,2023-01-20 10:50:37.900184,157967969,1723,1583,1674,1514,1000,0,0,0,0,0,0,0,0,0
15733,2023-01-20 10:50:38.000511,158068390,1725,1591,1684,1532,1000,0,0,0,0,0,0,0,0,0
15765,2023-01-20 10:50:38.091159,158167994,1675,1649,1654,1611,1000,0,0,0,0,0,0,0,0,0
15796,2023-01-20 10:50:38.182443,158268297,1748,1617,1731,1571,1000,0,0,0,0,0,0,0,0,0
15828,2023-01-20 10:50:38.280437,158368024,1742,1641,1703,1577,1000,0,0,0,0,0,0,0,0,0
15860,2023-01-20 10:50:38.380780,158468365,1740,1630,1696,1559,1000,0,0,0,0,0,0,0,0,0
15894,2023-01-20 10:50:38.480359,158567969,1765,1586,1751,1542,1000,0,0,0,0,0,0,0,0,0
15928,2023-01-20 10:50:38.580828,158668470,1716,1631,1705,1595,1000,0,0,0,0,0,0,0,0,0
15961,2023-01-20 10:50:38.680306,158767958,1739,1590,1722,1541,1000,0,0,0,0,0,0,0,0,0
15992,2023-01-20 10:50:38.780580,158868237,1715,1619,1704,1587,1000,0,0,0,0,0,0,0,0,0
16027,2023-01-20 10:50:38.889139,158967976,1741,1599,1739,1592,1000,0,0,0,0,0,0,0,0,0
16060,2023-01-20 10:50:39.000457,159068369,1773,1620,1723,1570,1000,0,0,0,0,0,0,0,0,0
16092,2023-01-20 10:50:39.091119,159167996,1746,1618,1698,1579,1000,0,0,0,0,0,0,0,0,0
16124,2023-01-20 10:50:39.182329,159268225,1739,1632,1672,1568,1000,0,0,0,0,0,0,0,0,0
16156,2023-01-20 10:50:39.280308,159367979,1751,1588,1723,1567,1000,0,0,0,0,0,0,0,0,0
16187,2023-01-20 10:50:39.380424,159468131,1745,1592,1721,1579,1000,0,0,0,0,0,0,0,0,0
16221,2023-01-20 10:50:39.480239,159567966,1730,1611,1697,1585,1000,0,0,0,0,0,0,0,0,0
16254,2023-01-20 10:50:39.580625,159668368,1715,1600,1684,1568,1000,0,0,0,0,0,0,0,0,0
16287,2023-01-20 10:50:39.680233,159768026,1734,1548,1702,1500,1000,0,0,0,0,0,0,0,0,0
16318,2023-01-20 10:50:39.780226,159868076,1707,1600,1667,1543,1000,0,0,0,0,0,0,0,0,0
16352,2023-01-20 10:50:39.880107,159967965,1711,1599,1673,1542,1000,0,0,0,0,0,0,0,0,0
16383,2023-01-20 10:50:39.980141,160067994,1719,1597,1704,1568,1000,0,0,0,0,0,0,0,0,0
16417,2023-01-20 10:50:40.080193,160168001,1729,1630,1690,1575,1000,0,0,0,0,0,0,0,0,0
16449,2023-01-20 10:50:40.180218,160267971,1728,1524,1764,1559,1000,0,0,0,0,0,0,0,0,0
16481,2023-01-20 10:50:40.280247,160368030,1719,1581,1705,1544,1000,0,0,0,0,0,0,0,0,0
16512,2023-01-20 10:50:40.380127,160467962,1703,1541,1714,1533,1000,0,0,0,0,0,0,0,0,0
16546,2023-01-20 10:50:40.480137,160567972,1662,1588,1677,1578,1000,0,0,0,0,0,0,0,0,0
16580,2023-01-20 10:50:40.580444,160668266,1681,1579,1686,1556,1000,0,0,0,0,0,0,0,0,0
16613,2023-01-20 10:50:40.680164,160767969,1680,1515,1711,1528,1000,0,0,0,0,0,0,0,0,0
16644,2023-01-20 10:50:40.780200,160867987,1682,1533,1682,1505,1000,0,0,0,0,0,0,0,0,0
16678,2023-01-20 10:50:40.880150,160967967,1656,1524,1697,1540,1000,0,0,0,0,0,0,0,0,0
16709,2023-01-20 10:50:40.980175,161068036,1662,1564,1661,1530,1000,0,0,0,0,0,0,0,0,0
16743,2023-01-20 10:50:41.080186,161168008,1692,1528,1685,1491,1000,0,0,0,0,0,0,0,0,0
16775,2023-01-20 10:50:41.180201,161267964,1700,1534,1678,1487,1000,0,0,0,0,0,0,0,0,0
16807,2023-01-20 10:50:41.280258,161368005,1725,1538,1692,1484,1000,0,0,0,0,0,0,0,0,0
16838,2023-01-20 10:50:41.380247,161467987,1706,1553,1683,1523,1000,0,0,0,0,0,0,0,0,0
16872,2023-01-20 10:50:41.480194,161567967,1664,1561,1652,1546,1000,0,0,0,0,0,0,0,0,0
16906,2023-01-20 10:50:41.580589,161668404,1666,1532,1659,1521,1000,0,0,0,0,0,0,0,0,0
16939,2023-01-20 10:50:41.680194,161767985,1700,1501,1686,1486,1000,0,0,0,0,0,0,0,0,0
16970,2023-01-20 10:50:41.780229,161867981,1674,1528,1674,1525,1000,0,0,0,0,0,0,0,0,0
17004,2023-01-20 10:50:41.880177,161967963,1667,1543,1662,1518,1000,0,0,0,0,0,0,0,0,0
17035,2023-01-20 10:50:41.980131,162067969,1683,1555,1650,1467,1000,0,0,0,0,0,0,0,0,0
17069,2023-01-20 10:50:42.080188,162167997,1628,1532,1659,1506,1000,0,0,0,0,0,0,0,0,0
17101,2023-01-20 10:50:42.180206,162267966,1670,1542,1694,1496,1000,0,0,0,0,0,0,0,0,0
17133,2023-01-20 10:50:42.280251,162368040,1683,1532,1698,1472,1000,0,0,0,0,0,0,0,0,0
17164,2023-01-20 10:50:42.380128,162467965,1710,1515,1700,1418,1000,0,0,0,0,0,0,0,0,0
17198,2023-01-20 10:50:42.480123,162567958,1687,1539,1692,1469,1000,0,0,0,0,0,0,0,0,0
17232,2023-01-20 10:50:42.580417,162668238,1680,1552,1706,1522,1000,0,0,0,0,0,0,0,0,0
17265,2023-01-20 10:50:42.680145,162767965,1712,1559,1711,1518,1000,0,0,0,0,0,0,0,0,0
17296,2023-01-20 10:50:42.780159,162867981,1675,1596,1657,1543,1000,0,0,0,0,0,0,0,0,0
17330,2023-01-20 10:50:42.880164,162968017,1657,1587,1638,1537,1000,0,0,0,0,0,0,0,0,0
17361,2023-01-20 10:50:42.980075,163067966,1655,1567,1672,1561,1000,0,0,0,0,0,0,0,0,0
17395,2023-01-20 10:50:43.080161,163167996,1671,1536,1716,1568,1000,0,0,0,0,0,0,0,0,0
17427,2023-01-20 10:50:43.180207,163267965,1703,1560,1689,1521,1000,0,0,0,0,0,0,0,0,0
17459,2023-01-20 10:50:43.280252,163367993,1653,1578,1670,1577,1000,0,0,0,0,0,0,0,0,0
17490,2023-01-20 10:50:43.380223,163467964,1669,1586,1692,1585,1000,0,0,0,0,0,0,0,0,0
17525,2023-01-20 10:50:43.480219,163567995,1726,1585,1725,1561,1000,0,0,0,0,0,0,0,0,0
17559,2023-01-20 10:50:43.580420,163668240,1734,1642,1698,1582,1000,0,0,0,0,0,0,0,0,0
17592,2023-01-20 10:50:43.680139,163767965,1758,1642,1723,1591,1000,0,0,0,0,0,0,0,0,0
17623,2023-01-20 10:50:43.780159,163867982,1766,1569,1758,1546,1000,0,0,0,0,0,0,0,0,0
17659,2023-01-20 10:50:43.880125,163967961,1720,1526,1776,1579,1000,0,0,0,0,0,0,0,0,0
17690,2023-01-20 10:50:43.980108,164067962,1731,1600,1716,1555,1000,0,0,0,0,0,0,0,0,0
17724,2023-01-20 10:50:44.080180,164167993,1730,1545,1727,1514,1000,0,0,0,0,0,0,0,0,0
17756,2023-01-20 10:50:44.180245,164268003,1684,1573,1651,1508,1000,0,0,0,0,0,0,0,0,0
17788,2023-01-20 10:50:44.280238,164367985,1695,1521,1668,1454,1000,0,0,0,0,0,0,0,0,0
17819,2023-01-20 10:50:44.380214,164467962,1614,1536,1667,1558,1000,0,0,0,0,0,0,0,0,0
17854,2023-01-20 10:50:44.480210,164567958,1664,1629,1614,1534,1000,0,0,0,0,0,0,0,0,0
17888,2023-01-20 10:50:44.580275,164668024,1673,1584,1644,1515,1000,0,0,0,0,0,0,0,0,0
17921,2023-01-20 10:50:44.680213,164767975,1691,1586,1627,1480,1000,0,0,0,0,0,0,0,0,0
17952,2023-01-20 10:50:44.780204,164867983,1640,1560,1600,1496,1000,0,0,0,0,0,0,0,0,0
17986,2023-01-20 10:50:44.880182,164968010,1692,1548,1651,1489,1000,0,0,0,0,0,0,0,0,0
18017,2023-01-20 10:50:44.980081,165067966,1663,1554,1666,1529,1000,0,0,0,0,0,0,0,0,0
18051,2023-01-20 10:50:45.080173,165167999,1655,1557,1657,1497,1000,0,0,0,0,0,0,0,0,0
18083,2023-01-20 10:50:45.180233,165267970,1644,1561,1662,1500,1000,0,0,0,0,0,0,0,0,0
18115,2023-01-20 10:50:45.280256,165367988,1634,1569,1637,1474,1000,0,0,0,0,0,0,0,0,0
18146,2023-01-20 10:50:45.380219,165467966,1667,1514,1708,1453,1000,0,0,0,0,0,0,0,0,0
18180,2023-01-20 10:50:45.480222,165568009,1681,1643,1665,1550,1000,0,0,0,0,0,0,0,0,0
18214,2023-01-20 10:50:45.580198,165668030,1723,1586,1704,1492,1000,0,0,0,0,0,0,0,0,0
18247,2023-01-20 10:50:45.680166,165767969,1698,1563,1715,1533,1000,0,0,0,0,0,0,0,0,0
18278,2023-01-20 10:50:45.780244,165868000,1716,1561,1716,1524,1000,0,0,0,0,0,0,0,0,0
18312,2023-01-20 10:50:45.880185,165967969,1685,1607,1662,1553,1000,0,0,0,0,0,0,0,0,0
18343,2023-01-20 10:50:45.980138,166067969,1702,1556,1688,1513,1000,0,0,0,0,0,0,0,0,0
18377,2023-01-20 10:50:46.080187,166168017,1704,1514,1687,1468,1000,0,0,0,0,0,0,0,0,0
18409,2023-01-20 10:50:46.180186,166268004,1652,1545,1644,1515,1000,0,0,0,0,0,0,0,0,0
18441,2023-01-20 10:50:46.280213,166367988,1632,1552,1643,1542,1000,0,0,0,0,0,0,0,0,0
18472,2023-01-20 10:50:46.380238,166467962,1733,1523,1728,1494,1000,0,0,0,0,0,0,0,0,0
18506,2023-01-20 10:50:46.480233,166567960,1722,1624,1658,1527,1000,0,0,0,0,0,0,0,0,0
18540,2023-01-20 10:50:46.580271,166668015,1729,1550,1711,1501,1000,0,0,0,0,0,0,0,0,0
18573,2023-01-20 10:50:46.680189,166767966,1698,1552,1664,1491,1000,0,0,0,0,0,0,0,0,0
18604,2023-01-20 10:50:46.780218,166868032,1711,1564,1640,1464,1000,0,0,0,0,0,0,0,0,0
18638,2023-01-20 10:50:46.872914,166967974,1665,1553,1659,1541,1000,0,0,0,0,0,0,0,0,0
18669,2023-01-20 10:50:46.963861,167067951,1685,1511,1684,1495,1000,0,0,0,0,0,0,0,0,0
18703,2023-01-20 10:50:47.060336,167167992,1684,1506,1683,1469,1000,0,0,0,0,0,0,0,0,0
18735,2023-01-20 10:50:47.160350,167267969,1690,1508,1692,1459,1000,0,0,0,0,0,0,0,0,0
18767,2023-01-20 10:50:47.260391,167367993,1642,1537,1674,1527,1000,0,0,0,0,0,0,0,0,0
18798,2023-01-20 10:50:47.360369,167467968,1645,1501,1678,1490,1000,0,0,0,0,0,0,0,0,0
18831,2023-01-20 10:50:47.460417,167568016,1574,1505,1583,1454,1000,0,0,0,0,0,0,0,0,0
18865,2023-01-20 10:50:47.560404,167668006,1577,1504,1621,1486,1000,0,0,0,0,0,0,0,0,0
18898,2023-01-20 10:50:47.660387,167767977,1674,1507,1680,1458,1000,0,0,0,0,0,0,0,0,0
18929,2023-01-20 10:50:47.760417,167867986,1659,1560,1625,1504,1000,0,0,0,0,0,0,0,0,0
18963,2023-01-20 10:50:47.860380,167967964,1670,1572,1583,1462,1000,0,0,0,0,0,0,0,0,0
18994,2023-01-20 10:50:47.960339,168067963,1634,1566,1625,1541,1000,0,0,0,0,0,0,0,0,0
19028,2023-01-20 10:50:48.060407,168168047,1646,1554,1620,1492,1000,0,0,0,0,0,0,0,0,0
19060,2023-01-20 10:50:48.160324,168267964,1643,1553,1664,1532,1000,0,0,0,0,0,0,0,0,0
19092,2023-01-20 10:50:48.260361,168368021,1660,1598,1638,1521,1000,0,0,0,0,0,0,0,0,0
19123,2023-01-20 10:50:48.360268,168467961,1678,1594,1644,1493,1000,0,0,0,0,0,0,0,0,0
19157,2023-01-20 10:50:48.460254,168567968,1693,1600,1653,1483,1000,0,0,0,0,0,0,0,0,0
19192,2023-01-20 10:50:48.560301,168668028,1684,1569,1692,1509,1000,0,0,0,0,0,0,0,0,0
19225,2023-01-20 10:50:48.660230,168767983,1706,1576,1696,1499,1000,0,0,0,0,0,0,0,0,0
19256,2023-01-20 10:50:48.760242,168868028,1724,1541,1735,1504,1000,0,0,0,0,0,0,0,0,0
19292,2023-01-20 10:50:48.860448,168968277,1727,1633,1675,1538,1000,0,0,0,0,0,0,0,0,0
19323,2023-01-20 10:50:48.960065,169067942,1730,1596,1723,1565,1000,0,0,0,0,0,0,0,0,0
19357,2023-01-20 10:50:49.060145,169168012,1735,1651,1681,1577,1000,0,0,0,0,0,0,0,0,0
19389,2023-01-20 10:50:49.160153,169267971,1778,1600,1729,1536,1000,0,0,0,0,0,0,0,0,0
19421,2023-01-20 10:50:49.260224,169367987,1740,1572,1731,1566,1000,0,0,0,0,0,0,0,0,0
19452,2023-01-20 10:50:49.360314,169468017,1731,1564,1733,1579,1000,0,0,0,0,0,0,0,0,0
19486,2023-01-20 10:50:49.460234,169567962,1765,1568,1738,1553,1000,0,0,0,0,0,0,0,0,0
19520,2023-01-20 10:50:49.560201,169668011,1761,1587,1712,1542,1000,0,0,0,0,0,0,0,0,0
19553,2023-01-20 10:50:49.660149,169767962,1703,1607,1676,1578,1000,0,0,0,0,0,0,0,0,0
19584,2023-01-20 10:50:49.760218,169867980,1720,1575,1694,1530,1000,0,0,0,0,0,0,0,0,0
19618,2023-01-20 10:50:49.860199,169967972,1720,1593,1660,1496,1000,0,0,0,0,0,0,0,0,0
19649,2023-01-20 10:50:49.960143,170067967,1704,1539,1691,1498,1000,0,0,0,0,0,0,0,0,0
19683,2023-01-20 10:50:50.060188,170168038,1671,1543,1681,1545,1000,0,0,0,0,0,0,0,0,0
19757,2023-01-20 10:50:50.160103,170267962,1647,1596,1603,1550,1000,0,0,0,0,0,0,0,0,0
19789,2023-01-20 10:50:50.260156,170367992,1674,1572,1635,1530,1000,0,0,0,0,0,0,0,0,0
19820,2023-01-20 10:50:50.360167,170467960,1685,1599,1614,1524,1000,0,0,0,0,0,0,0,0,0
19854,2023-01-20 10:50:50.460200,170567965,1686,1549,1653,1516,1000,0,0,0,0,0,0,0,0,0
19888,2023-01-20 10:50:50.560254,170668002,1702,1537,1660,1491,1000,0,0,0,0,0,0,0,0,0
19921,2023-01-20 10:50:50.660274,170768016,1710,1516,1668,1468,1000,0,0,0,0,0,0,0,0,0
19952,2023-01-20 10:50:50.760280,170868024,1650,1585,1602,1531,1000,0,0,0,0,0,0,0,0,0
19986,2023-01-20 10:50:50.860173,170967962,1681,1570,1624,1479,1000,0,0,0,0,0,0,0,0,0
20017,2023-01-20 10:50:50.960100,171067961,1642,1584,1629,1534,1000,0,0,0,0,0,0,0,0,0
20051,2023-01-20 10:50:51.060162,171168008,1675,1593,1635,1499,1000,0,0,0,0,0,0,0,0,0
20083,2023-01-20 10:50:51.160195,171267968,1645,1587,1646,1532,1000,0,0,0,0,0,0,0,0,0
20115,2023-01-20 10:50:51.260272,171368018,1640,1573,1664,1542,1000,0,0,0,0,0,0,0,0,0
20146,2023-01-20 10:50:51.360252,171468002,1673,1599,1662,1534,1000,0,0,0,0,0,0,0,0,0
20180,2023-01-20 10:50:51.460195,171567974,1702,1610,1659,1517,1000,0,0,0,0,0,0,0,0,0
20214,2023-01-20 10:50:51.560191,171668017,1702,1596,1671,1521,1000,0,0,0,0,0,0,0,0,0
20247,2023-01-20 10:50:51.660153,171767963,1706,1561,1703,1528,1000,0,0,0,0,0,0,0,0,0
20278,2023-01-20 10:50:51.760232,171867983,1704,1603,1657,1526,1000,0,0,0,0,0,0,0,0,0
20312,2023-01-20 10:50:51.860194,171967962,1718,1572,1692,1521,1000,0,0,0,0,0,0,0,0,0
20343,2023-01-20 10:50:51.960170,172068003,1735,1536,1716,1499,1000,0,0,0,0,0,0,0,0,0
20377,2023-01-20 10:50:52.060206,172168067,1698,1582,1672,1548,1000,0,0,0,0,0,0,0,0,0
20409,2023-01-20 10:50:52.160115,172267978,1737,1537,1689,1470,1000,0,0,0,0,0,0,0,0,0
20441,2023-01-20 10:50:52.260145,172367983,1704,1567,1657,1505,1000,0,0,0,0,0,0,0,0,0
20472,2023-01-20 10:50:52.360166,172467960,1630,1590,1626,1577,1000,0,0,0,0,0,0,0,0,0
20506,2023-01-20 10:50:52.460204,172567971,1691,1573,1633,1500,1000,0,0,0,0,0,0,0,0,0
20540,2023-01-20 10:50:52.560273,172668023,1715,1511,1689,1485,1000,0,0,0,0,0,0,0,0,0
20573,2023-01-20 10:50:52.660225,172768001,1696,1523,1679,1510,1000,0,0,0,0,0,0,0,0,0
20604,2023-01-20 10:50:52.760182,172868012,1686,1557,1638,1497,1000,0,0,0,0,0,0,0,0,0
20638,2023-01-20 10:50:52.860110,172967963,1679,1569,1632,1493,1000,0,0,0,0,0,0,0,0,0
20669,2023-01-20 10:50:52.960105,173067960,1622,1574,1625,1548,1000,0,0,0,0,0,0,0,0,0
20703,2023-01-20 10:50:53.060179,173168011,1661,1558,1629,1479,1000,0,0,0,0,0,0,0,0,0
20735,2023-01-20 10:50:53.160172,173267965,1630,1553,1614,1490,1000,0,0,0,0,0,0,0,0,0
20767,2023-01-20 10:50:53.260216,173367985,1669,1515,1655,1449,1000,0,0,0,0,0,0,0,0,0
20798,2023-01-20 10:50:53.360262,173468017,1672,1495,1682,1461,1000,0,0,0,0,0,0,0,0,0
20832,2023-01-20 10:50:53.460184,173567963,1669,1585,1643,1502,1000,0,0,0,0,0,0,0,0,0
20866,2023-01-20 10:50:53.560194,173668022,1682,1572,1675,1507,1000,0,0,0,0,0,0,0,0,0
20900,2023-01-20 10:50:53.660185,173767994,1692,1617,1636,1499,1000,0,0,0,0,0,0,0,0,0
20931,2023-01-20 10:50:53.760246,173867991,1695,1581,1652,1478,1000,0,0,0,0,0,0,0,0,0
20967,2023-01-20 10:50:53.860535,173968296,1655,1557,1686,1551,1000,0,0,0,0,0,0,0,0,0
20998,2023-01-20 10:50:53.960175,174068003,1670,1545,1705,1544,1000,0,0,0,0,0,0,0,0,0
21032,2023-01-20 10:50:54.054684,174168018,1706,1533,1711,1494,1000,0,0,0,0,0,0,0,0,0
21064,2023-01-20 10:50:54.145526,174267962,1680,1567,1666,1502,1000,0,0,0,0,0,0,0,0,0
21096,2023-01-20 10:50:54.244578,174367981,1633,1585,1643,1551,1000,0,0,0,0,0,0,0,0,0
21127,2023-01-20 10:50:54.355769,174467969,1649,1581,1632,1518,1000,0,0,0,0,0,0,0,0,0
21162,2023-01-20 10:50:54.460215,174567969,1657,1571,1632,1498,1000,0,0,0,0,0,0,0,0,0
21196,2023-01-20 10:50:54.560246,174668018,1669,1551,1649,1478,1000,0,0,0,0,0,0,0,0,0
21229,2023-01-20 10:50:54.660209,174768009,1631,1559,1630,1509,1000,0,0,0,0,0,0,0,0,0
21260,2023-01-20 10:50:54.760174,174868008,1641,1587,1609,1491,1000,0,0,0,0,0,0,0,0,0
21294,2023-01-20 10:50:54.860107,174967960,1699,1528,1675,1423,1000,0,0,0,0,0,0,0,0,0
21325,2023-01-20 10:50:54.960099,175067961,1667,1518,1714,1499,1000,0,0,0,0,0,0,0,0,0
21359,2023-01-20 10:50:55.060164,175168002,1659,1531,1708,1509,1000,0,0,0,0,0,0,0,0,0
21391,2023-01-20 10:50:55.160183,175267977,1664,1549,1697,1509,1000,0,0,0,0,0,0,0,0,0
21423,2023-01-20 10:50:55.260226,175368032,1687,1557,1708,1514,1000,0,0,0,0,0,0,0,0,0
21454,2023-01-20 10:50:55.360113,175467969,1692,1554,1720,1538,1000,0,0,0,0,0,0,0,0,0
21488,2023-01-20 10:50:55.460129,175567967,1721,1599,1678,1508,1000,0,0,0,0,0,0,0,0,0
21522,2023-01-20 10:50:55.560232,175668008,1691,1619,1670,1578,1000,0,0,0,0,0,0,0,0,0
21555,2023-01-20 10:50:55.660237,175767985,1704,1535,1740,1568,1000,0,0,0,0,0,0,0,0,0
21586,2023-01-20 10:50:55.760257,175868000,1651,1587,1658,1574,1000,0,0,0,0,0,0,0,0,0
21620,2023-01-20 10:50:55.860197,175967971,1673,1508,1694,1496,1000,0,0,0,0,0,0,0,0,0
21651,2023-01-20 10:50:55.960185,176068015,1642,1479,1674,1473,1000,0,0,0,0,0,0,0,0,0
21685,2023-01-20 10:50:56.060140,176167999,1642,1519,1662,1494,1000,0,0,0,0,0,0,0,0,0
21717,2023-01-20 10:50:56.160100,176267970,1661,1587,1657,1535,1000,0,0,0,0,0,0,0,0,0
21749,2023-01-20 10:50:56.254652,176367994,1706,1562,1718,1528,1000,0,0,0,0,0,0,0,0,0
21780,2023-01-20 10:50:56.345533,176467968,1706,1611,1680,1541,1000,0,0,0,0,0,0,0,0,0
21814,2023-01-20 10:50:56.440077,176567968,1711,1614,1674,1531,1000,0,0,0,0,0,0,0,0,0
21848,2023-01-20 10:50:56.540148,176668058,1706,1563,1706,1522,1000,0,0,0,0,0,0,0,0,0
21881,2023-01-20 10:50:56.640050,176767971,1660,1581,1648,1531,1000,0,0,0,0,0,0,0,0,0
21912,2023-01-20 10:50:56.740090,176868010,1649,1561,1629,1498,1000,0,0,0,0,0,0,0,0,0
21946,2023-01-20 10:50:56.840022,176967960,1704,1551,1644,1421,1000,0,0,0,0,0,0,0,0,0
21977,2023-01-20 10:50:56.939986,177067970,1612,1575,1579,1493,1000,0,0,0,0,0,0,0,0,0
22011,2023-01-20 10:50:57.044482,177167994,1635,1536,1602,1443,1000,0,0,0,0,0,0,0,0,0
22043,2023-01-20 10:50:57.155706,177267965,1693,1546,1648,1439,1000,0,0,0,0,0,0,0,0,0
22075,2023-01-20 10:50:57.254746,177368039,1645,1601,1615,1533,1000,0,0,0,0,0,0,0,0,0
22105,2023-01-20 10:50:57.345533,177467971,1692,1578,1643,1486,1000,0,0,0,0,0,0,0,0,0
22139,2023-01-20 10:50:57.440026,177567963,1646,1576,1642,1541,1000,0,0,0,0,0,0,0,0,0
22173,2023-01-20 10:50:57.540048,177668016,1686,1601,1619,1490,1000,0,0,0,0,0,0,0,0,0
22206,2023-01-20 10:50:57.639986,177767966,1676,1572,1637,1487,1000,0,0,0,0,0,0,0,0,0
22237,2023-01-20 10:50:57.740047,177868009,1647,1544,1652,1507,1000,0,0,0,0,0,0,0,0,0
22271,2023-01-20 10:50:57.840048,177968026,1661,1563,1630,1480,1000,0,0,0,0,0,0,0,0,0
22302,2023-01-20 10:50:57.939923,178067969,1663,1586,1625,1491,1000,0,0,0,0,0,0,0,0,0
22336,2023-01-20 10:50:58.039912,178167994,1634,1607,1626,1545,1000,0,0,0,0,0,0,0,0,0
22368,2023-01-20 10:50:58.139900,178267971,1690,1603,1638,1486,1000,0,0,0,0,0,0,0,0,0
22400,2023-01-20 10:50:58.239916,178367983,1677,1592,1648,1505,1000,0,0,0,0,0,0,0,0,0
22431,2023-01-20 10:50:58.339886,178467962,1707,1599,1632,1458,1000,0,0,0,0,0,0,0,0,0
22465,2023-01-20 10:50:58.439901,178567970,1678,1542,1677,1495,1000,0,0,0,0,0,0,0,0,0
22499,2023-01-20 10:50:58.540039,178668077,1637,1536,1655,1513,1000,0,0,0,0,0,0,0,0,0
22532,2023-01-20 10:50:58.639943,178767965,1662,1499,1662,1447,1000,0,0,0,0,0,0,0,0,0
22564,2023-01-20 10:50:58.739969,178867998,1634,1550,1650,1520,1000,0,0,0,0,0,0,0,0,0
22598,2023-01-20 10:50:58.839917,178967970,1656,1583,1624,1503,1000,0,0,0,0,0,0,0,0,0
22631,2023-01-20 10:50:58.939861,179067964,1665,1587,1616,1489,1000,0,0,0,0,0,0,0,0,0
22665,2023-01-20 10:50:59.039876,179167996,1649,1556,1659,1526,1000,0,0,0,0,0,0,0,0,0
22697,2023-01-20 10:50:59.139928,179268013,1706,1526,1697,1468,1000,0,0,0,0,0,0,0,0,0
22729,2023-01-20 10:50:59.239917,179367983,1706,1547,1679,1473,1000,0,0,0,0,0,0,0,0,0
22760,2023-01-20 10:50:59.339901,179467970,1670,1572,1649,1509,1000,0,0,0,0,0,0,0,0,0
22794,2023-01-20 10:50:59.439890,179567970,1645,1597,1642,1556,1000,0,0,0,0,0,0,0,0,0
22828,2023-01-20 10:50:59.539909,179668012,1684,1619,1634,1527,1000,0,0,0,0,0,0,0,0,0
22861,2023-01-20 10:50:59.639877,179767972,1687,1592,1663,1533,1000,0,0,0,0,0,0,0,0,0
22892,2023-01-20 10:50:59.739951,179867992,1710,1535,1705,1504,1000,0,0,0,0,0,0,0,0,0
22926,2023-01-20 10:50:59.839978,179968006,1736,1554,1697,1486,1000,0,0,0,0,0,0,0,0,0
22957,2023-01-20 10:50:59.939880,180067959,1713,1593,1650,1501,1000,0,0,0,0,0,0,0,0,0
22991,2023-01-20 10:51:00.039883,180167996,1708,1561,1673,1505,1000,0,0,0,0,0,0,0,0,0
23023,2023-01-20 10:51:00.139842,180267964,1708,1549,1687,1513,1000,0,0,0,0,0,0,0,0,0
23055,2023-01-20 10:51:00.239876,180367990,1660,1600,1641,1570,1000,0,0,0,0,0,0,0,0,0
23086,2023-01-20 10:51:00.339891,180467974,1710,1582,1649,1499,1000,0,0,0,0,0,0,0,0,0
23120,2023-01-20 10:51:00.439960,180568031,1716,1485,1722,1477,1000,0,0,0,0,0,0,0,0,0
23154,2023-01-20 10:51:00.539917,180668005,1709,1564,1679,1500,1000,0,0,0,0,0,0,0,0,0
23187,2023-01-20 10:51:00.639877,180767974,1687,1602,1665,1546,1000,0,0,0,0,0,0,0,0,0
23218,2023-01-20 10:51:00.739886,180867977,1678,1564,1696,1549,1000,0,0,0,0,0,0,0,0,0
23252,2023-01-20 10:51:00.839880,180967972,1717,1560,1705,1505,1000,0,0,0,0,0,0,0,0,0
23283,2023-01-20 10:51:00.939885,181067987,1665,1571,1707,1576,1000,0,0,0,0,0,0,0,0,0
23317,2023-01-20 10:51:01.039899,181167999,1679,1589,1671,1527,1000,0,0,0,0,0,0,0,0,0
23349,2023-01-20 10:51:01.139934,181268011,1713,1569,1686,1481,1000,0,0,0,0,0,0,0,0,0
23381,2023-01-20 10:51:01.239921,181367988,1689,1552,1700,1524,1000,0,0,0,0,0,0,0,0,0
23412,2023-01-20 10:51:01.339888,181467962,1714,1549,1685,1472,1000,0,0,0,0,0,0,0,0,0
23446,2023-01-20 10:51:01.439895,181567971,1649,1555,1672,1550,1000,0,0,0,0,0,0,0,0,0
23480,2023-01-20 10:51:01.539941,181668013,1657,1599,1647,1561,1000,0,0,0,0,0,0,0,0,0
23513,2023-01-20 10:51:01.639900,181767971,1680,1607,1637,1532,1000,0,0,0,0,0,0,0,0,0
23544,2023-01-20 10:51:01.739956,181868030,1692,1549,1680,1503,1000,0,0,0,0,0,0,0,0,0
23578,2023-01-20 10:51:01.839872,181967959,1709,1517,1701,1469,1000,0,0,0,0,0,0,0,0,0
23609,2023-01-20 10:51:01.939853,182067971,1686,1516,1695,1494,1000,0,0,0,0,0,0,0,0,0
23643,2023-01-20 10:51:02.039862,182167992,1662,1539,1664,1516,1000,0,0,0,0,0,0,0,0,0
23675,2023-01-20 10:51:02.139843,182267959,1728,1532,1681,1446,1000,0,0,0,0,0,0,0,0,0
23707,2023-01-20 10:51:02.239894,182367993,1686,1577,1653,1515,1000,0,0,0,0,0,0,0,0,0
23738,2023-01-20 10:51:02.339891,182467966,1679,1602,1650,1535,1000,0,0,0,0,0,0,0,0,0
23772,2023-01-20 10:51:02.439948,182568017,1675,1559,1697,1548,1000,0,0,0,0,0,0,0,0,0
23806,2023-01-20 10:51:02.539934,182668023,1709,1555,1700,1506,1000,0,0,0,0,0,0,0,0,0
23839,2023-01-20 10:51:02.639858,182767964,1668,1610,1651,1557,1000,0,0,0,0,0,0,0,0,0
23870,2023-01-20 10:51:02.739864,182867980,1712,1606,1673,1525,1000,0,0,0,0,0,0,0,0,0
23904,2023-01-20 10:51:02.839850,182967969,1699,1526,1738,1540,1000,0,0,0,0,0,0,0,0,0
23935,2023-01-20 10:51:02.939851,183067960,1693,1626,1652,1546,1000,0,0,0,0,0,0,0,0,0
23969,2023-01-20 10:51:03.039950,183168048,1688,1575,1692,1541,1000,0,0,0,0,0,0,0,0,0
24001,2023-01-20 10:51:03.139877,183267962,1706,1558,1697,1505,1000,0,0,0,0,0,0,0,0,0
24033,2023-01-20 10:51:03.239935,183368015,1660,1607,1637,1543,1000,0,0,0,0,0,0,0,0,0
24064,2023-01-20 10:51:03.339869,183467958,1687,1589,1668,1522,1000,0,0,0,0,0,0,0,0,0
24098,2023-01-20 10:51:03.439871,183567960,1726,1546,1705,1473,1000,0,0,0,0,0,0,0,0,0
24132,2023-01-20 10:51:03.539937,183668014,1726,1548,1694,1465,1000,0,0,0,0,0,0,0,0,0
24165,2023-01-20 10:51:03.639894,183767963,1706,1594,1656,1498,1000,0,0,0,0,0,0,0,0,0
24196,2023-01-20 10:51:03.739960,183868025,1691,1605,1645,1517,1000,0,0,0,0,0,0,0,0,0
24230,2023-01-20 10:51:03.839903,183967979,1694,1552,1706,1535,1000,0,0,0,0,0,0,0,0,0
24264,2023-01-20 10:51:03.939833,184067943,1729,1549,1712,1502,1000,0,0,0,0,0,0,0,0,0
24298,2023-01-20 10:51:04.039876,184167993,1690,1625,1639,1549,1000,0,0,0,0,0,0,0,0,0
24330,2023-01-20 10:51:04.139885,184267967,1689,1535,1720,1553,1000,0,0,0,0,0,0,0,0,0
24362,2023-01-20 10:51:04.239916,184367979,1689,1589,1695,1575,1000,0,0,0,0,0,0,0,0,0
24393,2023-01-20 10:51:04.339940,184468005,1719,1624,1683,1560,1000,0,0,0,0,0,0,0,0,0
24429,2023-01-20 10:51:04.439974,184568049,1735,1596,1701,1530,1000,0,0,0,0,0,0,0,0,0
24464,2023-01-20 10:51:04.539927,184668025,1744,1576,1707,1503,1000,0,0,0,0,0,0,0,0,0
24497,2023-01-20 10:51:04.639858,184767970,1742,1580,1719,1529,1000,0,0,0,0,0,0,0,0,0
24528,2023-01-20 10:51:04.739867,184867977,1716,1554,1723,1540,1000,0,0,0,0,0,0,0,0,0
24561,2023-01-20 10:51:04.839862,184967970,1691,1615,1649,1545,1000,0,0,0,0,0,0,0,0,0
24593,2023-01-20 10:51:04.939865,185067970,1711,1609,1653,1517,1000,0,0,0,0,0,0,0,0,0
24627,2023-01-20 10:51:05.039941,185168038,1725,1549,1718,1513,1000,0,0,0,0,0,0,0,0,0
24659,2023-01-20 10:51:05.139898,185267979,1699,1630,1650,1543,1000,0,0,0,0,0,0,0,0,0
24691,2023-01-20 10:51:05.239907,185367986,1717,1545,1707,1494,1000,0,0,0,0,0,0,0,0,0
24722,2023-01-20 10:51:05.339860,185467956,1720,1574,1674,1478,1000,0,0,0,0,0,0,0,0,0
24756,2023-01-20 10:51:05.439865,185567967,1709,1591,1663,1501,1000,0,0,0,0,0,0,0,0,0
24790,2023-01-20 10:51:05.539916,185668009,1699,1581,1660,1505,1000,0,0,0,0,0,0,0,0,0
24823,2023-01-20 10:51:05.639911,185767995,1675,1533,1697,1526,1000,0,0,0,0,0,0,0,0,0
24854,2023-01-20 10:51:05.739952,185868025,1687,1546,1685,1508,1000,0,0,0,0,0,0,0,0,0
24887,2023-01-20 10:51:05.839895,185967967,1705,1537,1707,1501,1000,0,0,0,0,0,0,0,0,0
24919,2023-01-20 10:51:05.939876,186067962,1697,1615,1647,1517,1000,0,0,0,0,0,0,0,0,0
