LineNo,UTC_Approx,TimeUS,Active,NumPts,MaxPts,Action,N,E,D
5198,2023-01-20 10:50:05.589743,125591859,1,2,300,0,-0.7795408,-0.3300708,-2.73588
5947,2023-01-20 10:50:07.904126,127919345,1,3,300,0,-2.743816,-0.9744787,-3.702208
6274,2023-01-20 10:50:08.892003,128916844,1,4,300,0,-4.556384,-1.957788,-3.886178
6598,2023-01-20 10:50:09.887134,129914642,1,5,300,0,-6.502345,-3.255633,-4.176744
7020,2023-01-20 10:50:11.216910,131245006,1,6,300,0,-8.34493,-4.508969,-4.350751
10905,2023-01-20 10:50:23.189793,143237570,1,7,300,0,-8.248678,-2.419727,-4.422604
11133,2023-01-20 10:50:23.857150,143904988,1,8,300,0,-7.733704,-0.4220264,-4.653996
11358,2023-01-20 10:50:24.522162,144569945,1,9,300,0,-7.169256,2.461121,-5.129726
11558,2023-01-20 10:50:25.189713,145237552,1,10,300,0,-6.171421,5.894673,-5.661579
11785,2023-01-20 10:50:25.857193,145905053,1,11,300,0,-5.525533,8.730364,-5.689269
12432,2023-01-20 10:50:27.837427,147905017,1,12,300,0,-4.910008,10.57352,-6.226653
12856,2023-01-20 10:50:29.169777,149237527,1,13,300,0,-4.567031,10.29473,-8.561496
13305,2023-01-20 10:50:30.502153,150569977,1,14,300,0,-4.683353,9.967007,-11.10755
13730,2023-01-20 10:50:31.837170,151905016,1,15,300,0,-4.945648,9.73656,-13.50264
15678,2023-01-20 10:50:37.837221,157904979,1,16,300,0,-5.070745,12.08224,-14.77937
15901,2023-01-20 10:50:38.482374,158569985,1,17,300,0,-4.814022,14.22656,-15.05226
16102,2023-01-20 10:50:39.154392,159237525,1,18,300,0,-4.009363,17.18841,-15.40062
16328,2023-01-20 10:50:39.817178,159905039,1,19,300,0,-2.748762,20.88837,-15.83119
16427,2023-01-20 10:50:40.149743,160237513,1,20,300,0,-2.04519,22.91511,-16.04446
16553,2023-01-20 10:50:40.482120,160569954,1,21,300,0,-1.333678,25.02756,-16.27726
16654,2023-01-20 10:50:40.817266,160905057,1,22,300,0,-0.7217829,27.2104,-16.52114
16753,2023-01-20 10:50:41.149705,161237486,1,23,300,0,-0.259524,29.34077,-16.77137
16879,2023-01-20 10:50:41.482177,161569950,1,24,300,0,0.2660875,31.47824,-16.98298
16980,2023-01-20 10:50:41.817273,161905026,1,25,300,0,0.8353573,33.68758,-17.18017
17079,2023-01-20 10:50:42.149725,162237500,1,26,300,0,1.398346,35.92541,-17.36287
17205,2023-01-20 10:50:42.482108,162569943,1,27,300,0,1.988638,38.17153,-17.53167
17306,2023-01-20 10:50:42.817204,162905034,1,28,300,0,2.601046,40.46585,-17.69195
17404,2023-01-20 10:50:43.149699,163237480,1,29,300,0,3.233111,42.71447,-17.85765
17532,2023-01-20 10:50:43.482161,163569938,1,30,300,0,3.824882,44.91293,-18.02785
17633,2023-01-20 10:50:43.817183,163905008,1,31,300,0,4.326529,47.12446,-18.2174
17733,2023-01-20 10:50:44.149705,164237480,1,32,300,0,4.818771,49.27945,-18.50318
17861,2023-01-20 10:50:44.482184,164569932,1,33,300,0,5.280489,51.43576,-18.83871
17962,2023-01-20 10:50:44.817231,164905023,1,34,300,0,5.865298,53.63291,-19.1235
18060,2023-01-20 10:50:45.149722,165237486,1,35,300,0,6.480845,55.82756,-19.4059
18187,2023-01-20 10:50:45.482151,165569938,1,36,300,0,7.110412,58.06268,-19.65251
18288,2023-01-20 10:50:45.817265,165905020,1,37,300,0,7.745614,60.36722,-19.81465
18386,2023-01-20 10:50:46.149687,166237509,1,38,300,0,8.378367,62.69994,-20.01823
18513,2023-01-20 10:50:46.482219,166569946,1,39,300,0,9.047628,65.02481,-20.22523
18614,2023-01-20 10:50:46.815641,166905015,1,40,300,0,9.651525,67.36189,-20.43977
18712,2023-01-20 10:50:47.129867,167237497,1,41,300,0,10.24971,69.6812,-20.65646
18839,2023-01-20 10:50:47.462362,167569961,1,42,300,0,10.92356,72.02498,-20.85221
18938,2023-01-20 10:50:47.797397,167904958,1,43,300,0,11.58538,74.36514,-20.99283
19038,2023-01-20 10:50:48.129865,168237505,1,44,300,0,12.21994,76.68793,-21.12002
19164,2023-01-20 10:50:48.462246,168569960,1,45,300,0,12.85466,79.00293,-21.26974
19264,2023-01-20 10:50:48.797214,168905013,1,46,300,0,13.32725,81.26318,-21.43728
19367,2023-01-20 10:50:49.129672,169237505,1,47,300,0,13.82726,83.47532,-21.56671
19493,2023-01-20 10:50:49.462268,169569998,1,48,300,0,14.35904,85.70214,-21.77635
19592,2023-01-20 10:50:49.797218,169904961,1,49,300,0,14.8814,87.91496,-22.08876
19693,2023-01-20 10:50:50.129641,170237497,1,50,300,0,15.35547,90.13916,-22.44438
19694,2023-01-20 10:50:50.133770,170241626,1,50,300,2,-4.556384,-1.957788,-3.886178
19695,2023-01-20 10:50:50.133784,170241640,1,50,300,2,-6.502345,-3.255633,-4.176744
19696,2023-01-20 10:50:50.133797,170241653,1,50,300,2,-8.248678,-2.419727,-4.422604
19697,2023-01-20 10:50:50.133810,170241666,1,50,300,2,-7.733704,-0.4220264,-4.653996
19698,2023-01-20 10:50:50.133824,170241680,1,50,300,2,-7.169256,2.461121,-5.129726
19699,2023-01-20 10:50:50.133837,170241693,1,50,300,2,-6.171421,5.894673,-5.661579
19700,2023-01-20 10:50:50.133850,170241706,1,50,300,2,-5.525533,8.730364,-5.689269
19701,2023-01-20 10:50:50.133866,170241722,1,50,300,2,-4.567031,10.29473,-8.561496
19702,2023-01-20 10:50:50.133884,170241740,1,50,300,2,-4.683353,9.967007,-11.10755
19703,2023-01-20 10:50:50.133918,170241774,1,50,300,2,-4.814022,14.22656,-15.05226
19704,2023-01-20 10:50:50.133974,170241830,1,50,300,2,-4.009363,17.18841,-15.40062
19705,2023-01-20 10:50:50.133988,170241844,1,50,300,2,-2.748762,20.88837,-15.83119
19706,2023-01-20 10:50:50.134825,170242681,1,50,300,2,-2.04519,22.91511,-16.04446
19707,2023-01-20 10:50:50.134838,170242694,1,50,300,2,-1.333678,25.02756,-16.27726
19708,2023-01-20 10:50:50.134851,170242707,1,50,300,2,-0.7217829,27.2104,-16.52114
19709,2023-01-20 10:50:50.134865,170242721,1,50,300,2,-0.259524,29.34077,-16.77137
19710,2023-01-20 10:50:50.134878,170242734,1,50,300,2,0.2660875,31.47824,-16.98298
19711,2023-01-20 10:50:50.134891,170242747,1,50,300,2,0.8353573,33.68758,-17.18017
19712,2023-01-20 10:50:50.134964,170242820,1,50,300,2,1.398346,35.92541,-17.36287
19713,2023-01-20 10:50:50.134977,170242833,1,50,300,2,1.988638,38.17153,-17.53167
19714,2023-01-20 10:50:50.134993,170242849,1,50,300,2,2.601046,40.46585,-17.69195
19715,2023-01-20 10:50:50.135015,170242871,1,50,300,2,3.233111,42.71447,-17.85765
19716,2023-01-20 10:50:50.135028,170242884,1,50,300,2,3.824882,44.91293,-18.02785
19717,2023-01-20 10:50:50.135041,170242897,1,50,300,2,4.326529,47.12446,-18.2174
19718,2023-01-20 10:50:50.135055,170242911,1,50,300,2,4.818771,49.27945,-18.50318
19719,2023-01-20 10:50:50.135071,170242927,1,50,300,2,5.280489,51.43576,-18.83871
19720,2023-01-20 10:50:50.135083,170242940,1,50,300,2,5.865298,53.63291,-19.1235
19721,2023-01-20 10:50:50.135097,170242953,1,50,300,2,6.480845,55.82756,-19.4059
19722,2023-01-20 10:50:50.135111,170242967,1,50,300,2,7.110412,58.06268,-19.65251
19723,2023-01-20 10:50:50.135123,170242980,1,50,300,2,7.745614,60.36722,-19.81465
19724,2023-01-20 10:50:50.135137,170242993,1,50,300,2,8.378367,62.69994,-20.01823
19725,2023-01-20 10:50:50.135150,170243007,1,50,300,2,9.047628,65.02481,-20.22523
19726,2023-01-20 10:50:50.135167,170243023,1,50,300,2,9.651525,67.36189,-20.43977
19727,2023-01-20 10:50:50.135180,170243036,1,50,300,2,10.24971,69.6812,-20.65646
19728,2023-01-20 10:50:50.135193,170243049,1,50,300,2,10.92356,72.02498,-20.85221
19729,2023-01-20 10:50:50.135206,170243063,1,50,300,2,11.58538,74.36514,-20.99283
19730,2023-01-20 10:50:50.135220,170243076,1,50,300,2,12.21994,76.68793,-21.12002
19731,2023-01-20 10:50:50.135232,170243089,1,50,300,2,12.85466,79.00293,-21.26974
19732,2023-01-20 10:50:50.135248,170243105,1,50,300,2,13.32725,81.26318,-21.43728
19733,2023-01-20 10:50:50.135262,170243119,1,50,300,2,13.82726,83.47532,-21.56671
19734,2023-01-20 10:50:50.135276,170243132,1,50,300,2,14.35904,85.70214,-21.77635
19735,2023-01-20 10:50:50.135293,170243149,1,50,300,2,14.8814,87.91496,-22.08876
19861,2023-01-20 10:50:50.462195,170569960,1,9,300,0,15.92797,92.35486,-22.77747
19960,2023-01-20 10:50:50.797278,170905023,1,10,300,0,16.53819,94.57011,-23.06985
20061,2023-01-20 10:50:51.129690,171237485,1,11,300,0,17.18444,96.77983,-23.3339
20187,2023-01-20 10:50:51.462211,171569991,1,12,300,0,17.76936,98.99675,-23.5866
20286,2023-01-20 10:50:51.797248,171904978,1,13,300,0,18.2966,101.1908,-23.84896
20387,2023-01-20 10:50:52.129675,172237537,1,14,300,0,19.01915,103.4003,-24.09408
20513,2023-01-20 10:50:52.462165,172569931,1,15,300,0,19.73035,105.6411,-24.33887
20612,2023-01-20 10:50:52.797134,172904985,1,16,300,0,20.36018,107.8995,-24.58877
20712,2023-01-20 10:50:53.129699,173237504,1,17,300,0,20.9688,110.1453,-24.82204
20839,2023-01-20 10:50:53.462215,173569995,1,18,300,0,21.52454,112.4369,-24.98818
20939,2023-01-20 10:50:53.797259,173904981,1,19,300,0,22.11551,114.8286,-25.08941
21041,2023-01-20 10:50:54.117880,174237546,1,20,300,0,22.73805,117.2573,-25.17706
21169,2023-01-20 10:50:54.462189,174569944,1,21,300,0,23.33263,119.58,-25.35042
21268,2023-01-20 10:50:54.797408,174905255,1,22,300,0,23.88291,121.8824,-25.56637
21368,2023-01-20 10:50:55.129685,175237492,1,23,300,0,24.31811,124.1084,-25.79272
21495,2023-01-20 10:50:55.462109,175569946,1,24,300,0,24.7487,126.2708,-26.04812
21594,2023-01-20 10:50:55.797500,175905241,1,25,300,0,25.12014,128.4218,-26.35886
21694,2023-01-20 10:50:56.129647,176237514,1,26,300,0,25.61372,130.6157,-26.72061
21821,2023-01-20 10:50:56.442043,176569935,1,27,300,0,26.17869,132.8032,-27.03775
21920,2023-01-20 10:50:56.777170,176905089,1,28,300,0,26.77612,134.9802,-27.36452
22020,2023-01-20 10:50:57.121787,177237478,1,29,300,0,27.4179,137.2189,-27.66416
22147,2023-01-20 10:50:57.442006,177569944,1,30,300,0,28.0933,139.4832,-27.89165
22246,2023-01-20 10:50:57.777114,177905069,1,31,300,0,28.78569,141.7866,-28.10645
22346,2023-01-20 10:50:58.109413,178237487,1,32,300,0,29.40962,144.0308,-28.31671
22472,2023-01-20 10:50:58.441861,178569929,1,33,300,0,30.04793,146.3215,-28.51505
22573,2023-01-20 10:50:58.776939,178904970,1,34,300,0,30.61604,148.6455,-28.7381
22675,2023-01-20 10:50:59.109389,179237485,1,35,300,0,31.23055,150.9661,-28.93054
22801,2023-01-20 10:50:59.441878,179569959,1,36,300,0,31.858,153.2486,-29.13919
22901,2023-01-20 10:50:59.776954,179904975,1,37,300,0,32.45192,155.5311,-29.36756
23001,2023-01-20 10:51:00.109373,180237492,1,38,300,0,33.02254,157.8057,-29.60777
23127,2023-01-20 10:51:00.441872,180569943,1,39,300,0,33.48753,160.0322,-29.90697
23226,2023-01-20 10:51:00.776885,180904973,1,40,300,0,33.92004,162.2374,-30.2108
23327,2023-01-20 10:51:01.109403,181237487,1,41,300,0,34.34776,164.394,-30.51593
23453,2023-01-20 10:51:01.441857,181569933,1,42,300,0,34.89218,166.6115,-30.80716
23552,2023-01-20 10:51:01.776921,181904995,1,43,300,0,35.5696,168.8655,-31.06713
23653,2023-01-20 10:51:02.109350,182237471,1,44,300,0,36.21454,171.1516,-31.29977
23779,2023-01-20 10:51:02.441878,182569947,1,45,300,0,36.8482,173.4213,-31.51393
23878,2023-01-20 10:51:02.776860,182904981,1,46,300,0,37.48352,175.7095,-31.71356
23979,2023-01-20 10:51:03.109398,183237487,1,47,300,0,38.15683,177.9799,-31.90755
24105,2023-01-20 10:51:03.441906,183569995,1,48,300,0,38.79656,180.2656,-32.12111
24204,2023-01-20 10:51:03.776982,183905045,1,49,300,0,39.34084,182.5165,-32.34411
24308,2023-01-20 10:51:04.109382,184237475,1,50,300,0,39.85831,184.7659,-32.54395
24437,2023-01-20 10:51:04.441881,184569957,1,51,300,0,40.39109,187.0673,-32.73857
24536,2023-01-20 10:51:04.776853,184904962,1,52,300,0,40.97409,189.3741,-32.96841
24636,2023-01-20 10:51:05.109388,185237474,1,53,300,0,41.608,191.6857,-33.21413
24763,2023-01-20 10:51:05.441861,185569963,1,54,300,0,42.21338,193.9811,-33.47657
24862,2023-01-20 10:51:05.776958,185905027,1,55,300,0,42.88158,196.2778,-33.72929
24962,2023-01-20 10:51:06.109402,186237486,1,56,300,0,43.58411,198.5397,-33.95083
25089,2023-01-20 10:51:06.438148,186569981,1,57,300,0,44.23463,200.8222,-34.15344
25188,2023-01-20 10:51:06.757172,186904969,1,58,300,0,44.76399,203.1291,-34.35206
25189,2023-01-20 10:51:06.759921,186907721,1,58,300,2,15.92797,92.35486,-22.77747
25190,2023-01-20 10:51:06.759934,186907734,1,58,300,2,16.53819,94.57011,-23.06985
25191,2023-01-20 10:51:06.759947,186907747,1,58,300,2,17.18444,96.77983,-23.3339
25192,2023-01-20 10:51:06.760017,186907817,1,58,300,2,17.76936,98.99675,-23.5866
25193,2023-01-20 10:51:06.760030,186907830,1,58,300,2,18.2966,101.1908,-23.84896
25194,2023-01-20 10:51:06.760044,186907844,1,58,300,2,19.01915,103.4003,-24.09408
25195,2023-01-20 10:51:06.760057,186907857,1,58,300,2,19.73035,105.6411,-24.33887
25196,2023-01-20 10:51:06.760070,186907870,1,58,300,2,20.36018,107.8995,-24.58877
25197,2023-01-20 10:51:06.760088,186907888,1,58,300,2,20.9688,110.1453,-24.82204
25198,2023-01-20 10:51:06.760101,186907901,1,58,300,2,21.52454,112.4369,-24.98818
25199,2023-01-20 10:51:06.760114,186907914,1,58,300,2,22.11551,114.8286,-25.08941
25200,2023-01-20 10:51:06.760127,186907927,1,58,300,2,22.73805,117.2573,-25.17706
25201,2023-01-20 10:51:06.760141,186907941,1,58,300,2,23.33263,119.58,-25.35042
25202,2023-01-20 10:51:06.760154,186907954,1,58,300,2,23.88291,121.8824,-25.56637
25203,2023-01-20 10:51:06.760167,186907967,1,58,300,2,24.31811,124.1084,-25.79272
25204,2023-01-20 10:51:06.760181,186907981,1,58,300,2,24.7487,126.2708,-26.04812
25205,2023-01-20 10:51:06.760194,186907994,1,58,300,2,25.12014,128.4218,-26.35886
25206,2023-01-20 10:51:06.760207,186908007,1,58,300,2,25.61372,130.6157,-26.72061
25207,2023-01-20 10:51:06.760221,186908021,1,58,300,2,26.17869,132.8032,-27.03775
25208,2023-01-20 10:51:06.760234,186908034,1,58,300,2,26.77612,134.9802,-27.36452
25209,2023-01-20 10:51:06.760247,186908047,1,58,300,2,27.4179,137.2189,-27.66416
25210,2023-01-20 10:51:06.760261,186908061,1,58,300,2,28.0933,139.4832,-27.89165
25211,2023-01-20 10:51:06.760274,186908074,1,58,300,2,28.78569,141.7866,-28.10645
25212,2023-01-20 10:51:06.760287,186908087,1,58,300,2,29.40962,144.0308,-28.31671
25213,2023-01-20 10:51:06.760301,186908101,1,58,300,2,30.04793,146.3215,-28.51505
25214,2023-01-20 10:51:06.760314,186908114,1,58,300,2,30.61604,148.6455,-28.7381
25215,2023-01-20 10:51:06.760332,186908132,1,58,300,2,31.23055,150.9661,-28.93054
25216,2023-01-20 10:51:06.760345,186908145,1,58,300,2,31.858,153.2486,-29.13919
25217,2023-01-20 10:51:06.760413,186908213,1,58,300,2,32.45192,155.5311,-29.36756
25218,2023-01-20 10:51:06.760426,186908226,1,58,300,2,33.02254,157.8057,-29.60777
25219,2023-01-20 10:51:06.760439,186908239,1,58,300,2,33.48753,160.0322,-29.90697
25220,2023-01-20 10:51:06.760453,186908253,1,58,300,2,33.92004,162.2374,-30.2108
25221,2023-01-20 10:51:06.760466,186908266,1,58,300,2,34.34776,164.394,-30.51593
25222,2023-01-20 10:51:06.760479,186908279,1,58,300,2,34.89218,166.6115,-30.80716
25223,2023-01-20 10:51:06.760493,186908293,1,58,300,2,35.5696,168.8655,-31.06713
25224,2023-01-20 10:51:06.760506,186908306,1,58,300,2,36.21454,171.1516,-31.29977
25225,2023-01-20 10:51:06.760543,186908343,1,58,300,2,36.8482,173.4213,-31.51393
25226,2023-01-20 10:51:06.760556,186908356,1,58,300,2,37.48352,175.7095,-31.71356
25227,2023-01-20 10:51:06.760569,186908369,1,58,300,2,38.15683,177.9799,-31.90755
25228,2023-01-20 10:51:06.760583,186908383,1,58,300,2,38.79656,180.2656,-32.12111
25229,2023-01-20 10:51:06.760596,186908396,1,58,300,2,39.34084,182.5165,-32.34411
25230,2023-01-20 10:51:06.760609,186908409,1,58,300,2,39.85831,184.7659,-32.54395
25231,2023-01-20 10:51:06.760623,186908423,1,58,300,2,40.39109,187.0673,-32.73857
25232,2023-01-20 10:51:06.760636,186908436,1,58,300,2,40.97409,189.3741,-32.96841
25233,2023-01-20 10:51:06.760653,186908453,1,58,300,2,41.608,191.6857,-33.21413
25234,2023-01-20 10:51:06.760665,186908466,1,58,300,2,42.21338,193.9811,-33.47657
25235,2023-01-20 10:51:06.760679,186908480,1,58,300,2,42.88158,196.2778,-33.72929
25236,2023-01-20 10:51:06.760693,186908493,1,58,300,2,43.58411,198.5397,-33.95083
25237,2023-01-20 10:51:06.760705,186908506,1,58,300,2,44.23463,200.8222,-34.15344
25337,2023-01-20 10:51:07.089900,187237533,1,10,300,0,45.25637,205.3456,-34.57764
25464,2023-01-20 10:51:07.424765,187569947,1,11,300,0,45.82704,207.5492,-34.83176
25563,2023-01-20 10:51:07.761143,187904969,1,12,300,0,46.41806,209.7819,-35.13986
25663,2023-01-20 10:51:08.089782,188237504,1,13,300,0,46.96197,211.9485,-35.46345
25790,2023-01-20 10:51:08.422266,188570012,1,14,300,0,47.49321,214.1308,-35.7501
25889,2023-01-20 10:51:08.757123,188904971,1,15,300,0,48.07868,216.3902,-35.99264
25992,2023-01-20 10:51:09.089743,189237557,1,16,300,0,48.74369,218.683,-36.23431
26118,2023-01-20 10:51:09.422204,189569952,1,17,300,0,49.39808,220.9804,-36.48645
26218,2023-01-20 10:51:09.757246,189904985,1,18,300,0,50.01459,223.2845,-36.72992
26318,2023-01-20 10:51:10.089658,190237499,1,19,300,0,50.56972,225.558,-36.93721
26444,2023-01-20 10:51:10.422205,190569965,1,20,300,0,51.12044,227.8454,-37.11044
26544,2023-01-20 10:51:10.757113,190904983,1,21,300,0,51.68523,230.1441,-37.28608
26644,2023-01-20 10:51:11.089670,191237506,1,22,300,0,52.25215,232.4045,-37.46584
26770,2023-01-20 10:51:11.422129,191569963,1,23,300,0,52.82442,234.6454,-37.66914
26870,2023-01-20 10:51:11.757243,191904987,1,24,300,0,53.43356,236.9044,-37.89452
26970,2023-01-20 10:51:12.089640,192237485,1,25,300,0,54.07021,239.1115,-38.15224
27096,2023-01-20 10:51:12.422193,192569951,1,26,300,0,54.69759,241.3316,-38.45037
27195,2023-01-20 10:51:12.757223,192904981,1,27,300,0,55.31594,243.58,-38.73575
27296,2023-01-20 10:51:13.089662,193237504,1,28,300,0,55.93275,245.8104,-38.99453
27422,2023-01-20 10:51:13.422125,193569955,1,29,300,0,56.5243,248.0374,-39.2193
27521,2023-01-20 10:51:13.757225,193904987,1,30,300,0,57.1002,250.2943,-39.41901
27625,2023-01-20 10:51:14.089675,194237521,1,31,300,0,57.67354,252.5199,-39.60804
27752,2023-01-20 10:51:14.422194,194569952,1,32,300,0,58.30568,254.7858,-39.81562
27851,2023-01-20 10:51:14.757223,194904979,1,33,300,0,58.92323,257.0626,-40.03781
27952,2023-01-20 10:51:15.089652,195237487,1,34,300,0,59.54631,259.3155,-40.28201
28078,2023-01-20 10:51:15.422217,195569961,1,35,300,0,60.22106,261.5732,-40.52304
28177,2023-01-20 10:51:15.757204,195904972,1,36,300,0,60.73598,263.823,-40.7897
28278,2023-01-20 10:51:16.089655,196237480,1,37,300,0,61.07613,266.0264,-41.04418
28404,2023-01-20 10:51:16.420202,196569943,1,38,300,0,61.4425,268.2263,-41.27122
28503,2023-01-20 10:51:16.737351,196904983,1,39,300,0,61.88644,270.4678,-41.50093
28603,2023-01-20 10:51:17.069707,197237499,1,40,300,0,62.39256,272.6804,-41.75999
28730,2023-01-20 10:51:17.402343,197569993,1,41,300,0,62.98917,274.9279,-42.02853
28829,2023-01-20 10:51:17.737219,197904965,1,42,300,0,63.60439,277.1793,-42.29184
28929,2023-01-20 10:51:18.069772,198237488,1,43,300,0,64.30197,279.4483,-42.54181
29056,2023-01-20 10:51:18.402263,198569994,1,44,300,0,64.98598,281.7294,-42.7781
29155,2023-01-20 10:51:18.737224,198905027,1,45,300,0,65.65585,283.9996,-42.98889
29258,2023-01-20 10:51:19.069681,199237500,1,46,300,0,66.28165,286.2558,-43.17492
29385,2023-01-20 10:51:19.402132,199569976,1,47,300,0,66.86838,288.5439,-43.36455
29484,2023-01-20 10:51:19.737227,199904972,1,48,300,0,67.31454,290.8231,-43.57752
29584,2023-01-20 10:51:20.069632,200237494,1,49,300,0,67.87294,293.085,-43.77153
29711,2023-01-20 10:51:20.402215,200569993,1,50,300,0,68.45138,295.3516,-43.98491
29810,2023-01-20 10:51:20.737261,200905026,1,51,300,0,69.05402,297.6525,-44.20964
29910,2023-01-20 10:51:21.069669,201237507,1,52,300,0,69.6309,299.9142,-44.42585
30037,2023-01-20 10:51:21.402265,201570010,1,53,300,0,70.21897,302.1419,-44.61948
30134,2023-01-20 10:51:21.736565,201904275,1,54,300,0,70.86558,304.3496,-44.82873
30225,2023-01-20 10:51:22.067202,202234881,1,55,300,0,71.42977,306.5186,-45.05233
30320,2023-01-20 10:51:22.400055,202567699,1,56,300,0,71.85028,308.5484,-45.27181
30520,2023-01-20 10:51:23.065038,203232748,1,57,300,0,72.28206,312.2075,-45.69815
30724,2023-01-20 10:51:23.729723,203897367,1,58,300,0,72.10444,315.3411,-46.0744
30915,2023-01-20 10:51:24.394825,204562603,1,59,300,0,71.74635,318.0859,-46.20686
30945,2023-01-20 10:51:24.400796,204568575,1,59,300,2,45.25637,205.3456,-34.57764
30946,2023-01-20 10:51:24.400809,204568588,1,59,300,2,45.82704,207.5492,-34.83176
30947,2023-01-20 10:51:24.400823,204568602,1,59,300,2,46.41806,209.7819,-35.13986
30948,2023-01-20 10:51:24.400836,204568615,1,59,300,2,46.96197,211.9485,-35.46345
30949,2023-01-20 10:51:24.400849,204568628,1,59,300,2,47.49321,214.1308,-35.7501
30950,2023-01-20 10:51:24.400862,204568641,1,59,300,2,48.07868,216.3902,-35.99264
30951,2023-01-20 10:51:24.400876,204568655,1,59,300,2,48.74369,218.683,-36.23431
30952,2023-01-20 10:51:24.400889,204568668,1,59,300,2,49.39808,220.9804,-36.48645
30953,2023-01-20 10:51:24.400902,204568681,1,59,300,2,50.01459,223.2845,-36.72992
30954,2023-01-20 10:51:24.400916,204568695,1,59,300,2,50.56972,225.558,-36.93721
30955,2023-01-20 10:51:24.400929,204568708,1,59,300,2,51.12044,227.8454,-37.11044
30956,2023-01-20 10:51:24.400946,204568725,1,59,300,2,51.68523,230.1441,-37.28608
30957,2023-01-20 10:51:24.400959,204568738,1,59,300,2,52.25215,232.4045,-37.46584
30958,2023-01-20 10:51:24.400973,204568752,1,59,300,2,52.82442,234.6454,-37.66914
30959,2023-01-20 10:51:24.401042,204568821,1,59,300,2,53.43356,236.9044,-37.89452
30960,2023-01-20 10:51:24.401056,204568835,1,59,300,2,54.07021,239.1115,-38.15224
30961,2023-01-20 10:51:24.401069,204568848,1,59,300,2,54.69759,241.3316,-38.45037
30962,2023-01-20 10:51:24.401082,204568861,1,59,300,2,55.31594,243.58,-38.73575
30963,2023-01-20 10:51:24.401096,204568875,1,59,300,2,55.93275,245.8104,-38.99453
30964,2023-01-20 10:51:24.401109,204568888,1,59,300,2,56.5243,248.0374,-39.2193
30965,2023-01-20 10:51:24.401122,204568901,1,59,300,2,57.1002,250.2943,-39.41901
30966,2023-01-20 10:51:24.401136,204568915,1,59,300,2,57.67354,252.5199,-39.60804
30967,2023-01-20 10:51:24.401149,204568928,1,59,300,2,58.30568,254.7858,-39.81562
30968,2023-01-20 10:51:24.401162,204568941,1,59,300,2,58.92323,257.0626,-40.03781
30969,2023-01-20 10:51:24.401176,204568955,1,59,300,2,59.54631,259.3155,-40.28201
30970,2023-01-20 10:51:24.401189,204568968,1,59,300,2,60.22106,261.5732,-40.52304
30971,2023-01-20 10:51:24.401202,204568981,1,59,300,2,60.73598,263.823,-40.7897
30972,2023-01-20 10:51:24.401220,204568999,1,59,300,2,61.07613,266.0264,-41.04418
30973,2023-01-20 10:51:24.401248,204569027,1,59,300,2,61.4425,268.2263,-41.27122
30974,2023-01-20 10:51:24.401262,204569041,1,59,300,2,61.88644,270.4678,-41.50093
30975,2023-01-20 10:51:24.401275,204569054,1,59,300,2,62.39256,272.6804,-41.75999
30976,2023-01-20 10:51:24.401288,204569067,1,59,300,2,62.98917,274.9279,-42.02853
30977,2023-01-20 10:51:24.401302,204569081,1,59,300,2,63.60439,277.1793,-42.29184
30978,2023-01-20 10:51:24.401315,204569094,1,59,300,2,64.30197,279.4483,-42.54181
30979,2023-01-20 10:51:24.401328,204569107,1,59,300,2,64.98598,281.7294,-42.7781
30980,2023-01-20 10:51:24.401342,204569121,1,59,300,2,65.65585,283.9996,-42.98889
30981,2023-01-20 10:51:24.401355,204569134,1,59,300,2,66.28165,286.2558,-43.17492
30982,2023-01-20 10:51:24.401368,204569147,1,59,300,2,66.86838,288.5439,-43.36455
30983,2023-01-20 10:51:24.401432,204569211,1,59,300,2,67.31454,290.8231,-43.57752
30984,2023-01-20 10:51:24.401445,204569224,1,59,300,2,67.87294,293.085,-43.77153
30985,2023-01-20 10:51:24.401458,204569237,1,59,300,2,68.45138,295.3516,-43.98491
30986,2023-01-20 10:51:24.401472,204569251,1,59,300,2,69.05402,297.6525,-44.20964
30987,2023-01-20 10:51:24.401485,204569264,1,59,300,2,69.6309,299.9142,-44.42585
30988,2023-01-20 10:51:24.401511,204569290,1,59,300,2,70.21897,302.1419,-44.61948
30989,2023-01-20 10:51:24.401524,204569303,1,59,300,2,70.86558,304.3496,-44.82873
30990,2023-01-20 10:51:24.401538,204569317,1,59,300,2,71.85028,308.5484,-45.27181
30991,2023-01-20 10:51:24.401551,204569330,1,59,300,2,72.28206,312.2075,-45.69815
30992,2023-01-20 10:51:24.401564,204569343,1,59,300,2,72.10444,315.3411,-46.0744
31191,2023-01-20 10:51:25.059983,205227838,1,12,300,0,71.13013,320.1583,-46.29217
31609,2023-01-20 10:51:26.369854,206557486,1,13,300,0,71.16014,322.5674,-46.73792
31933,2023-01-20 10:51:27.367239,207554933,1,14,300,0,72.14773,325.3871,-47.14838
32162,2023-01-20 10:51:28.032127,208219972,1,15,300,0,73.06212,328.2558,-47.51027
32386,2023-01-20 10:51:28.697197,208884980,1,16,300,0,74.00878,331.8275,-47.98418
32489,2023-01-20 10:51:29.029635,209217475,1,17,300,0,74.5651,333.7846,-48.23456
32586,2023-01-20 10:51:29.362200,209549960,1,18,300,0,75.21212,335.8368,-48.49501
32715,2023-01-20 10:51:29.694683,209882472,1,19,300,0,75.91177,337.9241,-48.73294
32816,2023-01-20 10:51:30.027588,210215440,1,20,300,0,76.64398,340.0373,-48.95626
32911,2023-01-20 10:51:30.359732,210547493,1,21,300,0,77.3949,342.1653,-49.14994
33041,2023-01-20 10:51:30.692190,210879969,1,22,300,0,78.14956,344.3003,-49.32969
33142,2023-01-20 10:51:31.024646,211212475,1,23,300,0,78.85186,346.4327,-49.50668
33232,2023-01-20 10:51:31.357245,211544893,1,24,300,0,79.4711,348.602,-49.68192
33350,2023-01-20 10:51:31.689987,211877642,1,25,300,0,80.00383,350.6791,-49.82028
33527,2023-01-20 10:51:32.354731,212542372,1,26,300,0,80.79501,354.2846,-49.99339
33735,2023-01-20 10:51:33.019711,213207396,1,27,300,0,81.27557,357.2477,-50.03871
33939,2023-01-20 10:51:33.684704,213872432,1,28,300,0,81.12988,359.6852,-49.88773
34140,2023-01-20 10:51:34.349740,214537509,1,29,300,0,80.7066,361.6424,-49.59806
34595,2023-01-20 10:51:35.662357,215869944,1,30,300,0,80.57837,363.7927,-49.90087
34919,2023-01-20 10:51:36.662204,216869957,1,31,300,0,81.46667,366.1887,-50.31347
35104,2023-01-20 10:51:37.329749,217537406,1,32,300,0,82.35938,368.7075,-50.7192
35324,2023-01-20 10:51:37.997115,218204970,1,33,300,0,83.18718,371.1315,-51.02494
35627,2023-01-20 10:51:38.997141,219204834,1,34,300,0,83.52541,373.4936,-51.06713
36169,2023-01-20 10:51:40.662210,220869968,1,35,300,0,82.76749,375.4826,-50.74898
36687,2023-01-20 10:51:42.329690,222537510,1,36,300,0,83.39787,377.451,-51.1281
37011,2023-01-20 10:51:43.329708,223537486,1,37,300,0,84.71161,380.0638,-51.59302
37240,2023-01-20 10:51:43.997204,224205047,1,38,300,0,85.96518,382.5904,-52.07566
37467,2023-01-20 10:51:44.662189,224869911,1,39,300,0,87.3597,385.5679,-52.54007
37656,2023-01-20 10:51:45.317911,225537550,1,40,300,0,88.58076,388.5881,-52.83687
37883,2023-01-20 10:51:45.977098,226205077,1,41,300,0,89.3798,390.968,-52.88894
38207,2023-01-20 10:51:46.976877,227204993,1,42,300,0,90.31631,393.2491,-52.9684
38531,2023-01-20 10:51:47.976881,228204988,1,43,300,0,91.47884,395.1653,-53.47019
38856,2023-01-20 10:51:48.976889,229205001,1,44,300,0,92.79019,397.6551,-54.14313
39084,2023-01-20 10:51:49.641888,229869990,1,45,300,0,93.75616,399.5491,-54.5754
39279,2023-01-20 10:51:50.309435,230537499,1,46,300,0,94.76475,401.4708,-54.91573
39603,2023-01-20 10:51:51.309391,231537490,1,47,300,0,95.70805,403.8454,-55.2154
40255,2023-01-20 10:51:53.309385,233537486,1,48,300,0,93.09757,403.6678,-55.36776
40581,2023-01-20 10:51:54.299520,234537501,1,49,300,0,90.92242,402.3032,-55.36826
40907,2023-01-20 10:51:55.289876,235537513,1,50,300,0,89.08524,400.8888,-55.46745
41236,2023-01-20 10:51:56.289728,236537500,1,51,300,0,86.89364,399.4644,-55.56898
41463,2023-01-20 10:51:56.957305,237205058,1,52,300,0,84.7693,398.3278,-55.55283
41689,2023-01-20 10:51:57.622195,237870008,1,53,300,0,81.98365,396.8263,-55.52965
41885,2023-01-20 10:51:58.289751,238537549,1,54,300,0,78.62694,394.953,-55.55421
42013,2023-01-20 10:51:58.622132,238869961,1,55,300,0,76.81316,393.9116,-55.589
42115,2023-01-20 10:51:58.957168,239205015,1,56,300,0,74.93823,392.8398,-55.6291
42214,2023-01-20 10:51:59.289693,239537499,1,57,300,0,73.01346,391.7426,-55.65597
42343,2023-01-20 10:51:59.622199,239870008,1,58,300,0,71.08878,390.6234,-55.69192
42442,2023-01-20 10:51:59.957139,240205003,1,59,300,0,69.14989,389.4568,-55.73512
42541,2023-01-20 10:52:00.289776,240537540,1,60,300,0,67.17702,388.3036,-55.7775
42669,2023-01-20 10:52:00.622133,240869951,1,61,300,0,65.15588,387.1544,-55.81575
42671,2023-01-20 10:52:00.628470,240876286,1,61,300,2,71.13013,320.1583,-46.29217
42672,2023-01-20 10:52:00.628507,240876323,1,61,300,2,72.14773,325.3871,-47.14838
42673,2023-01-20 10:52:00.628521,240876337,1,61,300,2,73.06212,328.2558,-47.51027
42674,2023-01-20 10:52:00.628538,240876354,1,61,300,2,74.00878,331.8275,-47.98418
42675,2023-01-20 10:52:00.628555,240876370,1,61,300,2,74.5651,333.7846,-48.23456
42676,2023-01-20 10:52:00.628567,240876383,1,61,300,2,75.21212,335.8368,-48.49501
42677,2023-01-20 10:52:00.628581,240876396,1,61,300,2,75.91177,337.9241,-48.73294
42678,2023-01-20 10:52:00.628594,240876410,1,61,300,2,76.64398,340.0373,-48.95626
42679,2023-01-20 10:52:00.628608,240876423,1,61,300,2,77.3949,342.1653,-49.14994
42680,2023-01-20 10:52:00.628620,240876436,1,61,300,2,78.14956,344.3003,-49.32969
42681,2023-01-20 10:52:00.628633,240876449,1,61,300,2,78.85186,346.4327,-49.50668
42682,2023-01-20 10:52:00.628648,240876463,1,61,300,2,79.4711,348.602,-49.68192
42683,2023-01-20 10:52:00.628660,240876476,1,61,300,2,80.00383,350.6791,-49.82028
42684,2023-01-20 10:52:00.628674,240876489,1,61,300,2,81.27557,357.2477,-50.03871
42685,2023-01-20 10:52:00.628688,240876503,1,61,300,2,81.12988,359.6852,-49.88773
42686,2023-01-20 10:52:00.628700,240876516,1,61,300,2,80.7066,361.6424,-49.59806
42687,2023-01-20 10:52:00.628716,240876532,1,61,300,2,81.46667,366.1887,-50.31347
42688,2023-01-20 10:52:00.628730,240876545,1,61,300,2,82.35938,368.7075,-50.7192
42689,2023-01-20 10:52:00.628744,240876559,1,61,300,2,83.52541,373.4936,-51.06713
42690,2023-01-20 10:52:00.628757,240876572,1,61,300,2,83.39787,377.451,-51.1281
42691,2023-01-20 10:52:00.628771,240876586,1,61,300,2,84.71161,380.0638,-51.59302
42692,2023-01-20 10:52:00.628783,240876599,1,61,300,2,85.96518,382.5904,-52.07566
42693,2023-01-20 10:52:00.628797,240876612,1,61,300,2,87.3597,385.5679,-52.54007
42694,2023-01-20 10:52:00.628814,240876629,1,61,300,2,88.58076,388.5881,-52.83687
42695,2023-01-20 10:52:00.628828,240876643,1,61,300,2,89.3798,390.968,-52.88894
42696,2023-01-20 10:52:00.628841,240876656,1,61,300,2,90.31631,393.2491,-52.9684
42697,2023-01-20 10:52:00.628854,240876669,1,61,300,2,91.47884,395.1653,-53.47019
42698,2023-01-20 10:52:00.628867,240876682,1,61,300,2,92.79019,397.6551,-54.14313
42699,2023-01-20 10:52:00.628881,240876696,1,61,300,2,93.75616,399.5491,-54.5754
42700,2023-01-20 10:52:00.628897,240876712,1,61,300,2,94.76475,401.4708,-54.91573
42701,2023-01-20 10:52:00.628910,240876725,1,61,300,2,90.92242,402.3032,-55.36826
42702,2023-01-20 10:52:00.628924,240876739,1,61,300,2,89.08524,400.8888,-55.46745
42703,2023-01-20 10:52:00.628957,240876772,1,61,300,2,86.89364,399.4644,-55.56898
42704,2023-01-20 10:52:00.629007,240876822,1,61,300,2,84.7693,398.3278,-55.55283
42705,2023-01-20 10:52:00.629020,240876835,1,61,300,2,81.98365,396.8263,-55.52965
42706,2023-01-20 10:52:00.630285,240878100,1,61,300,2,78.62694,394.953,-55.55421
42707,2023-01-20 10:52:00.630299,240878114,1,61,300,2,76.81316,393.9116,-55.589
42708,2023-01-20 10:52:00.630312,240878127,1,61,300,2,74.93823,392.8398,-55.6291
42709,2023-01-20 10:52:00.630326,240878141,1,61,300,2,73.01346,391.7426,-55.65597
42710,2023-01-20 10:52:00.630389,240878204,1,61,300,2,71.08878,390.6234,-55.69192
42711,2023-01-20 10:52:00.630403,240878218,1,61,300,2,69.14989,389.4568,-55.73512
42712,2023-01-20 10:52:00.630416,240878231,1,61,300,2,67.17702,388.3036,-55.7775
42810,2023-01-20 10:52:00.957179,241205012,1,20,300,0,63.12471,385.9815,-55.84869
42910,2023-01-20 10:52:01.289690,241537512,1,21,300,0,61.10715,384.842,-55.86597
43038,2023-01-20 10:52:01.622160,241869977,1,22,300,0,59.11493,383.6987,-55.87196
43137,2023-01-20 10:52:01.957143,242205017,1,23,300,0,57.09956,382.5324,-55.87034
43235,2023-01-20 10:52:02.289727,242537514,1,24,300,0,55.09446,381.3808,-55.87154
43364,2023-01-20 10:52:02.622123,242869982,1,25,300,0,53.071,380.2238,-55.87061
43463,2023-01-20 10:52:02.957149,243204993,1,26,300,0,51.01988,379.0672,-55.86247
43562,2023-01-20 10:52:03.289695,243537517,1,27,300,0,49.01709,377.9092,-55.85115
43691,2023-01-20 10:52:03.622218,243869966,1,28,300,0,47.03138,376.7538,-55.83678
43792,2023-01-20 10:52:03.957152,244205003,1,29,300,0,45.02474,375.6065,-55.81916
43890,2023-01-20 10:52:04.281687,244537514,1,30,300,0,43.03865,374.4613,-55.80198
44021,2023-01-20 10:52:04.602718,244870009,1,31,300,0,41.06934,373.3078,-55.78322
44120,2023-01-20 10:52:04.942978,245205006,1,32,300,0,39.06981,372.1607,-55.76537
44218,2023-01-20 10:52:05.269790,245537509,1,33,300,0,37.09214,371.0151,-55.75114
44348,2023-01-20 10:52:05.602316,245869996,1,34,300,0,35.1348,369.8737,-55.73519
44447,2023-01-20 10:52:05.937188,246205007,1,35,300,0,33.18829,368.7039,-55.72584
44545,2023-01-20 10:52:06.269743,246537501,1,36,300,0,31.22178,367.5583,-55.72568
44675,2023-01-20 10:52:06.602142,246870004,1,37,300,0,29.26459,366.383,-55.73755
44775,2023-01-20 10:52:06.937167,247205000,1,38,300,0,27.31416,365.1739,-55.75146
44873,2023-01-20 10:52:07.269759,247537518,1,39,300,0,25.32426,364.0016,-55.75068
45001,2023-01-20 10:52:07.602226,247870010,1,40,300,0,23.34044,362.8419,-55.75111
45102,2023-01-20 10:52:07.937135,248205003,1,41,300,0,21.31103,361.6451,-55.7495
45200,2023-01-20 10:52:08.269765,248537507,1,42,300,0,19.30076,360.4821,-55.74623
45328,2023-01-20 10:52:08.602149,248870011,1,43,300,0,17.28797,359.3382,-55.74478
45430,2023-01-20 10:52:08.937164,249204994,1,44,300,0,15.28725,358.1969,-55.73993
45528,2023-01-20 10:52:09.269766,249537516,1,45,300,0,13.31693,357.0563,-55.73572
45656,2023-01-20 10:52:09.602182,249870007,1,46,300,0,11.28862,355.8854,-55.72876
45757,2023-01-20 10:52:09.937239,250205064,1,47,300,0,9.22233,354.7126,-55.7167
45856,2023-01-20 10:52:10.269767,250537510,1,48,300,0,7.179895,353.5329,-55.70528
45984,2023-01-20 10:52:10.602125,250869996,1,49,300,0,5.175572,352.3692,-55.69754
46083,2023-01-20 10:52:10.937173,251205004,1,50,300,0,3.183017,351.2224,-55.6911
46182,2023-01-20 10:52:11.269660,251537486,1,51,300,0,1.198809,350.0879,-55.68526
46310,2023-01-20 10:52:11.602158,251869988,1,52,300,0,-0.8084054,348.9313,-55.67944
46409,2023-01-20 10:52:11.937215,252205048,1,53,300,0,-2.835153,347.7479,-55.66934
46509,2023-01-20 10:52:12.269767,252537505,1,54,300,0,-4.895212,346.566,-55.65661
46637,2023-01-20 10:52:12.602206,252870030,1,55,300,0,-6.949574,345.3922,-55.64639
46736,2023-01-20 10:52:12.937158,253204990,1,56,300,0,-8.979748,344.2082,-55.64007
46835,2023-01-20 10:52:13.269745,253537555,1,57,300,0,-11.02874,343.0235,-55.624
46963,2023-01-20 10:52:13.602225,253869983,1,58,300,0,-13.0737,341.8426,-55.61044
47064,2023-01-20 10:52:13.937157,254205003,1,59,300,0,-15.13979,340.6656,-55.59563
47164,2023-01-20 10:52:14.255445,254537505,1,60,300,0,-17.19122,339.5157,-55.56892
47293,2023-01-20 10:52:14.602018,254870052,1,61,300,0,-19.28459,338.359,-55.536
47393,2023-01-20 10:52:14.917335,255205003,1,62,300,0,-21.34379,337.1976,-55.50274
47491,2023-01-20 10:52:15.263499,255537555,1,63,300,0,-23.33968,336.0425,-55.47918
47618,2023-01-20 10:52:15.582386,255870053,1,64,300,0,-25.36267,334.8581,-55.4626
47719,2023-01-20 10:52:15.917298,256205004,1,65,300,0,-27.35934,333.6833,-55.4461
47818,2023-01-20 10:52:16.249775,256537497,1,66,300,0,-29.3449,332.5293,-55.43184
47945,2023-01-20 10:52:16.582229,256870046,1,67,300,0,-31.36359,331.3633,-55.4183
48046,2023-01-20 10:52:16.917196,257205009,1,68,300,0,-33.40464,330.1932,-55.40382
48144,2023-01-20 10:52:17.249688,257537515,1,69,300,0,-35.40634,329.0254,-55.39965
48145,2023-01-20 10:52:17.252762,257540588,1,69,300,2,63.12471,385.9815,-55.84869
48146,2023-01-20 10:52:17.252775,257540601,1,69,300,2,61.10715,384.842,-55.86597
48147,2023-01-20 10:52:17.252792,257540618,1,69,300,2,59.11493,383.6987,-55.87196
48148,2023-01-20 10:52:17.252808,257540634,1,69,300,2,57.09956,382.5324,-55.87034
48149,2023-01-20 10:52:17.252821,257540647,1,69,300,2,55.09446,381.3808,-55.87154
48150,2023-01-20 10:52:17.252834,257540660,1,69,300,2,53.071,380.2238,-55.87061
48151,2023-01-20 10:52:17.252848,257540674,1,69,300,2,51.01988,379.0672,-55.86247
48152,2023-01-20 10:52:17.252861,257540687,1,69,300,2,49.01709,377.9092,-55.85115
48153,2023-01-20 10:52:17.252874,257540700,1,69,300,2,47.03138,376.7538,-55.83678
48154,2023-01-20 10:52:17.252894,257540720,1,69,300,2,45.02474,375.6065,-55.81916
48155,2023-01-20 10:52:17.252908,257540734,1,69,300,2,43.03865,374.4613,-55.80198
48156,2023-01-20 10:52:17.252921,257540747,1,69,300,2,41.06934,373.3078,-55.78322
48157,2023-01-20 10:52:17.252998,257540824,1,69,300,2,39.06981,372.1607,-55.76537
48158,2023-01-20 10:52:17.253011,257540837,1,69,300,2,37.09214,371.0151,-55.75114
48159,2023-01-20 10:52:17.253025,257540851,1,69,300,2,35.1348,369.8737,-55.73519
48160,2023-01-20 10:52:17.253038,257540864,1,69,300,2,33.18829,368.7039,-55.72584
48161,2023-01-20 10:52:17.253051,257540877,1,69,300,2,31.22178,367.5583,-55.72568
48162,2023-01-20 10:52:17.253067,257540893,1,69,300,2,29.26459,366.383,-55.73755
48163,2023-01-20 10:52:17.253081,257540907,1,69,300,2,27.31416,365.1739,-55.75146
48164,2023-01-20 10:52:17.253094,257540920,1,69,300,2,25.32426,364.0016,-55.75068
48165,2023-01-20 10:52:17.253107,257540933,1,69,300,2,23.34044,362.8419,-55.75111
48166,2023-01-20 10:52:17.253121,257540947,1,69,300,2,21.31103,361.6451,-55.7495
48167,2023-01-20 10:52:17.253134,257540960,1,69,300,2,19.30076,360.4821,-55.74623
48168,2023-01-20 10:52:17.253150,257540976,1,69,300,2,17.28797,359.3382,-55.74478
48169,2023-01-20 10:52:17.253163,257540989,1,69,300,2,15.28725,358.1969,-55.73993
48170,2023-01-20 10:52:17.253176,257541002,1,69,300,2,13.31693,357.0563,-55.73572
48171,2023-01-20 10:52:17.253190,257541016,1,69,300,2,11.28862,355.8854,-55.72876
48172,2023-01-20 10:52:17.253203,257541029,1,69,300,2,9.22233,354.7126,-55.7167
48173,2023-01-20 10:52:17.253216,257541042,1,69,300,2,7.179895,353.5329,-55.70528
48174,2023-01-20 10:52:17.253230,257541056,1,69,300,2,5.175572,352.3692,-55.69754
48175,2023-01-20 10:52:17.253246,257541072,1,69,300,2,3.183017,351.2224,-55.6911
48176,2023-01-20 10:52:17.253287,257541113,1,69,300,2,1.198809,350.0879,-55.68526
48177,2023-01-20 10:52:17.253300,257541126,1,69,300,2,-0.8084054,348.9313,-55.67944
48178,2023-01-20 10:52:17.253313,257541139,1,69,300,2,-2.835153,347.7479,-55.66934
48179,2023-01-20 10:52:17.253329,257541155,1,69,300,2,-4.895212,346.566,-55.65661
48180,2023-01-20 10:52:17.253401,257541227,1,69,300,2,-6.949574,345.3922,-55.64639
48181,2023-01-20 10:52:17.253417,257541243,1,69,300,2,-8.979748,344.2082,-55.64007
48182,2023-01-20 10:52:17.253430,257541256,1,69,300,2,-11.02874,343.0235,-55.624
48183,2023-01-20 10:52:17.253444,257541270,1,69,300,2,-13.0737,341.8426,-55.61044
48184,2023-01-20 10:52:17.253457,257541283,1,69,300,2,-15.13979,340.6656,-55.59563
48185,2023-01-20 10:52:17.253472,257541298,1,69,300,2,-17.19122,339.5157,-55.56892
48186,2023-01-20 10:52:17.253488,257541314,1,69,300,2,-19.28459,338.359,-55.536
48187,2023-01-20 10:52:17.253504,257541330,1,69,300,2,-21.34379,337.1976,-55.50274
48188,2023-01-20 10:52:17.253517,257541343,1,69,300,2,-23.33968,336.0425,-55.47918
48189,2023-01-20 10:52:17.253550,257541376,1,69,300,2,-25.36267,334.8581,-55.4626
48190,2023-01-20 10:52:17.253574,257541400,1,69,300,2,-27.35934,333.6833,-55.4461
48191,2023-01-20 10:52:17.253590,257541416,1,69,300,2,-29.3449,332.5293,-55.43184
48192,2023-01-20 10:52:17.253603,257541429,1,69,300,2,-31.36359,331.3633,-55.4183
48193,2023-01-20 10:52:17.253617,257541443,1,69,300,2,-33.40464,330.1932,-55.40382
48320,2023-01-20 10:52:17.582221,257870035,1,21,300,0,-37.42962,327.8592,-55.39546
48421,2023-01-20 10:52:17.917146,258205000,1,22,300,0,-39.51007,326.6957,-55.3855
48519,2023-01-20 10:52:18.249758,258537516,1,23,300,0,-41.5415,325.5202,-55.38383
48647,2023-01-20 10:52:18.582221,258869971,1,24,300,0,-43.52431,324.3512,-55.38557
48750,2023-01-20 10:52:18.917197,259205005,1,25,300,0,-45.49974,323.197,-55.38443
48848,2023-01-20 10:52:19.249762,259537512,1,26,300,0,-47.54318,322.0551,-55.37765
48974,2023-01-20 10:52:19.582173,259869990,1,27,300,0,-49.58104,320.9233,-55.37438
49077,2023-01-20 10:52:19.917151,260205004,1,28,300,0,-51.60009,319.7744,-55.36739
49175,2023-01-20 10:52:20.249712,260537505,1,29,300,0,-53.58207,318.6185,-55.36357
49302,2023-01-20 10:52:20.582134,260869966,1,30,300,0,-55.60045,317.4414,-55.36819
49404,2023-01-20 10:52:20.917196,261205019,1,31,300,0,-57.63959,316.245,-55.36967
49502,2023-01-20 10:52:21.249752,261537495,1,32,300,0,-59.64902,315.0817,-55.36632
49628,2023-01-20 10:52:21.582147,261869971,1,33,300,0,-61.7082,313.9137,-55.36684
49730,2023-01-20 10:52:21.917194,262205014,1,34,300,0,-63.77148,312.7326,-55.37525
49828,2023-01-20 10:52:22.249748,262537503,1,35,300,0,-65.79021,311.5692,-55.37197
49954,2023-01-20 10:52:22.582134,262869955,1,36,300,0,-67.84332,310.3906,-55.36438
50057,2023-01-20 10:52:22.917200,263205008,1,37,300,0,-69.92083,309.1824,-55.36301
50155,2023-01-20 10:52:23.245257,263537486,1,38,300,0,-71.9494,307.9917,-55.3701
50281,2023-01-20 10:52:23.562390,263869975,1,39,300,0,-73.9921,306.8148,-55.37037
50384,2023-01-20 10:52:23.897334,264204993,1,40,300,0,-76.03123,305.6305,-55.36774
50483,2023-01-20 10:52:24.229800,264537483,1,41,300,0,-78.00991,304.4508,-55.36502
50610,2023-01-20 10:52:24.562283,264869962,1,42,300,0,-79.98808,303.2775,-55.36254
50712,2023-01-20 10:52:24.897250,265205054,1,43,300,0,-81.98025,302.1096,-55.36776
50812,2023-01-20 10:52:25.229791,265537489,1,44,300,0,-83.94538,300.96,-55.37063
50938,2023-01-20 10:52:25.562295,265869963,1,45,300,0,-85.97845,299.7792,-55.37716
51039,2023-01-20 10:52:25.897123,266204984,1,46,300,0,-88.05405,298.6012,-55.38758
51138,2023-01-20 10:52:26.229721,266537506,1,47,300,0,-90.071,297.4278,-55.38615
51264,2023-01-20 10:52:26.562136,266869960,1,48,300,0,-92.06872,296.2644,-55.39439
51365,2023-01-20 10:52:26.897194,267205037,1,49,300,0,-94.06556,295.0858,-55.40527
51464,2023-01-20 10:52:27.229761,267537510,1,50,300,0,-96.05476,293.9015,-55.40903
51591,2023-01-20 10:52:27.562165,267870006,1,51,300,0,-98.05428,292.7381,-55.40529
51692,2023-01-20 10:52:27.897177,268204988,1,52,300,0,-100.1105,291.586,-55.40259
51790,2023-01-20 10:52:28.229753,268537539,1,53,300,0,-102.1939,290.4482,-55.41776
51917,2023-01-20 10:52:28.562129,268869954,1,54,300,0,-104.2668,289.2865,-55.43738
52020,2023-01-20 10:52:28.897157,269205002,1,55,300,0,-106.2935,288.1229,-55.45391
52119,2023-01-20 10:52:29.229748,269537498,1,56,300,0,-108.2792,286.958,-55.45097
52246,2023-01-20 10:52:29.562156,269869998,1,57,300,0,-110.3006,285.8002,-55.43255
52347,2023-01-20 10:52:29.897190,270205003,1,58,300,0,-112.3397,284.6419,-55.42043
52446,2023-01-20 10:52:30.229714,270537548,1,59,300,0,-114.3509,283.513,-55.40952
52572,2023-01-20 10:52:30.562176,270869976,1,60,300,0,-116.3885,282.3763,-55.40284
52674,2023-01-20 10:52:30.897184,271205024,1,61,300,0,-118.4476,281.2049,-55.39639
52773,2023-01-20 10:52:31.229787,271537520,1,62,300,0,-120.4906,280.0493,-55.39297
52899,2023-01-20 10:52:31.562115,271869972,1,63,300,0,-122.5457,278.88,-55.39106
53001,2023-01-20 10:52:31.897207,272205026,1,64,300,0,-124.6011,277.7085,-55.39039
53099,2023-01-20 10:52:32.229665,272537498,1,65,300,0,-126.6516,276.5402,-55.38432
53225,2023-01-20 10:52:32.562172,272869965,1,66,300,0,-128.7097,275.375,-55.38202
53327,2023-01-20 10:52:32.897131,273205016,1,67,300,0,-130.7359,274.2188,-55.38401
53425,2023-01-20 10:52:33.229730,273537503,1,68,300,0,-132.7387,273.063,-55.38248
53552,2023-01-20 10:52:33.547339,273869957,1,69,300,0,-134.7023,271.9005,-55.38345
53655,2023-01-20 10:52:33.877021,274204999,1,70,300,0,-136.6355,270.7375,-55.38871
53657,2023-01-20 10:52:33.879849,274207828,1,70,300,2,-37.42962,327.8592,-55.39546
53658,2023-01-20 10:52:33.879862,274207841,1,70,300,2,-39.51007,326.6957,-55.3855
53659,2023-01-20 10:52:33.879875,274207854,1,70,300,2,-41.5415,325.5202,-55.38383
53660,2023-01-20 10:52:33.879889,274207868,1,70,300,2,-43.52431,324.3512,-55.38557
53661,2023-01-20 10:52:33.879902,274207881,1,70,300,2,-45.49974,323.197,-55.38443
53662,2023-01-20 10:52:33.879915,274207894,1,70,300,2,-47.54318,322.0551,-55.37765
53663,2023-01-20 10:52:33.879929,274207908,1,70,300,2,-49.58104,320.9233,-55.37438
53664,2023-01-20 10:52:33.879942,274207921,1,70,300,2,-51.60009,319.7744,-55.36739
53665,2023-01-20 10:52:33.879955,274207934,1,70,300,2,-53.58207,318.6185,-55.36357
53666,2023-01-20 10:52:33.879969,274207948,1,70,300,2,-55.60045,317.4414,-55.36819
53667,2023-01-20 10:52:33.879982,274207961,1,70,300,2,-57.63959,316.245,-55.36967
53668,2023-01-20 10:52:33.879995,274207974,1,70,300,2,-59.64902,315.0817,-55.36632
53669,2023-01-20 10:52:33.880009,274207988,1,70,300,2,-61.7082,313.9137,-55.36684
53670,2023-01-20 10:52:33.880022,274208001,1,70,300,2,-63.77148,312.7326,-55.37525
53671,2023-01-20 10:52:33.880035,274208014,1,70,300,2,-65.79021,311.5692,-55.37197
53672,2023-01-20 10:52:33.880049,274208028,1,70,300,2,-67.84332,310.3906,-55.36438
53673,2023-01-20 10:52:33.880062,274208041,1,70,300,2,-69.92083,309.1824,-55.36301
53674,2023-01-20 10:52:33.880075,274208054,1,70,300,2,-71.9494,307.9917,-55.3701
53675,2023-01-20 10:52:33.880089,274208068,1,70,300,2,-73.9921,306.8148,-55.37037
53676,2023-01-20 10:52:33.880106,274208085,1,70,300,2,-76.03123,305.6305,-55.36774
53677,2023-01-20 10:52:33.880119,274208098,1,70,300,2,-78.00991,304.4508,-55.36502
53678,2023-01-20 10:52:33.880132,274208111,1,70,300,2,-79.98808,303.2775,-55.36254
53679,2023-01-20 10:52:33.880146,274208125,1,70,300,2,-81.98025,302.1096,-55.36776
53680,2023-01-20 10:52:33.880159,274208138,1,70,300,2,-83.94538,300.96,-55.37063
53681,2023-01-20 10:52:33.880172,274208151,1,70,300,2,-85.97845,299.7792,-55.37716
53682,2023-01-20 10:52:33.880236,274208215,1,70,300,2,-88.05405,298.6012,-55.38758
53683,2023-01-20 10:52:33.880249,274208228,1,70,300,2,-90.071,297.4278,-55.38615
53684,2023-01-20 10:52:33.880263,274208242,1,70,300,2,-92.06872,296.2644,-55.39439
53685,2023-01-20 10:52:33.880276,274208255,1,70,300,2,-94.06556,295.0858,-55.40527
53686,2023-01-20 10:52:33.880289,274208268,1,70,300,2,-96.05476,293.9015,-55.40903
53687,2023-01-20 10:52:33.880302,274208281,1,70,300,2,-98.05428,292.7381,-55.40529
53688,2023-01-20 10:52:33.880316,274208295,1,70,300,2,-100.1105,291.586,-55.40259
53689,2023-01-20 10:52:33.880329,274208308,1,70,300,2,-102.1939,290.4482,-55.41776
53690,2023-01-20 10:52:33.880358,274208337,1,70,300,2,-104.2668,289.2865,-55.43738
53691,2023-01-20 10:52:33.880371,274208350,1,70,300,2,-106.2935,288.1229,-55.45391
53692,2023-01-20 10:52:33.880388,274208367,1,70,300,2,-108.2792,286.958,-55.45097
53693,2023-01-20 10:52:33.880401,274208380,1,70,300,2,-110.3006,285.8002,-55.43255
53694,2023-01-20 10:52:33.880415,274208394,1,70,300,2,-112.3397,284.6419,-55.42043
53695,2023-01-20 10:52:33.880428,274208407,1,70,300,2,-114.3509,283.513,-55.40952
53696,2023-01-20 10:52:33.880441,274208420,1,70,300,2,-116.3885,282.3763,-55.40284
53697,2023-01-20 10:52:33.880454,274208433,1,70,300,2,-118.4476,281.2049,-55.39639
53698,2023-01-20 10:52:33.880468,274208447,1,70,300,2,-120.4906,280.0493,-55.39297
53699,2023-01-20 10:52:33.880481,274208460,1,70,300,2,-122.5457,278.88,-55.39106
53700,2023-01-20 10:52:33.880494,274208473,1,70,300,2,-124.6011,277.7085,-55.39039
53701,2023-01-20 10:52:33.880508,274208487,1,70,300,2,-126.6516,276.5402,-55.38432
53702,2023-01-20 10:52:33.880521,274208500,1,70,300,2,-128.7097,275.375,-55.38202
53703,2023-01-20 10:52:33.880534,274208513,1,70,300,2,-130.7359,274.2188,-55.38401
53704,2023-01-20 10:52:33.880547,274208526,1,70,300,2,-132.7387,273.063,-55.38248
53705,2023-01-20 10:52:33.880561,274208540,1,70,300,2,-134.7023,271.9005,-55.38345
53803,2023-01-20 10:52:34.209492,274537496,1,22,300,0,-138.5808,269.5851,-55.39629
53930,2023-01-20 10:52:34.541956,274869990,1,23,300,0,-140.5375,268.4302,-55.40178
54031,2023-01-20 10:52:34.876885,275205001,1,24,300,0,-142.5472,267.2518,-55.41382
54131,2023-01-20 10:52:35.209422,275537505,1,25,300,0,-144.5514,266.0817,-55.41651
54258,2023-01-20 10:52:35.541879,275869970,1,26,300,0,-146.486,264.9002,-55.43507
54359,2023-01-20 10:52:35.876901,276205003,1,27,300,0,-148.4528,263.7135,-55.46395
54458,2023-01-20 10:52:36.209416,276537504,1,28,300,0,-150.4468,262.5496,-55.48618
54584,2023-01-20 10:52:36.541881,276869964,1,29,300,0,-152.4922,261.3823,-55.49591
54685,2023-01-20 10:52:36.876832,277204991,1,30,300,0,-154.5882,260.185,-55.50363
54784,2023-01-20 10:52:37.209413,277537488,1,31,300,0,-156.6363,259.0096,-55.51228
54912,2023-01-20 10:52:37.541871,277869980,1,32,300,0,-158.641,257.8452,-55.52143
55014,2023-01-20 10:52:37.876900,278204999,1,33,300,0,-160.6899,256.6703,-55.53042
55112,2023-01-20 10:52:38.209416,278537513,1,34,300,0,-162.7281,255.5035,-55.53782
55239,2023-01-20 10:52:38.541891,278869974,1,35,300,0,-164.7515,254.3479,-55.53364
55341,2023-01-20 10:52:38.876885,279204991,1,36,300,0,-166.8213,253.1721,-55.52851
55440,2023-01-20 10:52:39.209418,279537503,1,37,300,0,-168.8841,252.0038,-55.51529
55567,2023-01-20 10:52:39.541838,279869966,1,38,300,0,-170.9245,250.8348,-55.50954
55668,2023-01-20 10:52:39.876937,280205041,1,39,300,0,-172.9883,249.6419,-55.50158
55768,2023-01-20 10:52:40.209385,280537506,1,40,300,0,-175.0181,248.479,-55.49702
55895,2023-01-20 10:52:40.541871,280869962,1,41,300,0,-177.0884,247.3166,-55.49271
55995,2023-01-20 10:52:40.876875,281204981,1,42,300,0,-179.1413,246.1574,-55.47987
56094,2023-01-20 10:52:41.209419,281537510,1,43,300,0,-181.1542,244.9991,-55.47131
56221,2023-01-20 10:52:41.541864,281869966,1,44,300,0,-183.1862,243.8351,-55.47354
56321,2023-01-20 10:52:41.876961,282205060,1,45,300,0,-185.2482,242.6631,-55.47307
56419,2023-01-20 10:52:42.190835,282537485,1,46,300,0,-187.2907,241.5004,-55.4626
56547,2023-01-20 10:52:42.522392,282869999,1,47,300,0,-189.3136,240.3521,-55.44073
56648,2023-01-20 10:52:42.857381,283204997,1,48,300,0,-191.2989,239.2004,-55.43973
56745,2023-01-20 10:52:43.189904,283537545,1,49,300,0,-193.2626,238.0527,-55.44669
56873,2023-01-20 10:52:43.522274,283869971,1,50,300,0,-195.2347,236.9107,-55.45668
56974,2023-01-20 10:52:43.857366,284205012,1,51,300,0,-197.2517,235.739,-55.46324
57074,2023-01-20 10:52:44.189747,284537498,1,52,300,0,-199.2544,234.5764,-55.46331
57203,2023-01-20 10:52:44.522165,284870006,1,53,300,0,-201.3168,233.3936,-55.45722
57304,2023-01-20 10:52:44.857206,285204993,1,54,300,0,-203.3451,232.2088,-55.45701
57401,2023-01-20 10:52:45.189732,285537564,1,55,300,0,-205.3615,231.0268,-55.45664
57530,2023-01-20 10:52:45.522183,285869980,1,56,300,0,-207.4058,229.8445,-55.46603
57630,2023-01-20 10:52:45.857227,286205013,1,57,300,0,-209.4073,228.6863,-55.48355
57728,2023-01-20 10:52:46.189640,286537511,1,58,300,0,-211.4221,227.5269,-55.4994
57857,2023-01-20 10:52:46.522150,286869959,1,59,300,0,-213.4448,226.3658,-55.50439
57957,2023-01-20 10:52:46.857187,287204994,1,60,300,0,-215.4759,225.1769,-55.50644
58055,2023-01-20 10:52:47.189725,287537529,1,61,300,0,-217.4508,223.9944,-55.51377
58183,2023-01-20 10:52:47.522206,287869967,1,62,300,0,-219.374,222.8205,-55.5307
58283,2023-01-20 10:52:47.857213,288204998,1,63,300,0,-221.3586,221.6313,-55.55348
58381,2023-01-20 10:52:48.189698,288537568,1,64,300,0,-223.3583,220.4642,-55.55963
58510,2023-01-20 10:52:48.522172,288869964,1,65,300,0,-225.3882,219.2893,-55.56289
58610,2023-01-20 10:52:48.857407,289205266,1,66,300,0,-227.4684,218.1314,-55.55904
58710,2023-01-20 10:52:49.189715,289537544,1,67,300,0,-229.5067,216.9947,-55.54945
58838,2023-01-20 10:52:49.522168,289869973,1,68,300,0,-231.5651,215.8637,-55.54029
58938,2023-01-20 10:52:49.857202,290204986,1,69,300,0,-233.6134,214.709,-55.54037
59036,2023-01-20 10:52:50.189691,290537519,1,70,300,0,-235.6107,213.5619,-55.54486
59165,2023-01-20 10:52:50.522159,290869995,1,71,300,0,-237.5916,212.4099,-55.55017
59166,2023-01-20 10:52:50.526279,290874114,1,71,300,2,-138.5808,269.5851,-55.39629
59167,2023-01-20 10:52:50.526292,290874127,1,71,300,2,-140.5375,268.4302,-55.40178
59168,2023-01-20 10:52:50.526306,290874141,1,71,300,2,-142.5472,267.2518,-55.41382
59169,2023-01-20 10:52:50.526371,290874206,1,71,300,2,-144.5514,266.0817,-55.41651
59170,2023-01-20 10:52:50.526385,290874220,1,71,300,2,-146.486,264.9002,-55.43507
59171,2023-01-20 10:52:50.526402,290874237,1,71,300,2,-148.4528,263.7135,-55.46395
59172,2023-01-20 10:52:50.526415,290874250,1,71,300,2,-150.4468,262.5496,-55.48618
59173,2023-01-20 10:52:50.526429,290874264,1,71,300,2,-152.4922,261.3823,-55.49591
59174,2023-01-20 10:52:50.526442,290874277,1,71,300,2,-154.5882,260.185,-55.50363
59175,2023-01-20 10:52:50.526456,290874291,1,71,300,2,-156.6363,259.0096,-55.51228
59176,2023-01-20 10:52:50.527471,290875306,1,71,300,2,-158.641,257.8452,-55.52143
59177,2023-01-20 10:52:50.527484,290875319,1,71,300,2,-160.6899,256.6703,-55.53042
59178,2023-01-20 10:52:50.527497,290875332,1,71,300,2,-162.7281,255.5035,-55.53782
59179,2023-01-20 10:52:50.527511,290875346,1,71,300,2,-164.7515,254.3479,-55.53364
59180,2023-01-20 10:52:50.527528,290875363,1,71,300,2,-166.8213,253.1721,-55.52851
59181,2023-01-20 10:52:50.527542,290875377,1,71,300,2,-168.8841,252.0038,-55.51529
59182,2023-01-20 10:52:50.527555,290875390,1,71,300,2,-170.9245,250.8348,-55.50954
59183,2023-01-20 10:52:50.527571,290875406,1,71,300,2,-172.9883,249.6419,-55.50158
59184,2023-01-20 10:52:50.527585,290875420,1,71,300,2,-175.0181,248.479,-55.49702
59185,2023-01-20 10:52:50.527598,290875433,1,71,300,2,-177.0884,247.3166,-55.49271
59186,2023-01-20 10:52:50.527692,290875527,1,71,300,2,-179.1413,246.1574,-55.47987
59187,2023-01-20 10:52:50.527705,290875540,1,71,300,2,-181.1542,244.9991,-55.47131
59188,2023-01-20 10:52:50.527719,290875554,1,71,300,2,-183.1862,243.8351,-55.47354
59189,2023-01-20 10:52:50.527735,290875570,1,71,300,2,-185.2482,242.6631,-55.47307
59190,2023-01-20 10:52:50.527748,290875583,1,71,300,2,-187.2907,241.5004,-55.4626
59191,2023-01-20 10:52:50.527762,290875597,1,71,300,2,-189.3136,240.3521,-55.44073
59192,2023-01-20 10:52:50.527775,290875610,1,71,300,2,-191.2989,239.2004,-55.43973
59193,2023-01-20 10:52:50.527788,290875623,1,71,300,2,-193.2626,238.0527,-55.44669
59194,2023-01-20 10:52:50.527806,290875641,1,71,300,2,-195.2347,236.9107,-55.45668
59195,2023-01-20 10:52:50.527819,290875654,1,71,300,2,-197.2517,235.739,-55.46324
59196,2023-01-20 10:52:50.527833,290875668,1,71,300,2,-199.2544,234.5764,-55.46331
59197,2023-01-20 10:52:50.527846,290875681,1,71,300,2,-201.3168,233.3936,-55.45722
59198,2023-01-20 10:52:50.527860,290875695,1,71,300,2,-203.3451,232.2088,-55.45701
59199,2023-01-20 10:52:50.528035,290875870,1,71,300,2,-205.3615,231.0268,-55.45664
59200,2023-01-20 10:52:50.528064,290875899,1,71,300,2,-207.4058,229.8445,-55.46603
59201,2023-01-20 10:52:50.528083,290875918,1,71,300,2,-209.4073,228.6863,-55.48355
59202,2023-01-20 10:52:50.528100,290875935,1,71,300,2,-211.4221,227.5269,-55.4994
59203,2023-01-20 10:52:50.528114,290875949,1,71,300,2,-213.4448,226.3658,-55.50439
59204,2023-01-20 10:52:50.528127,290875962,1,71,300,2,-215.4759,225.1769,-55.50644
59205,2023-01-20 10:52:50.528140,290875975,1,71,300,2,-217.4508,223.9944,-55.51377
59206,2023-01-20 10:52:50.528154,290875989,1,71,300,2,-219.374,222.8205,-55.5307
59207,2023-01-20 10:52:50.528167,290876002,1,71,300,2,-221.3586,221.6313,-55.55348
59208,2023-01-20 10:52:50.528180,290876015,1,71,300,2,-223.3583,220.4642,-55.55963
59209,2023-01-20 10:52:50.528196,290876031,1,71,300,2,-225.3882,219.2893,-55.56289
59210,2023-01-20 10:52:50.528212,290876047,1,71,300,2,-227.4684,218.1314,-55.55904
59211,2023-01-20 10:52:50.528225,290876060,1,71,300,2,-229.5067,216.9947,-55.54945
59212,2023-01-20 10:52:50.528238,290876073,1,71,300,2,-231.5651,215.8637,-55.54029
59213,2023-01-20 10:52:50.528252,290876087,1,71,300,2,-233.6134,214.709,-55.54037
59214,2023-01-20 10:52:50.528267,290876102,1,71,300,2,-235.6107,213.5619,-55.54486
59315,2023-01-20 10:52:50.857212,291205054,1,23,300,0,-239.5869,211.2242,-55.55774
59412,2023-01-20 10:52:51.189768,291537515,1,24,300,0,-241.5442,210.0588,-55.55713
59541,2023-01-20 10:52:51.522182,291870003,1,25,300,0,-243.5419,208.9001,-55.56088
59641,2023-01-20 10:52:51.837485,292205048,1,26,300,0,-245.5672,207.7467,-55.57011
59738,2023-01-20 10:52:52.169859,292537496,1,27,300,0,-247.545,206.608,-55.57948
59867,2023-01-20 10:52:52.502354,292869967,1,28,300,0,-249.5145,205.4542,-55.59284
59968,2023-01-20 10:52:52.837367,293205054,1,29,300,0,-251.5566,204.2708,-55.60415
60065,2023-01-20 10:52:53.169839,293537501,1,30,300,0,-253.581,203.1001,-55.61301
60194,2023-01-20 10:52:53.502279,293869977,1,31,300,0,-255.5958,201.9335,-55.61745
60294,2023-01-20 10:52:53.837294,294205034,1,32,300,0,-257.5804,200.754,-55.6167
60393,2023-01-20 10:52:54.169616,294537477,1,33,300,0,-259.5738,199.5787,-55.61423
60523,2023-01-20 10:52:54.502226,294869972,1,34,300,0,-261.637,198.3885,-55.61271
60623,2023-01-20 10:52:54.837242,295205091,1,35,300,0,-263.7036,197.1991,-55.60212
60721,2023-01-20 10:52:55.169638,295537475,1,36,300,0,-265.7652,196.0338,-55.58897
60850,2023-01-20 10:52:55.502214,295870026,1,37,300,0,-267.8015,194.868,-55.58648
60951,2023-01-20 10:52:55.837277,296205043,1,38,300,0,-269.856,193.6849,-55.58348
61048,2023-01-20 10:52:56.169712,296537541,1,39,300,0,-271.8717,192.5268,-55.57516
61176,2023-01-20 10:52:56.502238,296869983,1,40,300,0,-273.9051,191.4074,-55.56408
61277,2023-01-20 10:52:56.837238,297205092,1,41,300,0,-275.9234,190.2616,-55.56411
61375,2023-01-20 10:52:57.169698,297537492,1,42,300,0,-277.9361,189.1126,-55.55849
61503,2023-01-20 10:52:57.502189,297869998,1,43,300,0,-279.9324,187.9407,-55.55885
61604,2023-01-20 10:52:57.837279,298205038,1,44,300,0,-281.9496,186.7779,-55.56456
61701,2023-01-20 10:52:58.169729,298537560,1,45,300,0,-283.9268,185.621,-55.58067
61829,2023-01-20 10:52:58.502259,298870007,1,46,300,0,-285.8983,184.4536,-55.60672
61929,2023-01-20 10:52:58.837297,299205058,1,47,300,0,-287.8701,183.2654,-55.63996
62029,2023-01-20 10:52:59.169665,299537496,1,48,300,0,-289.8562,182.1081,-55.67321
62158,2023-01-20 10:52:59.502210,299870003,1,48,300,3,-291.8473,180.9353,-55.70327
62258,2023-01-20 10:52:59.837267,300205048,1,49,300,0,-293.9243,179.7503,-55.72325
62356,2023-01-20 10:53:00.169701,300537550,1,50,300,0,-296.0296,178.5613,-55.72993
62485,2023-01-20 10:53:00.502231,300869966,1,51,300,0,-298.1353,177.3901,-55.73389
62585,2023-01-20 10:53:00.837247,301205041,1,52,300,0,-300.2169,176.2205,-55.72494
62683,2023-01-20 10:53:01.169733,301537526,1,53,300,0,-302.267,175.0745,-55.71998
62812,2023-01-20 10:53:01.502223,301869968,1,54,300,0,-304.2728,173.9151,-55.7205
62912,2023-01-20 10:53:01.837283,302205063,1,55,300,0,-306.2849,172.7412,-55.71415
63010,2023-01-20 10:53:02.154422,302537525,1,56,300,0,-308.2652,171.5657,-55.71546
63138,2023-01-20 10:53:02.482334,302869958,1,57,300,0,-310.1985,170.38,-55.73274
63238,2023-01-20 10:53:02.817464,303205092,1,58,300,0,-312.1731,169.2024,-55.75212
63335,2023-01-20 10:53:03.149859,303537521,1,59,300,0,-314.16,168.05,-55.75557
63465,2023-01-20 10:53:03.482251,303869962,1,60,300,0,-316.1928,166.8948,-55.7569
63565,2023-01-20 10:53:03.817338,304205087,1,61,300,0,-318.2428,165.7551,-55.74872
63664,2023-01-20 10:53:04.149745,304537528,1,62,300,0,-320.276,164.6026,-55.74116
63794,2023-01-20 10:53:04.482223,304869968,1,63,300,0,-322.2892,163.4493,-55.74806
63894,2023-01-20 10:53:04.817345,305205104,1,64,300,0,-324.3261,162.3069,-55.73744
63991,2023-01-20 10:53:05.149692,305537523,1,65,300,0,-326.3647,161.1647,-55.72138
64121,2023-01-20 10:53:05.482238,305869982,1,66,300,0,-328.3799,160.0191,-55.71808
64222,2023-01-20 10:53:05.817288,306205124,1,67,300,0,-330.4252,158.856,-55.70944
64319,2023-01-20 10:53:06.149719,306537506,1,68,300,0,-332.4375,157.7046,-55.69666
64448,2023-01-20 10:53:06.482175,306869976,1,69,300,0,-334.4801,156.5327,-55.70251
64548,2023-01-20 10:53:06.817259,307205099,1,70,300,0,-336.505,155.3366,-55.69728
64645,2023-01-20 10:53:07.149725,307537509,1,71,300,0,-338.5238,154.1563,-55.69334
64774,2023-01-20 10:53:07.482237,307869974,1,72,300,0,-340.5539,152.9666,-55.69156
64775,2023-01-20 10:53:07.484936,307872673,1,72,300,2,-239.5869,211.2242,-55.55774
