LineNo,UTC_Approx,TimeUS,Id,Pri,Total,Free,Name
1859,2023-01-20 10:49:56.743806,116745566,1,1,352,144,idle
1906,2023-01-20 10:49:56.843613,116845584,2,60,1104,768,UART_RX
1950,2023-01-20 10:49:56.943603,116945575,3,60,656,400,OTG1
2001,2023-01-20 10:49:57.043960,117045923,4,183,1360,1016,monitor
2047,2023-01-20 10:49:57.145001,117146943,5,181,1872,1488,timer
2096,2023-01-20 10:49:57.250003,117246969,6,181,848,592,rcout
2154,2023-01-20 10:49:57.361038,117346978,7,177,1360,912,rcin
2213,2023-01-20 10:49:57.460264,117448358,8,58,2384,1456,io
2271,2023-01-20 10:49:57.552151,117549429,9,59,1360,824,storage
2326,2023-01-20 10:49:57.647407,117649477,10,60,656,248,UART3
2382,2023-01-20 10:49:57.748451,117750544,11,60,656,264,UART4
2431,2023-01-20 10:49:57.848450,117850569,12,60,656,264,UART5
2473,2023-01-20 10:49:57.949759,117951908,13,176,1360,856,I2C0
2516,2023-01-20 10:49:58.049825,118051948,14,59,1616,896,OSD
2555,2023-01-20 10:49:58.150993,118153032,15,59,1912,392,log_io
2598,2023-01-20 10:49:58.252881,118254896,16,181,1360,720,SPI1
2636,2023-01-20 10:49:58.352432,118354478,255,255,1536,1264,ISR
2677,2023-01-20 10:49:58.452404,118454465,0,182,7168,5368,ArduCopter
2715,2023-01-20 10:49:58.553465,118555528,1,1,352,144,idle
2758,2023-01-20 10:49:58.655208,118657287,2,60,1104,768,UART_RX
2799,2023-01-20 10:49:58.755197,118757302,3,60,656,400,OTG1
2841,2023-01-20 10:49:58.856214,118858330,4,183,1360,1016,monitor
2881,2023-01-20 10:49:58.957365,118959480,5,181,1872,1488,timer
2921,2023-01-20 10:49:59.057361,119059460,6,181,848,592,rcout
2959,2023-01-20 10:49:59.158405,119160477,7,177,1360,912,rcin
3002,2023-01-20 10:49:59.258424,119260486,8,58,2384,1456,io
3040,2023-01-20 10:49:59.358479,119360542,9,59,1360,824,storage
3083,2023-01-20 10:49:59.460004,119462070,10,60,656,248,UART3
3123,2023-01-20 10:49:59.561256,119563327,11,60,656,264,UART4
3165,2023-01-20 10:49:59.662554,119664638,12,60,656,264,UART5
3207,2023-01-20 10:49:59.763634,119765736,13,176,1360,856,I2C0
3269,2023-01-20 10:49:59.865322,119867434,14,59,1616,896,OSD
3308,2023-01-20 10:49:59.965341,119967458,15,59,1912,392,log_io
3348,2023-01-20 10:50:00.068835,120070935,16,181,1360,720,SPI1
3389,2023-01-20 10:50:00.170152,120172225,255,255,1536,1264,ISR
3428,2023-01-20 10:50:00.270824,120272895,0,182,7168,5368,ArduCopter
3467,2023-01-20 10:50:00.371190,120373269,1,1,352,144,idle
3507,2023-01-20 10:50:00.471037,120473113,2,60,1104,768,UART_RX
3548,2023-01-20 10:50:00.572458,120574527,3,60,656,400,OTG1
3590,2023-01-20 10:50:00.673095,120675171,4,183,1360,1016,monitor
3630,2023-01-20 10:50:00.774858,120776946,5,181,1872,1488,timer
3670,2023-01-20 10:50:00.877614,120879720,6,181,848,592,rcout
3707,2023-01-20 10:50:00.978426,120980550,7,177,1360,912,rcin
3739,2023-01-20 10:50:01.080236,121082359,8,58,2384,1456,io
3772,2023-01-20 10:50:01.180278,121182394,9,59,1360,824,storage
3804,2023-01-20 10:50:01.280222,121282380,10,60,656,248,UART3
3835,2023-01-20 10:50:01.381241,121383454,11,60,656,264,UART4
3868,2023-01-20 10:50:01.482414,121484594,12,60,656,264,UART5
3900,2023-01-20 10:50:01.582453,121584582,13,176,1360,856,I2C0
3936,2023-01-20 10:50:01.683559,121685677,14,59,1616,896,OSD
3966,2023-01-20 10:50:01.784889,121787005,15,59,1912,392,log_io
4000,2023-01-20 10:50:01.884859,121887039,16,181,1360,720,SPI1
4031,2023-01-20 10:50:01.984768,121987024,255,255,1536,1264,ISR
4064,2023-01-20 10:50:02.085977,122088187,0,182,7168,5368,ArduCopter
4096,2023-01-20 10:50:02.187372,122189515,1,1,352,144,idle
4129,2023-01-20 10:50:02.288425,122290562,2,60,1104,768,UART_RX
4159,2023-01-20 10:50:02.388532,122390671,3,60,656,400,OTG1
4192,2023-01-20 10:50:02.489850,122492347,4,183,1360,1016,monitor
4225,2023-01-20 10:50:02.589198,122592092,5,181,1872,1488,timer
4261,2023-01-20 10:50:02.690126,122693030,6,181,848,592,rcout
4291,2023-01-20 10:50:02.790280,122793147,7,177,1360,912,rcin
4326,2023-01-20 10:50:02.891631,122894517,8,58,2384,1456,io
4356,2023-01-20 10:50:02.991733,122994644,9,59,1360,824,storage
4389,2023-01-20 10:50:03.092666,123095581,10,60,656,248,UART3
4421,2023-01-20 10:50:03.192745,123195662,11,60,656,264,UART4
4454,2023-01-20 10:50:03.294097,123297009,12,60,656,264,UART5
4484,2023-01-20 10:50:03.394209,123397115,13,176,1360,856,I2C0
4517,2023-01-20 10:50:03.495148,123498041,14,59,1616,896,OSD
4549,2023-01-20 10:50:03.595274,123598154,15,59,1912,392,log_io
4585,2023-01-20 10:50:03.696689,123699571,16,181,1360,720,SPI1
4615,2023-01-20 10:50:03.796662,123799548,255,255,1536,1264,ISR
4651,2023-01-20 10:50:03.907270,123909823,0,182,7168,5368,ArduCopter
4684,2023-01-20 10:50:04.011145,124013402,1,1,352,144,idle
4714,2023-01-20 10:50:04.111423,124113613,2,60,1104,768,UART_RX
4749,2023-01-20 10:50:04.212445,124214576,3,60,656,400,OTG1
4779,2023-01-20 10:50:04.313807,124315942,4,183,1360,1016,monitor
4812,2023-01-20 10:50:04.414868,124417013,5,181,1872,1488,timer
4842,2023-01-20 10:50:04.514824,124517009,6,181,848,592,rcout
4879,2023-01-20 10:50:04.615828,124618040,7,177,1360,912,rcin
4911,2023-01-20 10:50:04.715893,124718063,8,58,2384,1456,io
4944,2023-01-20 10:50:04.816232,124818374,9,59,1360,824,storage
4975,2023-01-20 10:50:04.917336,124919526,10,60,656,248,UART3
5008,2023-01-20 10:50:05.018331,125020551,11,60,656,264,UART4
5038,2023-01-20 10:50:05.118399,125120571,12,60,656,264,UART5
5073,2023-01-20 10:50:05.220500,125222633,13,176,1360,856,I2C0
5103,2023-01-20 10:50:05.320184,125322322,14,59,1616,896,OSD
5136,2023-01-20 10:50:05.421251,125423390,15,59,1912,392,log_io
5166,2023-01-20 10:50:05.522541,125524666,16,181,1360,720,SPI1
5203,2023-01-20 10:50:05.623493,125625607,255,255,1536,1264,ISR
5235,2023-01-20 10:50:05.723530,125725641,0,182,7168,5368,ArduCopter
5268,2023-01-20 10:50:05.821467,125825719,1,1,352,144,idle
5300,2023-01-20 10:50:05.914040,125927531,2,60,1104,768,UART_RX
5332,2023-01-20 10:50:06.005403,126027471,3,60,656,400,OTG1
5363,2023-01-20 10:50:06.105719,126127751,4,183,1360,1016,monitor
5397,2023-01-20 10:50:06.207590,126229683,5,181,1872,1488,timer
5430,2023-01-20 10:50:06.307700,126331045,6,181,848,592,rcout
5462,2023-01-20 10:50:06.407566,126432066,7,177,1360,912,rcin
5493,2023-01-20 10:50:06.507564,126532076,8,58,2384,1456,io
5528,2023-01-20 10:50:06.608616,126633145,9,59,1360,824,storage
5561,2023-01-20 10:50:06.709980,126734574,10,60,656,248,UART3
5594,2023-01-20 10:50:06.809917,126834578,11,60,656,264,UART4
5625,2023-01-20 10:50:06.909858,126934608,12,60,656,264,UART5
5657,2023-01-20 10:50:07.010637,127035470,13,176,1360,856,I2C0
5688,2023-01-20 10:50:07.112569,127137420,14,59,1616,896,OSD
5722,2023-01-20 10:50:07.213434,127238292,15,59,1912,392,log_io
5753,2023-01-20 10:50:07.312709,127337505,16,181,1360,720,SPI1
5785,2023-01-20 10:50:07.414943,127439697,255,255,1536,1264,ISR
5816,2023-01-20 10:50:07.514757,127539597,0,182,7168,5368,ArduCopter
5851,2023-01-20 10:50:07.617464,127640609,1,1,352,144,idle
5884,2023-01-20 10:50:07.730327,127742038,2,60,1104,768,UART_RX
5917,2023-01-20 10:50:07.833978,127842078,3,60,656,400,OTG1
5949,2023-01-20 10:50:07.924751,127942063,4,183,1360,1016,monitor
5982,2023-01-20 10:50:08.018166,128043117,5,181,1872,1488,timer
6013,2023-01-20 10:50:08.119668,128144638,6,181,848,592,rcout
6047,2023-01-20 10:50:08.220752,128245728,7,177,1360,912,rcin
6078,2023-01-20 10:50:08.322111,128347045,8,58,2384,1456,io
6111,2023-01-20 10:50:08.422206,128447108,9,59,1360,824,storage
6141,2023-01-20 10:50:08.523118,128548027,10,60,656,248,UART3
6177,2023-01-20 10:50:08.623203,128648119,11,60,656,264,UART4
6209,2023-01-20 10:50:08.724959,128749884,12,60,656,264,UART5
6243,2023-01-20 10:50:08.824668,128849575,13,176,1360,856,I2C0
6276,2023-01-20 10:50:08.925727,128950535,14,59,1616,896,OSD
6309,2023-01-20 10:50:09.025850,129050575,15,59,1912,392,log_io
6339,2023-01-20 10:50:09.127337,129152023,16,181,1360,720,SPI1
6374,2023-01-20 10:50:09.227324,129252031,255,255,1536,1264,ISR
6404,2023-01-20 10:50:09.327134,129352021,0,182,7168,5368,ArduCopter
6437,2023-01-20 10:50:09.427032,129452384,1,1,352,144,idle
6467,2023-01-20 10:50:09.526858,129553441,2,60,1104,768,UART_RX
6503,2023-01-20 10:50:09.627645,129655132,3,60,656,400,OTG1
6535,2023-01-20 10:50:09.727649,129755137,4,183,1360,1016,monitor
6569,2023-01-20 10:50:09.828725,129856220,5,181,1872,1488,timer
6600,2023-01-20 10:50:09.928763,129956280,6,181,848,592,rcout
6633,2023-01-20 10:50:10.029885,130057410,7,177,1360,912,rcin
6663,2023-01-20 10:50:10.130898,130158398,8,58,2384,1456,io
6698,2023-01-20 10:50:10.232319,130259886,9,59,1360,824,storage
6728,2023-01-20 10:50:10.332072,130359897,10,60,656,248,UART3
6761,2023-01-20 10:50:10.432208,130460218,11,60,656,264,UART4
6791,2023-01-20 10:50:10.532106,130560143,12,60,656,264,UART5
6827,2023-01-20 10:50:10.632185,130660246,13,176,1360,856,I2C0
6859,2023-01-20 10:50:10.733206,130761285,14,59,1616,896,OSD
6896,2023-01-20 10:50:10.834623,130862745,15,59,1912,392,log_io
6926,2023-01-20 10:50:10.935637,130963848,16,181,1360,720,SPI1
6959,2023-01-20 10:50:11.035664,131063901,255,255,1536,1264,ISR
6991,2023-01-20 10:50:11.137460,131165609,0,182,7168,5368,ArduCopter
7027,2023-01-20 10:50:11.237479,131265577,1,1,352,144,idle
7057,2023-01-20 10:50:11.337778,131365883,2,60,1104,768,UART_RX
7090,2023-01-20 10:50:11.438612,131466719,3,60,656,400,OTG1
7144,2023-01-20 10:50:11.540211,131568312,4,183,1360,1016,monitor
7180,2023-01-20 10:50:11.648582,131676679,5,181,1872,1488,timer
7210,2023-01-20 10:50:11.741226,131769324,6,181,848,592,rcout
7244,2023-01-20 10:50:11.842329,131870459,7,177,1360,912,rcin
7275,2023-01-20 10:50:11.948196,131976405,8,58,2384,1456,io
7307,2023-01-20 10:50:12.049822,132078030,9,59,1360,824,storage
7340,2023-01-20 10:50:12.149819,132177946,10,60,656,248,UART3
7372,2023-01-20 10:50:12.249902,132277990,11,60,656,264,UART4
7403,2023-01-20 10:50:12.351029,132379120,12,60,656,264,UART5
7435,2023-01-20 10:50:12.452117,132480214,13,176,1360,856,I2C0
7468,2023-01-20 10:50:12.553181,132581286,14,59,1616,896,OSD
7503,2023-01-20 10:50:12.653168,132681271,15,59,1912,392,log_io
7534,2023-01-20 10:50:12.753198,132781290,16,181,1360,720,SPI1
7567,2023-01-20 10:50:12.854517,132882644,255,255,1536,1264,ISR
7599,2023-01-20 10:50:12.954474,132982675,0,182,7168,5368,ArduCopter
7631,2023-01-20 10:50:13.054490,133082684,1,1,352,144,idle
7664,2023-01-20 10:50:13.155587,133183706,2,60,1104,768,UART_RX
7696,2023-01-20 10:50:13.257044,133285132,3,60,656,400,OTG1
7727,2023-01-20 10:50:13.357164,133385255,4,183,1360,1016,monitor
7759,2023-01-20 10:50:13.457078,133485170,5,181,1872,1488,timer
7792,2023-01-20 10:50:13.557140,133585231,6,181,848,592,rcout
7827,2023-01-20 10:50:13.657157,133685249,7,177,1360,912,rcin
7858,2023-01-20 10:50:13.758163,133786257,8,58,2384,1456,io
7891,2023-01-20 10:50:13.859998,133888142,9,59,1360,824,storage
7924,2023-01-20 10:50:13.962261,133990490,10,60,656,248,UART3
7957,2023-01-20 10:50:14.062281,134090495,11,60,656,264,UART4
7989,2023-01-20 10:50:14.162331,134190472,12,60,656,264,UART5
8022,2023-01-20 10:50:14.263459,134291567,13,176,1360,856,I2C0
8052,2023-01-20 10:50:14.364575,134392676,14,59,1616,896,OSD
8085,2023-01-20 10:50:14.465585,134493683,15,59,1912,392,log_io
8118,2023-01-20 10:50:14.565625,134593723,16,181,1360,720,SPI1
8154,2023-01-20 10:50:14.665878,134693976,255,255,1536,1264,ISR
8184,2023-01-20 10:50:14.767132,134795230,0,182,7168,5368,ArduCopter
8218,2023-01-20 10:50:14.868109,134896264,1,1,352,144,idle
8248,2023-01-20 10:50:14.968040,134996279,2,60,1104,768,UART_RX
8281,2023-01-20 10:50:15.068098,135096320,3,60,656,400,OTG1
8313,2023-01-20 10:50:15.169498,135197654,4,183,1360,1016,monitor
8346,2023-01-20 10:50:15.269541,135297663,5,181,1872,1488,timer
8376,2023-01-20 10:50:15.369643,135397745,6,181,848,592,rcout
8409,2023-01-20 10:50:15.470607,135498705,7,177,1360,912,rcin
8441,2023-01-20 10:50:15.572107,135600208,8,58,2384,1456,io
8477,2023-01-20 10:50:15.673211,135701311,9,59,1360,824,storage
8507,2023-01-20 10:50:15.773228,135801326,10,60,656,248,UART3
8541,2023-01-20 10:50:15.877193,135905314,11,60,656,264,UART4
8571,2023-01-20 10:50:15.978146,136006298,12,60,656,264,UART5
8604,2023-01-20 10:50:16.078218,136106353,13,176,1360,856,I2C0
8636,2023-01-20 10:50:16.179715,136207818,14,59,1616,896,OSD
8669,2023-01-20 10:50:16.279716,136307856,15,59,1912,392,log_io
8699,2023-01-20 10:50:16.380679,136408874,16,181,1360,720,SPI1
8732,2023-01-20 10:50:16.481996,136510154,255,255,1536,1264,ISR
8765,2023-01-20 10:50:16.582155,136610255,0,182,7168,5368,ArduCopter
8800,2023-01-20 10:50:16.682128,136710220,1,1,352,144,idle
8831,2023-01-20 10:50:16.783170,136811265,2,60,1104,768,UART_RX
8864,2023-01-20 10:50:16.884534,136912649,3,60,656,400,OTG1
8895,2023-01-20 10:50:16.984514,137012652,4,183,1360,1016,monitor
8927,2023-01-20 10:50:17.084534,137112652,5,181,1872,1488,timer
8960,2023-01-20 10:50:17.185614,137213703,6,181,848,592,rcout
8992,2023-01-20 10:50:17.285919,137314011,7,177,1360,912,rcin
9023,2023-01-20 10:50:17.387538,137415639,8,58,2384,1456,io
9055,2023-01-20 10:50:17.487533,137515625,9,59,1360,824,storage
9088,2023-01-20 10:50:17.587634,137615715,10,60,656,248,UART3
9123,2023-01-20 10:50:17.688602,137716683,11,60,656,264,UART4
9154,2023-01-20 10:50:17.789810,137817892,12,60,656,264,UART5
9187,2023-01-20 10:50:17.881644,137917709,13,176,1360,856,I2C0
9218,2023-01-20 10:50:17.973676,138018741,14,59,1616,896,OSD
9251,2023-01-20 10:50:18.080663,138120440,15,59,1912,392,log_io
9284,2023-01-20 10:50:18.191540,138220511,16,181,1360,720,SPI1
9316,2023-01-20 10:50:18.292356,138320464,255,255,1536,1264,ISR
9347,2023-01-20 10:50:18.393479,138421547,0,182,7168,5368,ArduCopter
9379,2023-01-20 10:50:18.486198,138522681,1,1,352,144,idle
9412,2023-01-20 10:50:18.577361,138622747,2,60,1104,768,UART_RX
9447,2023-01-20 10:50:18.676080,138723703,3,60,656,400,OTG1
9478,2023-01-20 10:50:18.787913,138835574,4,183,1360,1016,monitor
9514,2023-01-20 10:50:18.889996,138937693,5,181,1872,1488,timer
9544,2023-01-20 10:50:18.989989,139037722,6,181,848,592,rcout
9577,2023-01-20 10:50:19.091140,139138845,7,177,1360,912,rcin
9609,2023-01-20 10:50:19.192813,139240482,8,58,2384,1456,io
9642,2023-01-20 10:50:19.292826,139340516,9,59,1360,824,storage
9672,2023-01-20 10:50:19.393829,139441544,10,60,656,248,UART3
9705,2023-01-20 10:50:19.493810,139541577,11,60,656,264,UART4
9738,2023-01-20 10:50:19.594862,139642682,12,60,656,264,UART5
9773,2023-01-20 10:50:19.694880,139742705,13,176,1360,856,I2C0
9803,2023-01-20 10:50:19.794872,139842700,14,59,1616,896,OSD
9837,2023-01-20 10:50:19.895871,139943715,15,59,1912,392,log_io
9867,2023-01-20 10:50:19.995882,140043743,16,181,1360,720,SPI1
9900,2023-01-20 10:50:20.097386,140145238,255,255,1536,1264,ISR
9932,2023-01-20 10:50:20.197396,140245238,0,182,7168,5368,ArduCopter
9968,2023-01-20 10:50:20.297509,140345289,1,1,352,144,idle
9998,2023-01-20 10:50:20.397571,140445286,2,60,1104,768,UART_RX
10031,2023-01-20 10:50:20.498533,140546251,3,60,656,400,OTG1
10064,2023-01-20 10:50:20.598551,140646274,4,183,1360,1016,monitor
10099,2023-01-20 10:50:20.700140,140747825,5,181,1872,1488,timer
10131,2023-01-20 10:50:20.800344,140847991,6,181,848,592,rcout
10163,2023-01-20 10:50:20.901014,140948781,7,177,1360,912,rcin
10195,2023-01-20 10:50:21.001364,141049248,8,58,2384,1456,io
10226,2023-01-20 10:50:21.102315,141150143,9,59,1360,824,storage
10261,2023-01-20 10:50:21.202497,141250271,10,60,656,248,UART3
10291,2023-01-20 10:50:21.303711,141351510,11,60,656,264,UART4
10324,2023-01-20 10:50:21.406088,141453909,12,60,656,264,UART5
10354,2023-01-20 10:50:21.506214,141553999,13,176,1360,856,I2C0
10390,2023-01-20 10:50:21.607372,141655128,14,59,1616,896,OSD
10422,2023-01-20 10:50:21.707327,141755144,15,59,1912,392,log_io
10455,2023-01-20 10:50:21.808355,141856230,16,181,1360,720,SPI1
10486,2023-01-20 10:50:21.909762,141957651,255,255,1536,1264,ISR
10519,2023-01-20 10:50:22.009772,142057668,0,182,7168,5368,ArduCopter
10549,2023-01-20 10:50:22.109797,142157643,1,1,352,144,idle
10584,2023-01-20 10:50:22.213046,142260850,2,60,1104,768,UART_RX
10617,2023-01-20 10:50:22.314881,142362721,3,60,656,400,OTG1
10650,2023-01-20 10:50:22.416028,142463890,4,183,1360,1016,monitor
10682,2023-01-20 10:50:22.516155,142563971,5,181,1872,1488,timer
10718,2023-01-20 10:50:22.617799,142665579,6,181,848,592,rcout
10750,2023-01-20 10:50:22.717761,142765558,7,177,1360,912,rcin
10784,2023-01-20 10:50:22.817772,142865589,8,58,2384,1456,io
10814,2023-01-20 10:50:22.918771,142966619,9,59,1360,824,storage
10847,2023-01-20 10:50:23.018752,143066616,10,60,656,248,UART3
10877,2023-01-20 10:50:23.118854,143166667,11,60,656,264,UART4
10936,2023-01-20 10:50:23.220509,143268287,12,60,656,264,UART5
10966,2023-01-20 10:50:23.320504,143368311,13,176,1360,856,I2C0
10999,2023-01-20 10:50:23.428099,143475925,14,59,1616,896,OSD
11032,2023-01-20 10:50:23.530128,143577939,15,59,1912,392,log_io
11067,2023-01-20 10:50:23.631233,143679039,16,181,1360,720,SPI1
11098,2023-01-20 10:50:23.742911,143790732,255,255,1536,1264,ISR
11132,2023-01-20 10:50:23.843723,143891559,0,182,7168,5368,ArduCopter
11165,2023-01-20 10:50:23.944803,143992656,1,1,352,144,idle
11198,2023-01-20 10:50:24.045821,144093655,2,60,1104,768,UART_RX
11230,2023-01-20 10:50:24.145924,144193696,3,60,656,400,OTG1
11263,2023-01-20 10:50:24.245944,144293712,4,183,1360,1016,monitor
11293,2023-01-20 10:50:24.345892,144393722,5,181,1872,1488,timer
11326,2023-01-20 10:50:24.447308,144495141,6,181,848,592,rcout
11360,2023-01-20 10:50:24.547374,144595141,7,177,1360,912,rcin
11396,2023-01-20 10:50:24.648485,144696257,8,58,2384,1456,io
11427,2023-01-20 10:50:24.748447,144796300,9,59,1360,824,storage
11461,2023-01-20 10:50:24.849783,144897678,10,60,656,248,UART3
11491,2023-01-20 10:50:24.949758,144997652,11,60,656,264,UART4
11524,2023-01-20 10:50:25.049793,145097672,12,60,656,264,UART5
11556,2023-01-20 10:50:25.150867,145198717,13,176,1360,856,I2C0
11590,2023-01-20 10:50:25.252400,145300239,14,59,1616,896,OSD
11620,2023-01-20 10:50:25.352407,145400252,15,59,1912,392,log_io
11653,2023-01-20 10:50:25.452396,145500237,16,181,1360,720,SPI1
11685,2023-01-20 10:50:25.553422,145601249,255,255,1536,1264,ISR
11721,2023-01-20 10:50:25.653461,145701289,0,182,7168,5368,ArduCopter
11751,2023-01-20 10:50:25.757446,145805287,1,1,352,144,idle
11786,2023-01-20 10:50:25.857466,145905326,2,60,1104,768,UART_RX
11816,2023-01-20 10:50:25.958413,146006297,3,60,656,400,OTG1
11849,2023-01-20 10:50:26.058450,146106322,4,183,1360,1016,monitor
11881,2023-01-20 10:50:26.159917,146207751,5,181,1872,1488,timer
11914,2023-01-20 10:50:26.260011,146307852,6,181,848,592,rcout
11944,2023-01-20 10:50:26.361014,146408891,7,177,1360,912,rcin
11977,2023-01-20 10:50:26.462293,146510165,8,58,2384,1456,io
12010,2023-01-20 10:50:26.562392,146610234,9,59,1360,824,storage
12045,2023-01-20 10:50:26.663451,146711285,10,60,656,248,UART3
12076,2023-01-20 10:50:26.763443,146811282,11,60,656,264,UART4
12109,2023-01-20 10:50:26.864829,146912686,12,60,656,264,UART5
12140,2023-01-20 10:50:26.965084,147012965,13,176,1360,856,I2C0
12172,2023-01-20 10:50:27.064811,147112695,14,59,1616,896,OSD
12205,2023-01-20 10:50:27.164783,147212657,15,59,1912,392,log_io
12237,2023-01-20 10:50:27.266153,147314014,16,181,1360,720,SPI1
12268,2023-01-20 10:50:27.367786,147415633,255,255,1536,1264,ISR
12300,2023-01-20 10:50:27.461753,147515680,0,182,7168,5368,ArduCopter
12333,2023-01-20 10:50:27.553691,147616679,1,1,352,144,idle
12368,2023-01-20 10:50:27.649158,147716713,2,60,1104,768,UART_RX
12399,2023-01-20 10:50:27.750379,147817941,3,60,656,400,OTG1
12433,2023-01-20 10:50:27.850107,147917705,4,183,1360,1016,monitor
12464,2023-01-20 10:50:27.951034,148018697,5,181,1872,1488,timer
12496,2023-01-20 10:50:28.051070,148118751,6,181,848,592,rcout
12529,2023-01-20 10:50:28.152793,148220449,7,177,1360,912,rcin
12562,2023-01-20 10:50:28.252841,148320472,8,58,2384,1456,io
12593,2023-01-20 10:50:28.353888,148421493,9,59,1360,824,storage
12625,2023-01-20 10:50:28.461118,148522673,10,60,656,248,UART3
12658,2023-01-20 10:50:28.572049,148622645,11,60,656,264,UART4
12693,2023-01-20 10:50:28.669112,148723781,12,60,656,264,UART5
12724,2023-01-20 10:50:28.761505,148825312,13,176,1360,856,I2C0
12757,2023-01-20 10:50:28.858614,148926295,14,59,1616,896,OSD
12790,2023-01-20 10:50:28.960255,149028052,15,59,1912,392,log_io
12822,2023-01-20 10:50:29.060256,149128066,16,181,1360,720,SPI1
12855,2023-01-20 10:50:29.161345,149229100,255,255,1536,1264,ISR
12888,2023-01-20 10:50:29.261377,149329151,0,182,7168,5368,ArduCopter
12919,2023-01-20 10:50:29.362436,149430275,1,1,352,144,idle
12952,2023-01-20 10:50:29.462391,149530243,2,60,1104,768,UART_RX
12984,2023-01-20 10:50:29.562420,149630252,3,60,656,400,OTG1
13020,2023-01-20 10:50:29.663453,149731284,4,183,1360,1016,monitor
13050,2023-01-20 10:50:29.765310,149833150,5,181,1872,1488,timer
13084,2023-01-20 10:50:29.865297,149933155,6,181,848,592,rcout
13114,2023-01-20 10:50:29.966367,150034247,7,177,1360,912,rcin
13147,2023-01-20 10:50:30.067402,150135267,8,58,2384,1456,io
13179,2023-01-20 10:50:30.167483,150235314,9,59,1360,824,storage
13212,2023-01-20 10:50:30.268479,150336298,10,60,656,248,UART3
13242,2023-01-20 10:50:30.368578,150436396,11,60,656,264,UART4
13275,2023-01-20 10:50:30.469889,150537711,12,60,656,264,UART5
13308,2023-01-20 10:50:30.569873,150637700,13,176,1360,856,I2C0
13344,2023-01-20 10:50:30.671002,150738833,14,59,1616,896,OSD
13374,2023-01-20 10:50:30.772676,150840508,15,59,1912,392,log_io
13408,2023-01-20 10:50:30.873687,150941545,16,181,1360,720,SPI1
13438,2023-01-20 10:50:30.973672,151041563,255,255,1536,1264,ISR
13471,2023-01-20 10:50:31.073747,151141582,0,182,7168,5368,ArduCopter
13503,2023-01-20 10:50:31.174948,151242694,1,1,352,144,idle
13536,2023-01-20 10:50:31.276262,151344024,2,60,1104,768,UART_RX
13566,2023-01-20 10:50:31.377457,151445270,3,60,656,400,OTG1
13599,2023-01-20 10:50:31.477405,151545244,4,183,1360,1016,monitor
13631,2023-01-20 10:50:31.578395,151646254,5,181,1872,1488,timer
13667,2023-01-20 10:50:31.678442,151746295,6,181,848,592,rcout
13697,2023-01-20 10:50:31.779911,151847751,7,177,1360,912,rcin
13732,2023-01-20 10:50:31.880971,151948827,8,58,2384,1456,io
13763,2023-01-20 10:50:31.982351,152050230,9,59,1360,824,storage
13795,2023-01-20 10:50:32.082382,152150243,10,60,656,248,UART3
13828,2023-01-20 10:50:32.182405,152250239,11,60,656,264,UART4
13860,2023-01-20 10:50:32.283463,152351286,12,60,656,264,UART5
13891,2023-01-20 10:50:32.383485,152451302,13,176,1360,856,I2C0
13923,2023-01-20 10:50:32.485142,152552979,14,59,1616,896,OSD
13956,2023-01-20 10:50:32.585209,152653071,15,59,1912,392,log_io
13991,2023-01-20 10:50:32.686161,152754015,16,181,1360,720,SPI1
14022,2023-01-20 10:50:32.786222,152854063,255,255,1536,1264,ISR
14055,2023-01-20 10:50:32.887363,152955220,0,182,7168,5368,ArduCopter
14086,2023-01-20 10:50:32.987477,153055355,1,1,352,144,idle
14118,2023-01-20 10:50:33.088412,153156268,2,60,1104,768,UART_RX
14151,2023-01-20 10:50:33.188503,153256331,3,60,656,400,OTG1
14183,2023-01-20 10:50:33.289855,153357676,4,183,1360,1016,monitor
14215,2023-01-20 10:50:33.389895,153457712,5,181,1872,1488,timer
14247,2023-01-20 10:50:33.490857,153558678,6,181,848,592,rcout
14282,2023-01-20 10:50:33.590998,153658824,7,177,1360,912,rcin
14317,2023-01-20 10:50:33.692380,153760212,8,58,2384,1456,io
14348,2023-01-20 10:50:33.793453,153861292,9,59,1360,824,storage
14386,2023-01-20 10:50:33.894876,153962740,10,60,656,248,UART3
14417,2023-01-20 10:50:33.994846,154062737,11,60,656,264,UART4
14449,2023-01-20 10:50:34.095911,154163789,12,60,656,264,UART5
14482,2023-01-20 10:50:34.195967,154263832,13,176,1360,856,I2C0
14514,2023-01-20 10:50:34.296006,154363847,14,59,1616,896,OSD
14545,2023-01-20 10:50:34.396041,154463858,15,59,1912,392,log_io
14580,2023-01-20 10:50:34.496230,154564011,16,181,1360,720,SPI1
14639,2023-01-20 10:50:34.607699,154675446,255,255,1536,1264,ISR
14648,2023-01-20 10:50:34.698833,154766624,0,182,7168,5368,ArduCopter
14679,2023-01-20 10:50:34.798830,154866670,1,1,352,144,idle
14738,2023-01-20 10:50:34.905003,154972879,2,60,1104,768,UART_RX
14770,2023-01-20 10:50:35.005797,155073699,3,60,656,400,OTG1
14803,2023-01-20 10:50:35.107313,155175128,4,183,1360,1016,monitor
14835,2023-01-20 10:50:35.208917,155276653,5,181,1872,1488,timer
14866,2023-01-20 10:50:35.311284,155379023,6,181,848,592,rcout
14898,2023-01-20 10:50:35.412382,155480123,7,177,1360,912,rcin
14931,2023-01-20 10:50:35.512389,155580129,8,58,2384,1456,io
14965,2023-01-20 10:50:35.613542,155681284,9,59,1360,824,storage
14997,2023-01-20 10:50:35.714875,155782638,10,60,656,248,UART3
15029,2023-01-20 10:50:35.814915,155882701,11,60,656,264,UART4
15061,2023-01-20 10:50:35.915822,155983649,12,60,656,264,UART5
15093,2023-01-20 10:50:36.015811,156083664,13,176,1360,856,I2C0
15126,2023-01-20 10:50:36.117414,156185208,14,59,1616,896,OSD
15158,2023-01-20 10:50:36.217380,156285134,15,59,1912,392,log_io
15189,2023-01-20 10:50:36.317363,156385166,16,181,1360,720,SPI1
15221,2023-01-20 10:50:36.418439,156486272,255,255,1536,1264,ISR
15254,2023-01-20 10:50:36.520045,156587820,0,182,7168,5368,ArduCopter
15289,2023-01-20 10:50:36.620017,156687746,1,1,352,144,idle
15320,2023-01-20 10:50:36.721006,156788731,2,60,1104,768,UART_RX
15352,2023-01-20 10:50:36.821007,156888749,3,60,656,400,OTG1
15384,2023-01-20 10:50:36.920919,156988754,4,183,1360,1016,monitor
15417,2023-01-20 10:50:37.022571,157090461,5,181,1872,1488,timer
15449,2023-01-20 10:50:37.122654,157190464,6,181,848,592,rcout
15482,2023-01-20 10:50:37.223788,157291535,7,177,1360,912,rcin
15512,2023-01-20 10:50:37.324982,157392727,8,58,2384,1456,io
15545,2023-01-20 10:50:37.425948,157493687,9,59,1360,824,storage
15577,2023-01-20 10:50:37.525979,157593702,10,60,656,248,UART3
15613,2023-01-20 10:50:37.627411,157695127,11,60,656,264,UART4
15643,2023-01-20 10:50:37.727400,157795131,12,60,656,264,UART5
15676,2023-01-20 10:50:37.827460,157895214,13,176,1360,856,I2C0
15708,2023-01-20 10:50:37.928444,157996241,14,59,1616,896,OSD
15741,2023-01-20 10:50:38.027132,158097641,15,59,1912,392,log_io
15773,2023-01-20 10:50:38.118133,158197633,16,181,1360,720,SPI1
15806,2023-01-20 10:50:38.211137,158298726,255,255,1536,1264,ISR
15836,2023-01-20 10:50:38.312677,158400264,0,182,7168,5368,ArduCopter
15870,2023-01-20 10:50:38.413664,158501253,1,1,352,144,idle
15903,2023-01-20 10:50:38.517604,158605226,2,60,1104,768,UART_RX
15939,2023-01-20 10:50:38.617679,158705328,3,60,656,400,OTG1
15969,2023-01-20 10:50:38.718597,158806251,4,183,1360,1016,monitor
16003,2023-01-20 10:50:38.820760,158906364,5,181,1872,1488,timer
16035,2023-01-20 10:50:38.931952,159006553,6,181,848,592,rcout
16068,2023-01-20 10:50:39.036275,159107729,7,177,1360,912,rcin
16100,2023-01-20 10:50:39.128307,159208861,8,58,2384,1456,io
16134,2023-01-20 10:50:39.221224,159308874,9,59,1360,824,storage
16165,2023-01-20 10:50:39.322602,159410288,10,60,656,248,UART3
16197,2023-01-20 10:50:39.423516,159511234,11,60,656,264,UART4
16230,2023-01-20 10:50:39.523514,159611248,12,60,656,264,UART5
16265,2023-01-20 10:50:39.623476,159711236,13,176,1360,856,I2C0
16296,2023-01-20 10:50:39.725139,159812958,14,59,1616,896,OSD
16330,2023-01-20 10:50:39.825846,159913707,15,59,1912,392,log_io
16361,2023-01-20 10:50:39.927766,160015622,16,181,1360,720,SPI1
16393,2023-01-20 10:50:40.027795,160115632,255,255,1536,1264,ISR
16426,2023-01-20 10:50:40.127826,160215608,0,182,7168,5368,ArduCopter
16459,2023-01-20 10:50:40.228230,160315986,1,1,352,144,idle
16490,2023-01-20 10:50:40.328883,160416691,2,60,1104,768,UART_RX
16522,2023-01-20 10:50:40.429810,160517651,3,60,656,400,OTG1
16556,2023-01-20 10:50:40.529859,160617687,4,183,1360,1016,monitor
16591,2023-01-20 10:50:40.629905,160717719,5,181,1872,1488,timer
16622,2023-01-20 10:50:40.731183,160818978,6,181,848,592,rcout
16656,2023-01-20 10:50:40.832609,160920406,7,177,1360,912,rcin
16687,2023-01-20 10:50:40.932614,161020454,8,58,2384,1456,io
16719,2023-01-20 10:50:41.033656,161121505,9,59,1360,824,storage
16752,2023-01-20 10:50:41.134903,161222693,10,60,656,248,UART3
16785,2023-01-20 10:50:41.235960,161323710,11,60,656,264,UART4
16816,2023-01-20 10:50:41.337380,161425123,12,60,656,264,UART5
16848,2023-01-20 10:50:41.438486,161526241,13,176,1360,856,I2C0
16882,2023-01-20 10:50:41.540217,161628015,14,59,1616,896,OSD
16917,2023-01-20 10:50:41.640197,161728004,15,59,1912,392,log_io
16948,2023-01-20 10:50:41.740305,161828073,16,181,1360,720,SPI1
16982,2023-01-20 10:50:41.841323,161929089,255,255,1536,1264,ISR
17013,2023-01-20 10:50:41.941292,162029109,0,182,7168,5368,ArduCopter
17046,2023-01-20 10:50:42.042421,162130248,1,1,352,144,idle
17078,2023-01-20 10:50:42.143488,162231266,2,60,1104,768,UART_RX
17112,2023-01-20 10:50:42.243670,162331441,3,60,656,400,OTG1
17142,2023-01-20 10:50:42.345390,162433210,4,183,1360,1016,monitor
17175,2023-01-20 10:50:42.445249,162533089,5,181,1872,1488,timer
17208,2023-01-20 10:50:42.545286,162633112,6,181,848,592,rcout
17244,2023-01-20 10:50:42.646391,162734210,7,177,1360,912,rcin
17274,2023-01-20 10:50:42.746430,162834252,8,58,2384,1456,io
17309,2023-01-20 10:50:42.847414,162935255,9,59,1360,824,storage
17339,2023-01-20 10:50:42.948455,163036334,10,60,656,248,UART3
17372,2023-01-20 10:50:43.049855,163137714,11,60,656,264,UART4
17405,2023-01-20 10:50:43.149918,163237699,12,60,656,264,UART5
17438,2023-01-20 10:50:43.249927,163337669,13,176,1360,856,I2C0
17468,2023-01-20 10:50:43.350964,163438705,14,59,1616,896,OSD
17501,2023-01-20 10:50:43.450981,163538744,15,59,1912,392,log_io
17535,2023-01-20 10:50:43.552700,163640508,16,181,1360,720,SPI1
17571,2023-01-20 10:50:43.652689,163740516,255,255,1536,1264,ISR
17601,2023-01-20 10:50:43.753763,163841587,0,182,7168,5368,ArduCopter
17636,2023-01-20 10:50:43.855030,163942862,1,1,352,144,idle
17668,2023-01-20 10:50:43.955872,164043721,2,60,1104,768,UART_RX
17701,2023-01-20 10:50:44.057382,164145207,3,60,656,400,OTG1
17734,2023-01-20 10:50:44.157855,164245625,4,183,1360,1016,monitor
17767,2023-01-20 10:50:44.259974,164347721,5,181,1872,1488,timer
17797,2023-01-20 10:50:44.359961,164447709,6,181,848,592,rcout
17830,2023-01-20 10:50:44.461007,164548755,7,177,1360,912,rcin
17865,2023-01-20 10:50:44.562468,164650217,8,58,2384,1456,io
17900,2023-01-20 10:50:44.662398,164750157,9,59,1360,824,storage
17931,2023-01-20 10:50:44.762462,164850238,10,60,656,248,UART3
17965,2023-01-20 10:50:44.863440,164951258,11,60,656,264,UART4
17996,2023-01-20 10:50:44.963428,165051303,12,60,656,264,UART5
18028,2023-01-20 10:50:45.065138,165152977,13,176,1360,856,I2C0
18062,2023-01-20 10:50:45.165171,165252922,14,59,1616,896,OSD
18094,2023-01-20 10:50:45.265256,165352986,15,59,1912,392,log_io
18125,2023-01-20 10:50:45.366253,165453998,16,181,1360,720,SPI1
18157,2023-01-20 10:50:45.466227,165554007,255,255,1536,1264,ISR
18191,2023-01-20 10:50:45.566192,165654018,0,182,7168,5368,ArduCopter
18226,2023-01-20 10:50:45.667450,165755259,1,1,352,144,idle
18257,2023-01-20 10:50:45.768488,165856250,2,60,1104,768,UART_RX
18291,2023-01-20 10:50:45.869842,165957621,3,60,656,400,OTG1
18322,2023-01-20 10:50:45.969799,166057625,4,183,1360,1016,monitor
18354,2023-01-20 10:50:46.069817,166157649,5,181,1872,1488,timer
18388,2023-01-20 10:50:46.170881,166258700,6,181,848,592,rcout
18420,2023-01-20 10:50:46.270922,166358702,7,177,1360,912,rcin
18451,2023-01-20 10:50:46.372506,166460234,8,58,2384,1456,io
18483,2023-01-20 10:50:46.473533,166561259,9,59,1360,824,storage
18517,2023-01-20 10:50:46.573727,166661470,10,60,656,248,UART3
18555,2023-01-20 10:50:46.674940,166762715,11,60,656,264,UART4
18586,2023-01-20 10:50:46.774903,166862715,12,60,656,264,UART5
18620,2023-01-20 10:50:46.869045,166963721,13,176,1360,856,I2C0
18651,2023-01-20 10:50:46.960109,167063826,14,59,1616,896,OSD
18683,2023-01-20 10:50:47.056196,167163853,15,59,1912,392,log_io
18719,2023-01-20 10:50:47.157944,167265564,16,181,1360,720,SPI1
18751,2023-01-20 10:50:47.258035,167365637,255,255,1536,1264,ISR
18782,2023-01-20 10:50:47.359076,167466675,0,182,7168,5368,ArduCopter
18838,2023-01-20 10:50:47.460676,167568276,1,1,352,144,idle
18872,2023-01-20 10:50:47.562861,167670463,2,60,1104,768,UART_RX
18906,2023-01-20 10:50:47.662830,167770420,3,60,656,400,OTG1
18936,2023-01-20 10:50:47.763950,167871518,4,183,1360,1016,monitor
18971,2023-01-20 10:50:47.865059,167972645,5,181,1872,1488,timer
19001,2023-01-20 10:50:47.966053,168073680,6,181,848,592,rcout
19036,2023-01-20 10:50:48.066050,168173690,7,177,1360,912,rcin
19067,2023-01-20 10:50:48.166676,168274316,8,58,2384,1456,io
19100,2023-01-20 10:50:48.268608,168376271,9,59,1360,824,storage
19130,2023-01-20 10:50:48.368579,168476275,10,60,656,248,UART3
19166,2023-01-20 10:50:48.497494,168605213,11,60,656,264,UART4
19200,2023-01-20 10:50:48.598615,168706347,12,60,656,264,UART5
19233,2023-01-20 10:50:48.699936,168807702,13,176,1360,856,I2C0
19267,2023-01-20 10:50:48.800283,168908083,14,59,1616,896,OSD
19300,2023-01-20 10:50:48.901015,169008863,15,59,1912,392,log_io
19333,2023-01-20 10:50:49.001347,169109242,16,181,1360,720,SPI1
19366,2023-01-20 10:50:49.102401,169210247,255,255,1536,1264,ISR
19399,2023-01-20 10:50:49.202436,169310234,0,182,7168,5368,ArduCopter
19430,2023-01-20 10:50:49.303513,169411250,1,1,352,144,idle
19462,2023-01-20 10:50:49.404954,169512637,2,60,1104,768,UART_RX
19496,2023-01-20 10:50:49.504861,169612626,3,60,656,400,OTG1
19530,2023-01-20 10:50:49.604828,169712669,4,183,1360,1016,monitor
19562,2023-01-20 10:50:49.706191,169813980,5,181,1872,1488,timer
19595,2023-01-20 10:50:49.808727,169916473,6,181,848,592,rcout
19627,2023-01-20 10:50:49.907882,170015680,7,177,1360,912,rcin
19659,2023-01-20 10:50:50.009834,170117680,8,58,2384,1456,io
19692,2023-01-20 10:50:50.109813,170217667,9,59,1360,824,storage
19767,2023-01-20 10:50:50.211147,170319004,10,60,656,248,UART3
19798,2023-01-20 10:50:50.312618,170420431,11,60,656,264,UART4
19830,2023-01-20 10:50:50.413637,170521411,12,60,656,264,UART5
19864,2023-01-20 10:50:50.513707,170621463,13,176,1360,856,I2C0
19899,2023-01-20 10:50:50.614902,170722644,14,59,1616,896,OSD
19930,2023-01-20 10:50:50.714921,170822664,15,59,1912,392,log_io
19963,2023-01-20 10:50:50.815935,170923692,16,181,1360,720,SPI1
19995,2023-01-20 10:50:50.915905,171023734,255,255,1536,1264,ISR
20027,2023-01-20 10:50:51.017402,171125279,0,182,7168,5368,ArduCopter
20060,2023-01-20 10:50:51.118432,171226235,1,1,352,144,idle
20093,2023-01-20 10:50:51.218754,171326499,2,60,1104,768,UART_RX
20124,2023-01-20 10:50:51.320276,171428024,3,60,656,400,OTG1
20156,2023-01-20 10:50:51.421333,171529094,4,183,1360,1016,monitor
20190,2023-01-20 10:50:51.521265,171629073,5,181,1872,1488,timer
20225,2023-01-20 10:50:51.621298,171729131,6,181,848,592,rcout
20256,2023-01-20 10:50:51.722734,171830507,7,177,1360,912,rcin
20290,2023-01-20 10:50:51.823556,171931300,8,58,2384,1456,io
20321,2023-01-20 10:50:51.925344,172033154,9,59,1360,824,storage
20354,2023-01-20 10:50:52.025262,172133122,10,60,656,248,UART3
20386,2023-01-20 10:50:52.126358,172234220,11,60,656,264,UART4
20420,2023-01-20 10:50:52.227385,172335237,12,60,656,264,UART5
20450,2023-01-20 10:50:52.327435,172435243,13,176,1360,856,I2C0
20483,2023-01-20 10:50:52.428518,172536290,14,59,1616,896,OSD
20516,2023-01-20 10:50:52.529930,172637685,15,59,1912,392,log_io
20552,2023-01-20 10:50:52.629914,172737673,16,181,1360,720,SPI1
20582,2023-01-20 10:50:52.729860,172837674,255,255,1536,1264,ISR
20616,2023-01-20 10:50:52.830927,172938780,0,182,7168,5368,ArduCopter
20647,2023-01-20 10:50:52.932650,173040505,1,1,352,144,idle
20680,2023-01-20 10:50:53.033687,173141530,2,60,1104,768,UART_RX
20713,2023-01-20 10:50:53.134870,173242673,3,60,656,400,OTG1
20746,2023-01-20 10:50:53.234890,173342662,4,183,1360,1016,monitor
20776,2023-01-20 10:50:53.334889,173442648,5,181,1872,1488,timer
20809,2023-01-20 10:50:53.434884,173542651,6,181,848,592,rcout
20842,2023-01-20 10:50:53.535890,173643706,7,177,1360,912,rcin
20878,2023-01-20 10:50:53.635908,173743732,8,58,2384,1456,io
20909,2023-01-20 10:50:53.735967,173843728,9,59,1360,824,storage
20944,2023-01-20 10:50:53.837492,173945237,10,60,656,248,UART3
20976,2023-01-20 10:50:53.938477,174046290,11,60,656,264,UART4
21009,2023-01-20 10:50:54.036218,174147702,12,60,656,264,UART5
21042,2023-01-20 10:50:54.127112,174247703,13,176,1360,856,I2C0
21075,2023-01-20 10:50:54.222077,174347747,14,59,1616,896,OSD
21105,2023-01-20 10:50:54.333266,174447733,15,59,1912,392,log_io
21138,2023-01-20 10:50:54.441106,174548857,16,181,1360,720,SPI1
21173,2023-01-20 10:50:54.542860,174650629,255,255,1536,1264,ISR
21208,2023-01-20 10:50:54.642349,174750143,0,182,7168,5368,ArduCopter
21239,2023-01-20 10:50:54.742410,174850238,1,1,352,144,idle
21273,2023-01-20 10:50:54.843396,174951248,2,60,1104,768,UART_RX
21304,2023-01-20 10:50:54.945062,175052922,3,60,656,400,OTG1
21336,2023-01-20 10:50:55.046159,175154003,4,183,1360,1016,monitor
21370,2023-01-20 10:50:55.147331,175255130,5,181,1872,1488,timer
21402,2023-01-20 10:50:55.247444,175355244,6,181,848,592,rcout
21433,2023-01-20 10:50:55.347367,175455217,7,177,1360,912,rcin
21465,2023-01-20 10:50:55.448454,175556300,8,58,2384,1456,io
21499,2023-01-20 10:50:55.548702,175656485,9,59,1360,824,storage
21534,2023-01-20 10:50:55.649881,175757630,10,60,656,248,UART3
21565,2023-01-20 10:50:55.749895,175857639,11,60,656,264,UART4
21599,2023-01-20 10:50:55.849849,175957618,12,60,656,264,UART5
21630,2023-01-20 10:50:55.950862,176058687,13,176,1360,856,I2C0
21662,2023-01-20 10:50:56.050834,176158692,14,59,1616,896,OSD
21696,2023-01-20 10:50:56.150863,176258732,15,59,1912,392,log_io
21728,2023-01-20 10:50:56.247634,176360275,16,181,1360,720,SPI1
21759,2023-01-20 10:50:56.339432,176461257,255,255,1536,1264,ISR
21796,2023-01-20 10:50:56.435050,176562941,0,182,7168,5368,ArduCopter
21828,2023-01-20 10:50:56.534803,176662712,1,1,352,144,idle
21863,2023-01-20 10:50:56.635824,176763745,2,60,1104,768,UART_RX
21894,2023-01-20 10:50:56.735832,176863752,3,60,656,400,OTG1
21930,2023-01-20 10:50:56.837643,176965580,4,183,1360,1016,monitor
21961,2023-01-20 10:50:56.937616,177065599,5,181,1872,1488,timer
21993,2023-01-20 10:50:57.041822,177165603,6,181,848,592,rcout
22027,2023-01-20 10:50:57.154249,177266656,7,177,1360,912,rcin
22059,2023-01-20 10:50:57.253484,177366649,8,58,2384,1456,io
22112,2023-01-20 10:50:57.345785,177468249,9,59,1360,824,storage
22146,2023-01-20 10:50:57.440290,177568228,10,60,656,248,UART3
22180,2023-01-20 10:50:57.540329,177668297,11,60,656,264,UART4
22213,2023-01-20 10:50:57.641311,177769291,12,60,656,264,UART5
22244,2023-01-20 10:50:57.741348,177869310,13,176,1360,856,I2C0
22278,2023-01-20 10:50:57.841349,177969328,14,59,1616,896,OSD
22309,2023-01-20 10:50:57.945275,178073325,15,59,1912,392,log_io
22344,2023-01-20 10:50:58.047128,178175210,16,181,1360,720,SPI1
22375,2023-01-20 10:50:58.147183,178275253,255,255,1536,1264,ISR
22408,2023-01-20 10:50:58.259655,178387724,0,182,7168,5368,ArduCopter
22438,2023-01-20 10:50:58.360656,178488733,1,1,352,144,idle
22474,2023-01-20 10:50:58.460688,178588750,2,60,1104,768,UART_RX
22506,2023-01-20 10:50:58.560814,178688845,3,60,656,400,OTG1
22540,2023-01-20 10:50:58.662441,178790465,4,183,1360,1016,monitor
22572,2023-01-20 10:50:58.763526,178891557,5,181,1872,1488,timer
22608,2023-01-20 10:50:58.864660,178992725,6,181,848,592,rcout
22639,2023-01-20 10:50:58.965539,179093655,7,177,1360,912,rcin
22673,2023-01-20 10:50:59.065572,179193683,8,58,2384,1456,io
22705,2023-01-20 10:50:59.167048,179295124,9,59,1360,824,storage
22737,2023-01-20 10:50:59.267080,179395147,10,60,656,248,UART3
22768,2023-01-20 10:50:59.368207,179496277,11,60,656,264,UART4
22803,2023-01-20 10:50:59.469565,179597652,12,60,656,264,UART5
22836,2023-01-20 10:50:59.569533,179697643,13,176,1360,856,I2C0
22869,2023-01-20 10:50:59.669611,179797690,14,59,1616,896,OSD
22900,2023-01-20 10:50:59.770669,179898693,15,59,1912,392,log_io
22934,2023-01-20 10:50:59.872121,180000166,16,181,1360,720,SPI1
22965,2023-01-20 10:50:59.973147,180101243,255,255,1536,1264,ISR
22999,2023-01-20 10:51:00.077148,180205265,0,182,7168,5368,ArduCopter
23031,2023-01-20 10:51:00.177167,180305292,1,1,352,144,idle
23063,2023-01-20 10:51:00.277185,180405288,2,60,1104,768,UART_RX
23094,2023-01-20 10:51:00.378205,180506276,3,60,656,400,OTG1
23129,2023-01-20 10:51:00.478222,180606300,4,183,1360,1016,monitor
23162,2023-01-20 10:51:00.578192,180706287,5,181,1872,1488,timer
23195,2023-01-20 10:51:00.678216,180806310,6,181,848,592,rcout
23227,2023-01-20 10:51:00.778208,180906296,7,177,1360,912,rcin
23260,2023-01-20 10:51:00.879630,181007726,8,58,2384,1456,io
23291,2023-01-20 10:51:00.980626,181108733,9,59,1360,824,storage
23325,2023-01-20 10:51:01.080639,181208730,10,60,656,248,UART3
23357,2023-01-20 10:51:01.180714,181308782,11,60,656,264,UART4
23389,2023-01-20 10:51:01.280795,181408865,12,60,656,264,UART5
23420,2023-01-20 10:51:01.382074,181510151,13,176,1360,856,I2C0
23456,2023-01-20 10:51:01.483229,181611304,14,59,1616,896,OSD
23488,2023-01-20 10:51:01.584685,181712756,15,59,1912,392,log_io
23522,2023-01-20 10:51:01.684907,181812979,16,181,1360,720,SPI1
23553,2023-01-20 10:51:01.785757,181913832,255,255,1536,1264,ISR
23587,2023-01-20 10:51:01.887554,182015656,0,182,7168,5368,ArduCopter
23617,2023-01-20 10:51:01.987567,182115699,1,1,352,144,idle
23652,2023-01-20 10:51:02.088529,182216653,2,60,1104,768,UART_RX
23683,2023-01-20 10:51:02.189930,182318039,3,60,656,400,OTG1
23716,2023-01-20 10:51:02.289643,182417730,4,183,1360,1016,monitor
23746,2023-01-20 10:51:02.389792,182517855,5,181,1872,1488,timer
23782,2023-01-20 10:51:02.490650,182618729,6,181,848,592,rcout
23814,2023-01-20 10:51:02.590798,182718897,7,177,1360,912,rcin
23848,2023-01-20 10:51:02.690862,182818973,8,58,2384,1456,io
23879,2023-01-20 10:51:02.792297,182920419,9,59,1360,824,storage
23913,2023-01-20 10:51:02.893338,183021452,10,60,656,248,UART3
23943,2023-01-20 10:51:02.993440,183121544,11,60,656,264,UART4
23978,2023-01-20 10:51:03.094552,183222643,12,60,656,264,UART5
24009,2023-01-20 10:51:03.194867,183322945,13,176,1360,856,I2C0
24042,2023-01-20 10:51:03.295663,183423748,14,59,1616,896,OSD
24072,2023-01-20 10:51:03.397169,183525263,15,59,1912,392,log_io
24108,2023-01-20 10:51:03.498169,183626251,16,181,1360,720,SPI1
24140,2023-01-20 10:51:03.598198,183726268,255,255,1536,1264,ISR
24174,2023-01-20 10:51:03.699968,183828034,0,182,7168,5368,ArduCopter
24207,2023-01-20 10:51:03.800297,183928359,1,1,352,144,idle
24242,2023-01-20 10:51:03.900975,184029071,2,60,1104,768,UART_RX
24275,2023-01-20 10:51:04.002122,184130251,3,60,656,400,OTG1
24307,2023-01-20 10:51:04.102070,184230165,4,183,1360,1016,monitor
24341,2023-01-20 10:51:04.203268,184331330,5,181,1872,1488,timer
24371,2023-01-20 10:51:04.305165,184433229,6,181,848,592,rcout
24404,2023-01-20 10:51:04.406066,184534133,7,177,1360,912,rcin
24440,2023-01-20 10:51:04.506029,184634119,8,58,2384,1456,io
24475,2023-01-20 10:51:04.607039,184735151,9,59,1360,824,storage
24506,2023-01-20 10:51:04.707160,184835271,10,60,656,248,UART3
24540,2023-01-20 10:51:04.808179,184936288,11,60,656,264,UART4
24571,2023-01-20 10:51:04.909566,185037672,12,60,656,264,UART5
24604,2023-01-20 10:51:05.010303,185138404,13,176,1360,856,I2C0
24637,2023-01-20 10:51:05.112412,185240498,14,59,1616,896,OSD
24670,2023-01-20 10:51:05.213403,185341477,15,59,1912,392,log_io
24700,2023-01-20 10:51:05.313452,185441543,16,181,1360,720,SPI1
24733,2023-01-20 10:51:05.414583,185542688,255,255,1536,1264,ISR
24766,2023-01-20 10:51:05.515976,185644072,0,182,7168,5368,ArduCopter
24801,2023-01-20 10:51:05.617069,185745155,1,1,352,144,idle
24832,2023-01-20 10:51:05.717179,185845254,2,60,1104,768,UART_RX
24866,2023-01-20 10:51:05.818193,185946262,3,60,656,400,OTG1
24897,2023-01-20 10:51:05.918191,186046274,4,183,1360,1016,monitor
24930,2023-01-20 10:51:06.019648,186147741,5,181,1872,1488,timer
24963,2023-01-20 10:51:06.119617,186247700,6,181,848,592,rcout
24996,2023-01-20 10:51:06.220801,186348879,7,177,1360,912,rcin
25027,2023-01-20 10:51:06.322177,186450270,8,58,2384,1456,io
25059,2023-01-20 10:51:06.421065,186551229,9,59,1360,824,storage
25093,2023-01-20 10:51:06.512209,186651280,10,60,656,248,UART3
25127,2023-01-20 10:51:06.606201,186753858,11,60,656,264,UART4
25159,2023-01-20 10:51:06.705182,186852931,12,60,656,264,UART5
25241,2023-01-20 10:51:06.806042,186953874,13,176,1360,856,I2C0
25273,2023-01-20 10:51:06.906217,187053970,14,59,1616,896,OSD
25305,2023-01-20 10:51:07.007467,187155142,15,59,1912,392,log_io
25339,2023-01-20 10:51:07.107622,187255246,16,181,1360,720,SPI1
25371,2023-01-20 10:51:07.208706,187356283,255,255,1536,1264,ISR
25402,2023-01-20 10:51:07.310047,187457636,0,182,7168,5368,ArduCopter
25434,2023-01-20 10:51:07.412236,187558641,1,1,352,144,idle
25468,2023-01-20 10:51:07.523088,187658670,2,60,1104,768,UART_RX
25502,2023-01-20 10:51:07.628293,187759131,3,60,656,400,OTG1
25534,2023-01-20 10:51:07.718987,187858691,4,183,1360,1016,monitor
25567,2023-01-20 10:51:07.812500,187960129,5,181,1872,1488,timer
25599,2023-01-20 10:51:07.912477,188060149,6,181,848,592,rcout
25631,2023-01-20 10:51:08.013560,188161272,7,177,1360,912,rcin
25668,2023-01-20 10:51:08.115025,188262750,8,58,2384,1456,io
25700,2023-01-20 10:51:08.214981,188362718,9,59,1360,824,storage
25731,2023-01-20 10:51:08.316088,188463823,10,60,656,248,UART3
25765,2023-01-20 10:51:08.416205,188563948,11,60,656,264,UART4
25799,2023-01-20 10:51:08.517772,188665576,12,60,656,264,UART5
25834,2023-01-20 10:51:08.618814,188766667,13,176,1360,856,I2C0
25865,2023-01-20 10:51:08.718834,188866683,14,59,1616,896,OSD
25920,2023-01-20 10:51:08.820404,188968250,15,59,1912,392,log_io
25955,2023-01-20 10:51:08.925091,189072936,16,181,1360,720,SPI1
25990,2023-01-20 10:51:09.027303,189175138,255,255,1536,1264,ISR
26021,2023-01-20 10:51:09.127339,189275140,0,182,7168,5368,ArduCopter
26054,2023-01-20 10:51:09.228529,189376302,1,1,352,144,idle
26084,2023-01-20 10:51:09.330235,189477993,2,60,1104,768,UART_RX
26120,2023-01-20 10:51:09.431265,189579013,3,60,656,400,OTG1
26152,2023-01-20 10:51:09.532467,189680215,4,183,1360,1016,monitor
26186,2023-01-20 10:51:09.633475,189781221,5,181,1872,1488,timer
26216,2023-01-20 10:51:09.733485,189881226,6,181,848,592,rcout
26250,2023-01-20 10:51:09.833493,189981250,7,177,1360,912,rcin
26281,2023-01-20 10:51:09.934810,190082628,8,58,2384,1456,io
26316,2023-01-20 10:51:10.034786,190182636,9,59,1360,824,storage
26347,2023-01-20 10:51:10.135890,190283722,10,60,656,248,UART3
26380,2023-01-20 10:51:10.237458,190385265,11,60,656,264,UART4
26410,2023-01-20 10:51:10.338520,190486291,12,60,656,264,UART5
26446,2023-01-20 10:51:10.439955,190587724,13,176,1360,856,I2C0
26478,2023-01-20 10:51:10.539883,190687704,14,59,1616,896,OSD
26512,2023-01-20 10:51:10.640874,190788731,15,59,1912,392,log_io
26542,2023-01-20 10:51:10.740888,190888756,16,181,1360,720,SPI1
26577,2023-01-20 10:51:10.840912,190988781,255,255,1536,1264,ISR
26607,2023-01-20 10:51:10.940969,191088824,0,182,7168,5368,ArduCopter
26642,2023-01-20 10:51:11.041022,191188864,1,1,352,144,idle
26674,2023-01-20 10:51:11.142666,191290496,2,60,1104,768,UART_RX
26706,2023-01-20 10:51:11.243689,191391517,3,60,656,400,OTG1
26737,2023-01-20 10:51:11.344798,191492637,4,183,1360,1016,monitor
26772,2023-01-20 10:51:11.444838,191592660,5,181,1872,1488,timer
26805,2023-01-20 10:51:11.544847,191692619,6,181,848,592,rcout
26838,2023-01-20 10:51:11.645948,191793692,7,177,1360,912,rcin
26869,2023-01-20 10:51:11.747463,191895207,8,58,2384,1456,io
26903,2023-01-20 10:51:11.847455,191995227,9,59,1360,824,storage
26934,2023-01-20 10:51:11.948461,192096293,10,60,656,248,UART3
26968,2023-01-20 10:51:12.049813,192197666,11,60,656,264,UART4
27000,2023-01-20 10:51:12.150847,192298680,12,60,656,264,UART5
27032,2023-01-20 10:51:12.250886,192398689,13,176,1360,856,I2C0
27063,2023-01-20 10:51:12.352449,192500213,14,59,1616,896,OSD
27098,2023-01-20 10:51:12.452334,192600110,15,59,1912,392,log_io
27131,2023-01-20 10:51:12.553405,192701238,16,181,1360,720,SPI1
27164,2023-01-20 10:51:12.653445,192801270,255,255,1536,1264,ISR
27196,2023-01-20 10:51:12.757555,192905312,0,182,7168,5368,ArduCopter
27229,2023-01-20 10:51:12.857538,193005303,1,1,352,144,idle
27260,2023-01-20 10:51:12.958468,193106294,2,60,1104,768,UART_RX
27294,2023-01-20 10:51:13.059983,193207828,3,60,656,400,OTG1
27326,2023-01-20 10:51:13.160240,193308075,4,183,1360,1016,monitor
27358,2023-01-20 10:51:13.260995,193408830,5,181,1872,1488,timer
27389,2023-01-20 10:51:13.362280,193510121,6,181,848,592,rcout
27425,2023-01-20 10:51:13.462356,193610162,7,177,1360,912,rcin
27457,2023-01-20 10:51:13.562370,193710115,8,58,2384,1456,io
27491,2023-01-20 10:51:13.662412,193810150,9,59,1360,824,storage
27522,2023-01-20 10:51:13.763496,193911260,10,60,656,248,UART3
27557,2023-01-20 10:51:13.863497,194011309,11,60,656,264,UART4
27588,2023-01-20 10:51:13.964826,194112700,12,60,656,264,UART5
27624,2023-01-20 10:51:14.064768,194212628,13,176,1360,856,I2C0
27655,2023-01-20 10:51:14.166225,194314028,14,59,1616,896,OSD
27688,2023-01-20 10:51:14.267846,194415617,15,59,1912,392,log_io
27718,2023-01-20 10:51:14.367838,194515589,16,181,1360,720,SPI1
27755,2023-01-20 10:51:14.468928,194616714,255,255,1536,1264,ISR
27787,2023-01-20 10:51:14.569830,194717676,0,182,7168,5368,ArduCopter
27821,2023-01-20 10:51:14.671188,194819003,1,1,352,144,idle
27852,2023-01-20 10:51:14.772378,194920123,2,60,1104,768,UART_RX
27886,2023-01-20 10:51:14.872692,195020461,3,60,656,400,OTG1
27916,2023-01-20 10:51:14.973400,195121228,4,183,1360,1016,monitor
27951,2023-01-20 10:51:15.073602,195221439,5,181,1872,1488,timer
27982,2023-01-20 10:51:15.174859,195322686,6,181,848,592,rcout
28015,2023-01-20 10:51:15.274829,195422624,7,177,1360,912,rcin
28045,2023-01-20 10:51:15.375920,195523674,8,58,2384,1456,io
28081,2023-01-20 10:51:15.475952,195623696,9,59,1360,824,storage
28113,2023-01-20 10:51:15.577490,195725234,10,60,656,248,UART3
28147,2023-01-20 10:51:15.677403,195825159,11,60,656,264,UART4
28178,2023-01-20 10:51:15.777514,195925285,12,60,656,264,UART5
28212,2023-01-20 10:51:15.878435,196026253,13,176,1360,856,I2C0
28242,2023-01-20 10:51:15.980153,196128027,14,59,1616,896,OSD
28277,2023-01-20 10:51:16.081209,196229040,15,59,1912,392,log_io
28308,2023-01-20 10:51:16.181333,196329096,16,181,1360,720,SPI1
28341,2023-01-20 10:51:16.282402,196430147,255,255,1536,1264,ISR
28372,2023-01-20 10:51:16.383540,196531278,0,182,7168,5368,ArduCopter
28407,2023-01-20 10:51:16.476122,196631408,1,1,352,144,idle
28440,2023-01-20 10:51:16.568635,196733097,2,60,1104,768,UART_RX
28473,2023-01-20 10:51:16.666674,196834275,3,60,656,400,OTG1
28505,2023-01-20 10:51:16.767631,196935276,4,183,1360,1016,monitor
28538,2023-01-20 10:51:16.868568,197036290,5,181,1872,1488,timer
28569,2023-01-20 10:51:16.969869,197137684,6,181,848,592,rcout
28604,2023-01-20 10:51:17.070949,197238740,7,177,1360,912,rcin
28635,2023-01-20 10:51:17.172769,197340485,8,58,2384,1456,io
28667,2023-01-20 10:51:17.272818,197440497,9,59,1360,824,storage
28698,2023-01-20 10:51:17.372855,197540511,10,60,656,248,UART3
28733,2023-01-20 10:51:17.473872,197641529,11,60,656,264,UART4
28766,2023-01-20 10:51:17.573869,197741535,12,60,656,264,UART5
28799,2023-01-20 10:51:17.673860,197841570,13,176,1360,856,I2C0
28831,2023-01-20 10:51:17.774910,197942678,14,59,1616,896,OSD
28864,2023-01-20 10:51:17.875976,198043712,15,59,1912,392,log_io
28895,2023-01-20 10:51:17.976034,198143710,16,181,1360,720,SPI1
28930,2023-01-20 10:51:18.077539,198245261,255,255,1536,1264,ISR
28961,2023-01-20 10:51:18.177364,198345164,0,182,7168,5368,ArduCopter
28993,2023-01-20 10:51:18.278538,198446322,1,1,352,144,idle
29024,2023-01-20 10:51:18.380042,198547782,2,60,1104,768,UART_RX
29059,2023-01-20 10:51:18.479993,198647730,3,60,656,400,OTG1
29092,2023-01-20 10:51:18.581125,198748869,4,183,1360,1016,monitor
29126,2023-01-20 10:51:18.682504,198850284,5,181,1872,1488,timer
29157,2023-01-20 10:51:18.783512,198951334,6,181,848,592,rcout
29193,2023-01-20 10:51:18.885092,199052926,7,177,1360,912,rcin
29223,2023-01-20 10:51:18.985191,199153031,8,58,2384,1456,io
29260,2023-01-20 10:51:19.086162,199253975,9,59,1360,824,storage
29290,2023-01-20 10:51:19.186365,199354146,10,60,656,248,UART3
29323,2023-01-20 10:51:19.287330,199455137,11,60,656,264,UART4
29353,2023-01-20 10:51:19.387402,199555243,12,60,656,264,UART5
29389,2023-01-20 10:51:19.488518,199656316,13,176,1360,856,I2C0
29421,2023-01-20 10:51:19.589939,199757683,14,59,1616,896,OSD
29455,2023-01-20 10:51:19.690975,199858718,15,59,1912,392,log_io
29486,2023-01-20 10:51:19.792696,199960443,16,181,1360,720,SPI1
29520,2023-01-20 10:51:19.892394,200060209,255,255,1536,1264,ISR
29550,2023-01-20 10:51:19.992245,200160134,0,182,7168,5368,ArduCopter
29586,2023-01-20 10:51:20.092322,200260173,1,1,352,144,idle
29616,2023-01-20 10:51:20.192401,200360205,2,60,1104,768,UART_RX
29649,2023-01-20 10:51:20.292312,200460102,3,60,656,400,OTG1
29679,2023-01-20 10:51:20.393484,200561264,4,183,1360,1016,monitor
29715,2023-01-20 10:51:20.493499,200661261,5,181,1872,1488,timer
29750,2023-01-20 10:51:20.594969,200762712,6,181,848,592,rcout
29784,2023-01-20 10:51:20.694945,200862703,7,177,1360,912,rcin
29815,2023-01-20 10:51:20.795136,200962910,8,58,2384,1456,io
29849,2023-01-20 10:51:20.896016,201063826,9,59,1360,824,storage
29881,2023-01-20 10:51:20.997751,201165597,10,60,656,248,UART3
29917,2023-01-20 10:51:21.097764,201265599,11,60,656,264,UART4
29947,2023-01-20 10:51:21.197839,201365661,12,60,656,264,UART5
29980,2023-01-20 10:51:21.298822,201466606,13,176,1360,856,I2C0
30012,2023-01-20 10:51:21.398891,201566636,14,59,1616,896,OSD
30070,2023-01-20 10:51:21.507907,201675647,15,59,1912,392,log_io
30102,2023-01-20 10:51:21.600785,201768520,16,181,1360,720,SPI1
30132,2023-01-20 10:51:21.701376,201869092,255,255,1536,1264,ISR
30163,2023-01-20 10:51:21.802654,201970352,0,182,7168,5368,ArduCopter
30191,2023-01-20 10:51:21.902639,202070325,1,1,352,144,idle
30223,2023-01-20 10:51:22.003693,202171367,2,60,1104,768,UART_RX
30251,2023-01-20 10:51:22.104855,202272537,3,60,656,400,OTG1
30281,2023-01-20 10:51:22.208595,202376283,4,183,1360,1016,monitor
30308,2023-01-20 10:51:22.310179,202477843,5,181,1872,1488,timer
30341,2023-01-20 10:51:22.412410,202580057,6,181,848,592,rcout
30370,2023-01-20 10:51:22.512422,202680092,7,177,1360,912,rcin
30400,2023-01-20 10:51:22.613409,202781096,8,58,2384,1456,io
30428,2023-01-20 10:51:22.714858,202882524,9,59,1360,824,storage
30458,2023-01-20 10:51:22.814893,202982548,10,60,656,248,UART3
30487,2023-01-20 10:51:22.921648,203089349,11,60,656,264,UART4
30518,2023-01-20 10:51:23.023671,203191397,12,60,656,264,UART5
30547,2023-01-20 10:51:23.123962,203291648,13,176,1360,856,I2C0
30576,2023-01-20 10:51:23.224962,203392613,14,59,1616,896,OSD
30604,2023-01-20 10:51:23.325949,203493582,15,59,1912,392,log_io
30635,2023-01-20 10:51:23.425962,203593582,16,181,1360,720,SPI1
30665,2023-01-20 10:51:23.527403,203695024,255,255,1536,1264,ISR
30694,2023-01-20 10:51:23.627415,203795042,0,182,7168,5368,ArduCopter
30723,2023-01-20 10:51:23.727419,203895062,1,1,352,144,idle
30753,2023-01-20 10:51:23.828407,203996068,2,60,1104,768,UART_RX
30784,2023-01-20 10:51:23.928851,204096532,3,60,656,400,OTG1
30815,2023-01-20 10:51:24.029810,204197513,4,183,1360,1016,monitor
30844,2023-01-20 10:51:24.129812,204297542,5,181,1872,1488,timer
30879,2023-01-20 10:51:24.229923,204397677,6,181,848,592,rcout
30910,2023-01-20 10:51:24.330961,204498730,7,177,1360,912,rcin
30994,2023-01-20 10:51:24.432470,204600249,8,58,2384,1456,io
31027,2023-01-20 10:51:24.533445,204701225,9,59,1360,824,storage
31060,2023-01-20 10:51:24.633475,204801249,10,60,656,248,UART3
31091,2023-01-20 10:51:24.737479,204905236,11,60,656,264,UART4
31123,2023-01-20 10:51:24.837506,205005272,12,60,656,264,UART5
31155,2023-01-20 10:51:24.937333,205105152,13,176,1360,856,I2C0
31189,2023-01-20 10:51:25.038479,205206333,14,59,1616,896,OSD
31221,2023-01-20 10:51:25.138521,205306379,15,59,1912,392,log_io
31253,2023-01-20 10:51:25.239877,205407708,16,181,1360,720,SPI1
31284,2023-01-20 10:51:25.341106,205508863,255,255,1536,1264,ISR
31319,2023-01-20 10:51:25.442443,205610158,0,182,7168,5368,ArduCopter
31351,2023-01-20 10:51:25.543541,205711261,1,1,352,144,idle
31385,2023-01-20 10:51:25.645247,205813000,2,60,1104,768,UART_RX
31415,2023-01-20 10:51:25.745883,205913702,3,60,656,400,OTG1
31448,2023-01-20 10:51:25.843455,206015611,4,183,1360,1016,monitor
31479,2023-01-20 10:51:25.934462,206115629,5,181,1872,1488,timer
31514,2023-01-20 10:51:26.027934,206215594,6,181,848,592,rcout
31544,2023-01-20 10:51:26.128271,206315945,7,177,1360,912,rcin
31577,2023-01-20 10:51:26.229025,206416700,8,58,2384,1456,io
31607,2023-01-20 10:51:26.330055,206517699,9,59,1360,824,storage
31643,2023-01-20 10:51:26.430084,206617720,10,60,656,248,UART3
31675,2023-01-20 10:51:26.531017,206718697,11,60,656,264,UART4
31709,2023-01-20 10:51:26.631209,206818918,12,60,656,264,UART5
31739,2023-01-20 10:51:26.732479,206920186,13,176,1360,856,I2C0
31772,2023-01-20 10:51:26.833517,207021247,14,59,1616,896,OSD
31803,2023-01-20 10:51:26.933632,207121437,15,59,1912,392,log_io
31838,2023-01-20 10:51:27.034787,207222643,16,181,1360,720,SPI1
31868,2023-01-20 10:51:27.134800,207322657,255,255,1536,1264,ISR
31901,2023-01-20 10:51:27.235925,207423748,0,182,7168,5368,ArduCopter
31931,2023-01-20 10:51:27.337571,207525294,1,1,352,144,idle
31967,2023-01-20 10:51:27.437712,207625378,2,60,1104,768,UART_RX
31999,2023-01-20 10:51:27.538585,207726260,3,60,656,400,OTG1
32033,2023-01-20 10:51:27.640353,207828038,4,183,1360,1016,monitor
32063,2023-01-20 10:51:27.740325,207928018,5,181,1872,1488,timer
32097,2023-01-20 10:51:27.841366,208029095,6,181,848,592,rcout
32128,2023-01-20 10:51:27.942412,208130218,7,177,1360,912,rcin
32163,2023-01-20 10:51:28.043421,208231264,8,58,2384,1456,io
32194,2023-01-20 10:51:28.143456,208331284,9,59,1360,824,storage
32226,2023-01-20 10:51:28.243513,208431307,10,60,656,248,UART3
32257,2023-01-20 10:51:28.345409,208533141,11,60,656,264,UART4
32291,2023-01-20 10:51:28.446498,208634208,12,60,656,264,UART5
32324,2023-01-20 10:51:28.547495,208735230,13,176,1360,856,I2C0
32357,2023-01-20 10:51:28.647480,208835245,14,59,1616,896,OSD
32389,2023-01-20 10:51:28.748472,208936273,15,59,1912,392,log_io
32422,2023-01-20 10:51:28.848490,209036316,16,181,1360,720,SPI1
32455,2023-01-20 10:51:28.948485,209136324,255,255,1536,1264,ISR
32490,2023-01-20 10:51:29.049843,209237678,0,182,7168,5368,ArduCopter
32521,2023-01-20 10:51:29.151047,209338860,1,1,352,144,idle
32554,2023-01-20 10:51:29.252732,209440520,2,60,1104,768,UART_RX
32585,2023-01-20 10:51:29.353778,209541541,3,60,656,400,OTG1
32620,2023-01-20 10:51:29.454918,209642660,4,183,1360,1016,monitor
32653,2023-01-20 10:51:29.555966,209743691,5,181,1872,1488,timer
32686,2023-01-20 10:51:29.657517,209845278,6,181,848,592,rcout
32718,2023-01-20 10:51:29.758425,209946262,7,177,1360,912,rcin
32751,2023-01-20 10:51:29.858427,210046292,8,58,2384,1456,io
32782,2023-01-20 10:51:29.959859,210147718,9,59,1360,824,storage
32817,2023-01-20 10:51:30.059859,210247706,10,60,656,248,UART3
32848,2023-01-20 10:51:30.161045,210348875,11,60,656,264,UART4
32881,2023-01-20 10:51:30.262451,210450250,12,60,656,264,UART5
32912,2023-01-20 10:51:30.362403,210550163,13,176,1360,856,I2C0
32947,2023-01-20 10:51:30.463514,210651270,14,59,1616,896,OSD
32979,2023-01-20 10:51:30.565186,210752958,15,59,1912,392,log_io
33013,2023-01-20 10:51:30.665157,210852936,16,181,1360,720,SPI1
33044,2023-01-20 10:51:30.765492,210953273,255,255,1536,1264,ISR
33078,2023-01-20 10:51:30.866163,211053969,0,182,7168,5368,ArduCopter
33108,2023-01-20 10:51:30.966147,211153990,1,1,352,144,idle
33144,2023-01-20 10:51:31.066234,211254020,2,60,1104,768,UART_RX
33174,2023-01-20 10:51:31.167744,211355424,3,60,656,400,OTG1
33205,2023-01-20 10:51:31.268871,211456518,4,183,1360,1016,monitor
33233,2023-01-20 10:51:31.368437,211556085,5,181,1872,1488,timer
33265,2023-01-20 10:51:31.468504,211656152,6,181,848,592,rcout
