LineNo,UTC_Approx,TimeUS,Instance,noisePerMS,jamInd,aPower,agcCnt,config
2842,2023-01-20 10:49:58.859810,118861926,0,98,6,1,0,0
4648,2023-01-20 10:50:03.879247,123881887,0,98,5,1,0,0
6271,2023-01-20 10:50:08.860028,128884900,0,98,6,1,0,0
7893,2023-01-20 10:50:13.879503,133907663,0,98,7,1,0,0
9511,2023-01-20 10:50:18.859922,138907609,0,99,4,1,0,0
11134,2023-01-20 10:50:23.880098,143927940,0,99,5,1,0,0
12758,2023-01-20 10:50:28.860272,148927955,0,99,8,1,0,0
14381,2023-01-20 10:50:33.879782,153947642,0,99,3,1,0,0
16005,2023-01-20 10:50:38.866597,158947665,0,92,5,1,0,0
17637,2023-01-20 10:50:43.859786,163947618,0,91,9,1,0,0
19275,2023-01-20 10:50:48.859783,168967612,0,98,4,1,0,0
20950,2023-01-20 10:50:53.859882,173967642,0,98,5,1,0,0
22606,2023-01-20 10:50:58.859599,178987662,0,98,5,1,0,0
24239,2023-01-20 10:51:03.859571,183987653,0,98,6,1,0,0
25923,2023-01-20 10:51:08.859782,189007627,0,98,4,1,0,0
27555,2023-01-20 10:51:13.859861,194007671,0,98,5,1,0,0
29190,2023-01-20 10:51:18.860124,199027957,0,98,4,1,0,0
30756,2023-01-20 10:51:23.879729,204047400,0,98,4,1,0,0
32423,2023-01-20 10:51:28.859834,209047661,0,98,6,1,0,0
33984,2023-01-20 10:51:33.879800,214067611,0,98,5,1,0,0
35576,2023-01-20 10:51:38.859842,219067475,0,97,5,1,0,0
37205,2023-01-20 10:51:43.879810,224087597,0,97,5,1,0,0
38822,2023-01-20 10:51:48.879500,229107611,0,97,4,1,0,0
40450,2023-01-20 10:51:53.879510,234107673,0,97,5,1,0,0
42080,2023-01-20 10:51:58.859797,239107627,0,97,5,1,0,0
43758,2023-01-20 10:52:03.880115,244127949,0,98,5,1,0,0
45395,2023-01-20 10:52:08.860164,249127949,0,98,4,1,0,0
47032,2023-01-20 10:52:13.879768,254147620,0,98,5,1,0,0
48722,2023-01-20 10:52:18.879816,259167600,0,98,5,1,0,0
50357,2023-01-20 10:52:23.859925,264167578,0,98,6,1,0,0
51992,2023-01-20 10:52:28.859772,269167590,0,98,5,1,0,0
53652,2023-01-20 10:52:33.859651,274187621,0,98,4,1,0,0
55339,2023-01-20 10:52:38.859517,279187620,0,98,5,1,0,0
56975,2023-01-20 10:52:43.860019,284207669,0,98,6,1,0,0
58611,2023-01-20 10:52:48.859763,289207622,0,98,11,1,0,0
60296,2023-01-20 10:52:53.860243,294228001,0,98,4,1,0,0
61932,2023-01-20 10:52:58.879849,299247639,0,98,4,1,0,0
63568,2023-01-20 10:53:03.859834,304247620,0,98,4,1,0,0
65260,2023-01-20 10:53:08.879765,309267611,0,98,3,1,0,0
66895,2023-01-20 10:53:13.859748,314267611,0,98,3,1,0,0
68532,2023-01-20 10:53:18.859872,319267717,0,97,3,1,0,0
70188,2023-01-20 10:53:23.859478,324287622,0,97,4,1,0,0
71874,2023-01-20 10:53:28.879499,329307665,0,97,8,1,0,0
73509,2023-01-20 10:53:33.859836,334307639,0,98,4,1,0,0
75137,2023-01-20 10:53:38.880138,339327919,0,98,5,1,0,0
76769,2023-01-20 10:53:43.860138,344327949,0,97,8,1,0,0
78398,2023-01-20 10:53:48.879778,349347638,0,97,11,1,0,0
80077,2023-01-20 10:53:53.859886,354347657,0,97,17,1,0,0
81718,2023-01-20 10:53:58.872664,359367614,0,97,5,1,0,0
83377,2023-01-20 10:54:03.879809,364387676,0,97,5,1,0,0
85062,2023-01-20 10:54:08.859681,369387626,0,97,4,1,0,0
86698,2023-01-20 10:54:13.859541,374387633,0,97,6,1,0,0
88334,2023-01-20 10:54:18.859982,379407631,0,97,12,1,0,0
89971,2023-01-20 10:54:23.880084,384427941,0,97,4,1,0,0
91655,2023-01-20 10:54:28.860270,389427969,0,97,9,1,0,0
93290,2023-01-20 10:54:33.860191,394427966,0,97,3,1,0,0
94927,2023-01-20 10:54:38.859843,399447638,0,97,5,1,0,0
96619,2023-01-20 10:54:43.879709,404467501,0,97,3,1,0,0
98254,2023-01-20 10:54:48.859740,409467608,0,97,3,1,0,0
99890,2023-01-20 10:54:53.859871,414467650,0,97,6,1,0,0
101597,2023-01-20 10:54:58.859504,419487602,0,97,3,1,0,0
103233,2023-01-20 10:55:03.879537,424507642,0,97,7,1,0,0
104869,2023-01-20 10:55:08.859787,429507626,0,96,3,1,0,0
106506,2023-01-20 10:55:13.880139,434527920,0,96,5,1,0,0
108190,2023-01-20 10:55:18.860154,439527928,0,96,4,1,0,0
109828,2023-01-20 10:55:23.879792,444547635,0,96,5,1,0,0
111461,2023-01-20 10:55:28.859897,449547669,0,96,4,1,0,0
113098,2023-01-20 10:55:33.872638,454567605,0,96,8,1,0,0
114771,2023-01-20 10:55:38.859761,459567608,0,96,7,1,0,0
116430,2023-01-20 10:55:43.860320,464588301,0,96,8,1,0,0
118061,2023-01-20 10:55:48.859714,469590820,0,96,6,1,0,0
119697,2023-01-20 10:55:53.859768,474596500,0,97,6,1,0,0
121332,2023-01-20 10:55:58.859871,479616529,0,96,11,1,0,0
123015,2023-01-20 10:56:03.859922,484616587,0,97,4,1,0,0
124651,2023-01-20 10:56:08.859620,489636512,0,96,5,1,0,0
126289,2023-01-20 10:56:13.859880,494636560,0,96,4,1,0,0
127973,2023-01-20 10:56:18.859583,499656559,0,96,5,1,0,0
129609,2023-01-20 10:56:23.860213,504656893,0,96,5,1,0,0
131274,2023-01-20 10:56:28.860199,509676845,0,96,13,1,0,0
132959,2023-01-20 10:56:33.859492,514677228,0,96,7,1,0,0
134594,2023-01-20 10:56:38.859755,519697116,0,96,5,1,0,0
136232,2023-01-20 10:56:43.859757,524697105,0,96,7,1,0,0
137868,2023-01-20 10:56:48.860218,529717580,0,96,4,1,0,0
139553,2023-01-20 10:56:53.879635,534737001,0,97,4,1,0,0
141188,2023-01-20 10:56:58.859791,539737119,0,97,5,1,0,0
142826,2023-01-20 10:57:03.879781,544757138,0,96,5,1,0,0
144511,2023-01-20 10:57:08.859934,549757243,0,96,5,1,0,0
146173,2023-01-20 10:57:13.879686,554777000,0,96,5,1,0,0
147810,2023-01-20 10:57:18.859354,559777137,0,97,6,1,0,0
149443,2023-01-20 10:57:23.872363,564797119,0,97,5,1,0,0
151119,2023-01-20 10:57:28.859792,569797116,0,97,5,1,0,0
152749,2023-01-20 10:57:33.873074,574817606,0,97,5,1,0,0
154377,2023-01-20 10:57:38.860176,579817552,0,97,5,1,0,0
156012,2023-01-20 10:57:43.860103,584837224,0,97,5,1,0,0
157650,2023-01-20 10:57:48.859812,589837131,0,97,3,1,0,0
159331,2023-01-20 10:57:53.860005,594857156,0,97,4,1,0,0
160965,2023-01-20 10:57:58.859848,599857150,0,97,4,1,0,0
162630,2023-01-20 10:58:03.859516,604877115,0,97,8,1,0,0
164314,2023-01-20 10:58:08.879378,609897115,0,97,5,1,0,0
165949,2023-01-20 10:58:13.859930,614897124,0,97,4,1,0,0
167587,2023-01-20 10:58:18.859764,619897103,0,97,7,1,0,0
169273,2023-01-20 10:58:23.860293,624917583,0,97,5,1,0,0
170907,2023-01-20 10:58:28.860277,629917622,0,97,4,1,0,0
172544,2023-01-20 10:58:33.860048,634937330,0,97,4,1,0,0
174180,2023-01-20 10:58:38.879687,639957030,0,97,6,1,0,0
175864,2023-01-20 10:58:43.859919,644957240,0,97,6,1,0,0
177529,2023-01-20 10:58:48.879658,649976975,0,96,9,1,0,0
179165,2023-01-20 10:58:53.859364,654977111,0,96,4,1,0,0
180850,2023-01-20 10:58:58.879323,659997059,0,97,5,1,0,0
182486,2023-01-20 10:59:03.859754,664997094,0,97,4,1,0,0
184121,2023-01-20 10:59:08.880140,670017453,0,97,3,1,0,0
185804,2023-01-20 10:59:13.860140,675017550,0,97,3,1,0,0
187435,2023-01-20 10:59:18.879857,680037233,0,97,7,1,0,0
189065,2023-01-20 10:59:23.859805,685037133,0,97,4,1,0,0
190692,2023-01-20 10:59:28.872640,690057189,0,97,4,1,0,0
192326,2023-01-20 10:59:33.859833,695057147,0,98,4,1,0,0
193990,2023-01-20 10:59:38.879764,700077113,0,98,6,1,0,0
195671,2023-01-20 10:59:43.859434,705077147,0,98,6,1,0,0
197308,2023-01-20 10:59:48.860002,710097737,0,98,4,1,0,0
198944,2023-01-20 10:59:53.859864,715097851,0,98,6,1,0,0
200630,2023-01-20 10:59:58.859659,720117780,0,98,3,1,0,0
202265,2023-01-20 11:00:03.859500,725117837,0,98,4,1,0,0
203900,2023-01-20 11:00:08.859989,730137838,0,98,4,1,0,0
205537,2023-01-20 11:00:13.859815,735137782,0,98,4,1,0,0
207222,2023-01-20 11:00:18.872902,740158115,0,98,12,1,0,0
208859,2023-01-20 11:00:23.860101,745158109,0,98,5,1,0,0
210524,2023-01-20 11:00:28.860096,750177882,0,98,10,1,0,0
212208,2023-01-20 11:00:33.859854,755177824,0,98,5,1,0,0
213844,2023-01-20 11:00:38.859851,760198141,0,98,4,1,0,0
215481,2023-01-20 11:00:43.859809,765198152,0,98,7,1,0,0
217165,2023-01-20 11:00:48.860220,770218589,0,98,5,1,0,0
218802,2023-01-20 11:00:53.860280,775218656,0,98,5,1,0,0
220439,2023-01-20 11:00:58.859766,780238144,0,98,6,1,0,0
222075,2023-01-20 11:01:03.859881,785238251,0,98,5,1,0,0
223755,2023-01-20 11:01:08.859880,790258223,0,98,3,1,0,0
225383,2023-01-20 11:01:13.859957,795258292,0,98,5,1,0,0
227040,2023-01-20 11:01:18.859410,800278141,0,98,5,1,0,0
228671,2023-01-20 11:01:23.879392,805298126,0,98,5,1,0,0
230305,2023-01-20 11:01:28.859896,810298229,0,91,4,1,0,0
231990,2023-01-20 11:01:33.880265,815318597,0,91,3,1,0,0
233624,2023-01-20 11:01:38.860215,820318602,0,91,7,1,0,0
235260,2023-01-20 11:01:43.879719,825338095,0,90,6,1,0,0
236895,2023-01-20 11:01:48.859821,830338145,0,90,2,1,0,0
238583,2023-01-20 11:01:53.879908,835358217,0,90,9,1,0,0
240218,2023-01-20 11:01:58.859796,840358156,0,89,13,1,0,0
241883,2023-01-20 11:02:03.859662,845378244,0,89,4,1,0,0
243566,2023-01-20 11:02:08.859419,850378145,0,89,5,1,0,0
245203,2023-01-20 11:02:13.859993,855398151,0,89,5,1,0,0
246838,2023-01-20 11:02:18.859815,860398155,0,89,5,1,0,0
248525,2023-01-20 11:02:23.860424,865418582,0,89,3,1,0,0
250161,2023-01-20 11:02:28.879753,870438134,0,89,9,1,0,0
251798,2023-01-20 11:02:33.859918,875438138,0,88,7,1,0,0
253481,2023-01-20 11:02:38.859766,880438125,0,88,3,1,0,0
255116,2023-01-20 11:02:43.859894,885458232,0,88,4,1,0,0
256752,2023-01-20 11:02:48.859795,890458138,0,88,7,1,0,0
258415,2023-01-20 11:02:53.859493,895478110,0,88,3,1,0,0
260099,2023-01-20 11:02:58.859381,900478154,0,88,5,1,0,0
261730,2023-01-20 11:03:03.859879,905498216,0,88,5,1,0,0
263355,2023-01-20 11:03:08.859886,910498230,0,88,4,1,0,0
264989,2023-01-20 11:03:13.860206,915518587,0,89,4,1,0,0
266610,2023-01-20 11:03:18.879725,920538146,0,89,5,1,0,0
268229,2023-01-20 11:03:23.859764,925538126,0,89,4,1,0,0
269855,2023-01-20 11:03:28.859920,930538237,0,89,4,1,0,0
271492,2023-01-20 11:03:33.859953,935558153,0,89,6,1,0,0
273199,2023-01-20 11:03:38.879750,940578085,0,89,6,1,0,0
274836,2023-01-20 11:03:43.859473,945578229,0,89,15,1,0,0
276472,2023-01-20 11:03:48.879497,950598217,0,95,7,1,0,0
278156,2023-01-20 11:03:53.859800,955598127,0,89,7,1,0,0
279794,2023-01-20 11:03:58.880241,960618579,0,89,5,1,0,0
281431,2023-01-20 11:04:03.879706,965638072,0,88,9,1,0,0
283062,2023-01-20 11:04:08.879754,970638131,0,88,8,1,0,0
284730,2023-01-20 11:04:13.859784,975638127,0,89,3,1,0,0
286350,2023-01-20 11:04:18.860075,980658207,0,89,3,1,0,0
288002,2023-01-20 11:04:23.879787,985678125,0,89,4,1,0,0
289624,2023-01-20 11:04:28.859554,990678141,0,89,4,1,0,0
291246,2023-01-20 11:04:33.859482,995678236,0,89,14,1,0,0
292867,2023-01-20 11:04:38.859972,1000698133,0,89,11,1,0,0
294489,2023-01-20 11:04:43.859803,1005698143,0,89,5,1,0,0
296111,2023-01-20 11:04:48.860300,1010718626,0,89,4,1,0,0
297731,2023-01-20 11:04:53.860199,1015718603,0,89,4,1,0,0
299351,2023-01-20 11:04:58.859970,1020738151,0,89,8,1,0,0
300942,2023-01-20 11:05:03.859853,1025737929,0,89,5,1,0,0
302311,2023-01-20 11:05:08.859910,1030757964,0,96,4,1,0,0
303702,2023-01-20 11:05:13.879812,1035777920,0,96,4,1,0,0
