LineNo,UTC_Approx,TimeUS,IMU,VibeX,VibeY,VibeZ,Clip
382,2023-01-20 10:49:56.259355,116248378,0,0.02044095,0.02149572,0.03366153,0
972,2023-01-20 10:49:56.350355,116348428,0,0.01959333,0.02326482,0.02924933,0
1130,2023-01-20 10:49:56.452359,116454900,0,0.01928061,0.02089668,0.0382351,0
1349,2023-01-20 10:49:56.565000,116566532,0,0.02200599,0.02003925,0.03446948,0
1569,2023-01-20 10:49:56.665859,116667326,0,0.0233126,0.025349,0.03157602,0
1889,2023-01-20 10:49:56.765461,116767302,0,0.02530849,0.02343538,0.03035863,0
1934,2023-01-20 10:49:56.865343,116867314,0,0.02158268,0.02193341,0.03132844,0
1982,2023-01-20 10:49:56.965314,116967286,0,0.02061363,0.02236374,0.02923271,0
2032,2023-01-20 10:49:57.065354,117067313,0,0.01787457,0.02090404,0.02922057,0
2078,2023-01-20 10:49:57.165391,117167329,0,0.02227197,0.0214558,0.02789043,0
2128,2023-01-20 10:49:57.272558,117267284,0,0.02126648,0.02376123,0.02529991,0
2187,2023-01-20 10:49:57.383618,117367316,0,0.0211471,0.021179,0.03069775,0
2243,2023-01-20 10:49:57.477518,117467336,0,0.02185109,0.02245771,0.02988449,0
2302,2023-01-20 10:49:57.568387,117567287,0,0.01918357,0.02602537,0.03150881,0
2358,2023-01-20 10:49:57.665246,117667320,0,0.02155872,0.0249899,0.02870945,0
2416,2023-01-20 10:49:57.765269,117767365,0,0.02212055,0.0204202,0.02666704,0
2459,2023-01-20 10:49:57.865188,117867312,0,0.02097278,0.02319712,0.02511339,0
2504,2023-01-20 10:49:57.965134,117967288,0,0.02197759,0.02747775,0.02988351,0
2543,2023-01-20 10:49:58.065237,118067347,0,0.0215173,0.02671845,0.03135701,0
2585,2023-01-20 10:49:58.165301,118167329,0,0.01787231,0.02254851,0.03353766,0
2625,2023-01-20 10:49:58.265273,118267292,0,0.0213555,0.02622987,0.03111602,0
2665,2023-01-20 10:49:58.365263,118367312,0,0.267626,0.255418,0.2281222,0
2704,2023-01-20 10:49:58.465288,118467349,0,0.2751754,0.241561,0.2180561,0
2745,2023-01-20 10:49:58.565228,118567291,0,0.2693574,0.2483609,0.1747861,0
2787,2023-01-20 10:49:58.665252,118667333,0,0.2903818,0.2781155,0.1450582,0
2826,2023-01-20 10:49:58.765251,118767359,0,0.2774681,0.3229333,0.1389556,0
2870,2023-01-20 10:49:58.865199,118867315,0,0.2660765,0.3950166,0.1573255,0
2909,2023-01-20 10:49:58.965174,118967289,0,0.2342285,0.4251899,0.2139954,0
2948,2023-01-20 10:49:59.065243,119067340,0,0.3518627,0.3391044,0.2504911,0
2989,2023-01-20 10:49:59.165252,119167322,0,0.721517,0.7225581,0.4187447,0
3028,2023-01-20 10:49:59.265223,119267285,0,1.084467,1.219462,0.4702701,0
3067,2023-01-20 10:49:59.365258,119367321,0,1.305073,1.450399,0.5345086,0
3107,2023-01-20 10:49:59.465261,119467328,0,1.084636,1.457356,0.6155756,0
3148,2023-01-20 10:49:59.565222,119567293,0,0.7932895,1.190012,0.5913535,0
3189,2023-01-20 10:49:59.665268,119667352,0,0.8706385,1.00955,0.5220259,0
3228,2023-01-20 10:49:59.765259,119767362,0,1.262303,1.096772,0.5614289,0
3267,2023-01-20 10:49:59.865188,119867300,0,1.329948,1.223129,0.6212319,0
3306,2023-01-20 10:49:59.965185,119967302,0,1.359994,1.383433,0.7338479,0
3345,2023-01-20 10:50:00.065220,120067321,0,1.069733,1.195843,0.7670578,0
3387,2023-01-20 10:50:00.165248,120167322,0,0.9363133,0.9839552,0.6510097,0
3426,2023-01-20 10:50:00.265224,120267294,0,1.08312,0.9007114,0.6342017,0
3465,2023-01-20 10:50:00.365235,120367313,0,1.35378,1.258866,0.5149658,0
3505,2023-01-20 10:50:00.465218,120467294,0,1.446649,1.412422,0.5383716,0
3545,2023-01-20 10:50:00.565228,120567298,0,1.511844,1.539999,0.5595623,0
3588,2023-01-20 10:50:00.665241,120667316,0,1.347447,1.392044,0.7020108,0
3627,2023-01-20 10:50:00.765269,120767356,0,1.044244,1.120832,0.6415415,0
3668,2023-01-20 10:50:00.865201,120867304,0,0.8775742,0.977992,0.6063367,0
3705,2023-01-20 10:50:00.965169,120967291,0,1.08326,1.057422,0.5299032,0
3737,2023-01-20 10:50:01.065255,121067379,0,1.357981,1.372193,0.5408236,0
3770,2023-01-20 10:50:01.165266,121167383,0,1.50086,1.558738,0.6740524,0
3802,2023-01-20 10:50:01.265208,121267358,0,1.398368,1.376178,0.5792216,0
3833,2023-01-20 10:50:01.365209,121367413,0,1.479287,1.15925,0.7354208,0
3865,2023-01-20 10:50:01.465150,121467339,0,2.140384,3.163548,1.913525,0
3898,2023-01-20 10:50:01.565206,121567344,0,2.299329,5.309456,3.469708,0
3933,2023-01-20 10:50:01.665296,121667415,0,11.39428,9.625522,6.06292,0
3964,2023-01-20 10:50:01.765542,121767659,0,11.85168,10.3077,7.751253,0
3997,2023-01-20 10:50:01.865488,121867653,0,7.951486,8.97235,13.64226,0
4029,2023-01-20 10:50:01.965446,121967687,0,7.330165,7.834259,9.447715,0
4061,2023-01-20 10:50:02.065434,122067658,0,8.654351,7.280458,10.22255,0
4094,2023-01-20 10:50:02.165516,122167674,0,12.19557,6.60941,11.52905,0
4126,2023-01-20 10:50:02.265572,122267708,0,15.90357,7.054662,8.474881,0
4157,2023-01-20 10:50:02.365506,122367644,0,14.70599,7.357949,9.090324,0
4189,2023-01-20 10:50:02.465242,122467641,0,14.37184,6.018685,5.990993,0
4222,2023-01-20 10:50:02.564627,122567423,0,14.71557,6.061638,6.65152,0
4258,2023-01-20 10:50:02.664470,122667383,0,10.94551,6.37955,8.659699,0
4288,2023-01-20 10:50:02.764498,122767374,0,8.743969,6.592983,6.771255,0
4323,2023-01-20 10:50:02.864523,122867402,0,13.88237,5.840633,8.606534,0
4353,2023-01-20 10:50:02.964454,122967358,0,10.61224,6.864771,16.68733,0
4386,2023-01-20 10:50:03.064479,123067393,0,8.91829,9.330386,11.50036,0
4418,2023-01-20 10:50:03.164550,123167466,0,7.539613,6.291463,8.784912,0
4451,2023-01-20 10:50:03.264452,123267365,0,13.16294,5.796447,7.538982,0
4481,2023-01-20 10:50:03.364464,123367372,0,13.82974,5.477594,9.61486,0
4514,2023-01-20 10:50:03.464471,123467368,0,14.58753,5.719261,12.58244,0
4546,2023-01-20 10:50:03.564462,123567346,0,13.55273,6.747679,18.22239,0
4582,2023-01-20 10:50:03.664509,123667390,0,9.875221,9.318182,16.18219,0
4612,2023-01-20 10:50:03.764500,123767385,0,13.53161,10.09372,14.80058,0
4646,2023-01-20 10:50:03.864693,123867378,0,11.93323,10.95735,16.57762,0
4678,2023-01-20 10:50:03.965027,123967401,0,13.98143,11.64388,18.41994,0
4711,2023-01-20 10:50:04.065142,124067363,0,12.21412,10.54837,14.49248,0
4743,2023-01-20 10:50:04.165240,124167393,0,12.57038,11.76965,16.46434,0
4776,2023-01-20 10:50:04.265281,124267414,0,10.02146,10.42242,12.21279,0
4806,2023-01-20 10:50:04.365245,124367382,0,10.51478,8.708667,14.61674,0
4839,2023-01-20 10:50:04.465185,124467350,0,8.264401,10.10611,13.04917,0
4872,2023-01-20 10:50:04.565159,124567364,0,6.796466,7.78913,9.596861,0
4908,2023-01-20 10:50:04.665195,124667386,0,10.27294,5.455222,7.248089,0
4938,2023-01-20 10:50:04.765232,124767381,0,13.44144,6.685338,7.370722,0
4972,2023-01-20 10:50:04.865249,124867414,0,13.90769,5.473828,6.790229,0
5002,2023-01-20 10:50:04.965151,124967363,0,12.18993,5.040027,6.205664,0
5035,2023-01-20 10:50:05.065188,125067385,0,10.87593,6.918385,15.23829,0
5067,2023-01-20 10:50:05.165235,125167384,0,10.82033,7.022107,14.75268,0
5100,2023-01-20 10:50:05.265222,125267357,0,11.44234,6.731788,11.02793,0
5130,2023-01-20 10:50:05.365570,125367710,0,11.61957,8.890942,17.99704,0
5163,2023-01-20 10:50:05.465222,125467355,0,8.73663,8.674878,11.71343,0
5195,2023-01-20 10:50:05.565249,125567368,0,10.884,7.536083,9.364409,0
5232,2023-01-20 10:50:05.665272,125667385,0,7.852646,6.8647,10.74587,0
5262,2023-01-20 10:50:05.765555,125767665,0,12.33973,6.763263,8.300508,0
5296,2023-01-20 10:50:05.859607,125867665,0,8.900393,7.579624,14.06942,0
5326,2023-01-20 10:50:05.950508,125967638,0,8.072558,4.802477,9.211391,0
5359,2023-01-20 10:50:06.045612,126067666,0,9.127496,6.422495,11.54331,0
5391,2023-01-20 10:50:06.145369,126167387,0,11.92139,6.823075,12.18208,0
5424,2023-01-20 10:50:06.244808,126267366,0,10.76751,7.463331,12.74986,0
5456,2023-01-20 10:50:06.343825,126367621,0,13.20091,6.384772,9.641227,0
5489,2023-01-20 10:50:06.442855,126467359,0,14.08042,6.328526,9.669012,0
5521,2023-01-20 10:50:06.542851,126567367,0,13.85962,8.440497,11.36603,0
5557,2023-01-20 10:50:06.642882,126667433,0,10.01021,7.68201,11.07313,0
5587,2023-01-20 10:50:06.742759,126767374,0,9.167591,6.714518,7.563424,0
5621,2023-01-20 10:50:06.842683,126867373,0,9.592052,8.053023,9.971704,0
5651,2023-01-20 10:50:06.942595,126967375,0,9.596925,9.562042,9.890361,0
5684,2023-01-20 10:50:07.042589,127067428,0,11.47451,9.614907,12.90948,0
5716,2023-01-20 10:50:07.142517,127167374,0,12.619,10.55442,13.8507,0
5749,2023-01-20 10:50:07.242516,127267356,0,10.40079,10.14748,12.05913,0
5779,2023-01-20 10:50:07.342864,127367641,0,8.409411,9.910058,11.17733,0
5812,2023-01-20 10:50:07.442565,127467343,0,9.746742,7.191741,8.823756,0
5844,2023-01-20 10:50:07.542491,127567355,0,9.115365,7.23364,10.25429,0
5880,2023-01-20 10:50:07.647261,127667387,0,9.468361,6.937843,10.17224,0
5910,2023-01-20 10:50:07.758506,127767362,0,10.39952,7.956953,9.311532,0
5944,2023-01-20 10:50:07.856941,127867372,0,10.20557,8.323969,12.33586,0
5976,2023-01-20 10:50:07.947734,127967378,0,11.57649,6.959723,11.26771,0
6009,2023-01-20 10:50:08.042418,128067374,0,8.991325,8.352097,16.83019,0
6041,2023-01-20 10:50:08.142465,128167439,0,6.695768,7.287522,11.67261,0
6074,2023-01-20 10:50:08.242381,128267348,0,7.520392,6.968771,7.569061,0
6104,2023-01-20 10:50:08.342732,128367657,0,6.967267,7.952063,9.175741,0
6137,2023-01-20 10:50:08.442453,128467357,0,7.273281,6.499476,8.538262,0
6169,2023-01-20 10:50:08.542448,128567358,0,7.9748,4.777482,8.506415,0
6205,2023-01-20 10:50:08.642468,128667386,0,11.59286,4.325901,13.06946,0
6235,2023-01-20 10:50:08.742446,128767372,0,8.650284,7.715505,15.67094,0
6269,2023-01-20 10:50:08.842524,128867413,0,5.525326,6.194742,10.2562,0
6302,2023-01-20 10:50:08.942560,128967351,0,5.344089,6.427793,12.88842,0
6335,2023-01-20 10:50:09.042665,129067383,0,6.149207,6.800598,15.14362,0
6367,2023-01-20 10:50:09.142703,129167383,0,11.22007,6.252437,9.869678,0
6400,2023-01-20 10:50:09.242621,129267356,0,9.427848,6.603279,8.067049,0
6430,2023-01-20 10:50:09.342724,129367639,0,7.974701,5.822211,12.0594,0
6463,2023-01-20 10:50:09.442433,129467975,0,10.39724,5.173578,11.12519,0
6495,2023-01-20 10:50:09.541280,129568041,0,10.3047,7.540375,11.24514,0
6531,2023-01-20 10:50:09.640564,129668051,0,8.772002,9.147747,8.812324,0
6561,2023-01-20 10:50:09.740544,129768032,0,8.256701,7.665247,8.240122,0
6595,2023-01-20 10:50:09.840604,129868102,0,7.662864,7.309469,10.83108,0
6626,2023-01-20 10:50:09.940537,129968057,0,6.849797,9.61667,9.872451,0
6659,2023-01-20 10:50:10.040548,130068071,0,7.393639,8.628364,11.1999,0
6691,2023-01-20 10:50:10.140631,130168129,0,7.191512,9.765999,12.09825,0
6724,2023-01-20 10:50:10.240456,130268044,0,8.008296,9.728044,11.0924,0
6754,2023-01-20 10:50:10.340292,130368138,0,6.397512,7.562489,7.654164,0
6787,2023-01-20 10:50:10.440051,130468063,0,12.08206,6.632309,10.67132,0
6819,2023-01-20 10:50:10.540043,130568082,0,9.578312,9.431253,14.69544,0
6855,2023-01-20 10:50:10.640046,130668108,0,9.826954,7.62388,12.37942,0
6885,2023-01-20 10:50:10.739992,130768072,0,8.90485,9.296548,15.49893,0
6919,2023-01-20 10:50:10.840019,130868145,0,6.630343,8.861515,16.07273,0
6949,2023-01-20 10:50:10.939876,130968091,0,5.166855,6.904543,11.11602,0
6982,2023-01-20 10:50:11.039877,131068111,0,4.254412,5.516618,8.356329,0
7014,2023-01-20 10:50:11.140046,131168193,0,7.024197,7.746644,9.733562,0
7048,2023-01-20 10:50:11.239980,131268078,0,6.313548,6.662048,8.380258,0
7078,2023-01-20 10:50:11.339986,131368091,0,7.901326,9.980145,13.4978,0
7111,2023-01-20 10:50:11.439966,131468073,0,8.034811,11.06298,12.39689,0
7142,2023-01-20 10:50:11.539980,131568081,0,7.6728,7.35686,8.890672,0
7178,2023-01-20 10:50:11.640004,131668101,0,7.635587,10.30804,17.25587,0
7208,2023-01-20 10:50:11.739978,131768076,0,9.081763,9.257748,14.85904,0
7242,2023-01-20 10:50:11.840008,131868136,0,8.803632,8.490164,8.515304,0
7272,2023-01-20 10:50:11.939872,131968075,0,11.71884,6.195061,5.185965,0
7305,2023-01-20 10:50:12.039893,132068109,0,13.76244,6.075616,3.593203,0
7337,2023-01-20 10:50:12.140074,132168209,0,13.13855,5.438593,4.424166,0
7370,2023-01-20 10:50:12.239998,132268085,0,10.3893,7.017114,15.03397,0
7400,2023-01-20 10:50:12.340009,132368100,0,10.8965,5.666934,9.35084,0
7433,2023-01-20 10:50:12.439969,132468065,0,8.474147,8.644173,12.88596,0
7465,2023-01-20 10:50:12.539974,132568078,0,5.933798,8.223026,11.64733,0
7501,2023-01-20 10:50:12.639999,132668103,0,5.313851,6.323987,8.359714,0
7531,2023-01-20 10:50:12.739975,132768068,0,8.079882,8.349751,7.766134,0
7565,2023-01-20 10:50:12.839974,132868090,0,9.681767,7.484606,7.349748,0
7596,2023-01-20 10:50:12.939905,132968095,0,12.06476,6.809813,7.402865,0
7629,2023-01-20 10:50:13.039881,133068086,0,10.52415,7.347538,9.819206,0
7661,2023-01-20 10:50:13.140090,133168220,0,10.4519,6.613679,6.959996,0
7694,2023-01-20 10:50:13.239981,133268068,0,7.573496,7.831772,10.17729,0
7724,2023-01-20 10:50:13.339997,133368087,0,7.552548,9.485007,12.31505,0
7757,2023-01-20 10:50:13.439978,133468070,0,5.764035,7.767128,13.38309,0
7789,2023-01-20 10:50:13.539994,133568085,0,5.69716,7.720787,10.7547,0
7825,2023-01-20 10:50:13.640008,133668100,0,7.151901,8.206599,8.996378,0
7855,2023-01-20 10:50:13.739980,133768073,0,8.021092,9.083741,11.14167,0
7889,2023-01-20 10:50:13.839987,133868114,0,13.02156,9.53525,9.903041,0
7921,2023-01-20 10:50:13.939873,133968083,0,11.20778,9.416538,12.80713,0
7954,2023-01-20 10:50:14.039876,134068107,0,8.698416,8.007636,8.98045,0
7986,2023-01-20 10:50:14.140049,134168206,0,11.72598,8.736957,9.216833,0
8019,2023-01-20 10:50:14.239955,134268065,0,13.46629,8.168624,11.10975,0
8049,2023-01-20 10:50:14.339998,134368100,0,10.92784,6.529825,8.949174,0
8082,2023-01-20 10:50:14.439983,134468081,0,7.105808,7.907788,11.09029,0
8115,2023-01-20 10:50:14.539975,134568073,0,7.223424,10.02282,9.602538,0
8151,2023-01-20 10:50:14.639998,134668096,0,9.086343,7.111207,11.17229,0
8181,2023-01-20 10:50:14.740010,134768108,0,12.22594,7.909612,11.34613,0
8215,2023-01-20 10:50:14.839973,134868105,0,9.91094,7.113501,9.557412,0
8245,2023-01-20 10:50:14.939871,134968086,0,7.170933,6.513781,8.620384,0
8278,2023-01-20 10:50:15.039858,135068098,0,7.741778,7.239884,10.53562,0
8310,2023-01-20 10:50:15.139972,135168147,0,9.818319,8.363195,10.18055,0
8343,2023-01-20 10:50:15.239946,135268074,0,10.83694,7.93774,9.333901,0
8373,2023-01-20 10:50:15.339997,135368105,0,7.320588,6.654325,7.774742,0
8406,2023-01-20 10:50:15.440016,135468113,0,7.38203,7.616455,11.76205,0
8438,2023-01-20 10:50:15.539974,135568074,0,9.329915,9.081811,12.21027,0
8474,2023-01-20 10:50:15.640002,135668103,0,10.21938,8.34096,13.43085,0
8504,2023-01-20 10:50:15.739985,135768083,0,9.657925,6.337427,11.30807,0
8538,2023-01-20 10:50:15.839996,135868105,0,8.140462,8.538308,8.133052,0
8568,2023-01-20 10:50:15.939965,135968105,0,6.004884,8.13599,10.4746,0
8601,2023-01-20 10:50:16.039960,136068107,0,6.0099,9.011929,15.46895,0
8633,2023-01-20 10:50:16.140003,136168119,0,6.229933,8.413544,14.06585,0
8666,2023-01-20 10:50:16.239956,136268075,0,7.320271,8.88858,11.72269,0
8696,2023-01-20 10:50:16.339905,136368078,0,6.544626,8.034351,14.58608,0
8729,2023-01-20 10:50:16.439889,136468072,0,6.520782,6.959605,10.29996,0
8761,2023-01-20 10:50:16.539992,136568117,0,9.293181,4.888937,10.52064,0
8797,2023-01-20 10:50:16.640001,136668092,0,7.468622,8.978687,9.592587,0
8827,2023-01-20 10:50:16.739981,136768075,0,8.776217,6.488919,8.773155,0
8861,2023-01-20 10:50:16.839986,136868090,0,6.388159,6.879616,10.83674,0
8891,2023-01-20 10:50:16.939945,136968073,0,8.018569,7.659339,12.1409,0
8924,2023-01-20 10:50:17.039950,137068081,0,9.617753,5.162547,10.21076,0
8956,2023-01-20 10:50:17.140011,137168113,0,7.347651,5.965743,9.08735,0
8989,2023-01-20 10:50:17.240033,137268121,0,9.211475,6.17795,7.594741,0
9019,2023-01-20 10:50:17.340023,137368120,0,8.15768,7.406386,13.01804,0
9052,2023-01-20 10:50:17.439980,137468077,0,8.034964,7.377639,10.15459,0
9084,2023-01-20 10:50:17.539983,137568070,0,8.415176,7.48405,9.494002,0
9120,2023-01-20 10:50:17.640063,137668143,0,12.79042,6.030111,7.243512,0
9150,2023-01-20 10:50:17.740001,137768083,0,11.52597,6.242702,10.62368,0
9184,2023-01-20 10:50:17.836452,137868098,0,14.12154,5.776366,8.433602,0
9214,2023-01-20 10:50:17.927523,137968075,0,11.34883,6.738898,6.913501,0
9248,2023-01-20 10:50:18.022702,138068128,0,8.70965,6.232243,7.299767,0
9280,2023-01-20 10:50:18.133463,138168094,0,7.213514,7.484781,7.419664,0
9313,2023-01-20 10:50:18.239944,138268074,0,5.633521,7.017611,13.24751,0
9343,2023-01-20 10:50:18.340055,138368144,0,7.548105,7.415395,15.22099,0
9376,2023-01-20 10:50:18.436443,138468067,0,9.22435,6.557166,10.3111,0
9408,2023-01-20 10:50:18.527548,138568069,0,9.484667,8.70215,7.427244,0
9444,2023-01-20 10:50:18.620493,138668097,0,9.578649,8.07865,6.921021,0
9474,2023-01-20 10:50:18.720451,138768089,0,13.29531,7.926757,7.199705,0
9508,2023-01-20 10:50:18.820408,138868080,0,9.043324,6.215327,5.930455,0
9540,2023-01-20 10:50:18.920369,138968077,0,10.6405,7.088775,5.233926,0
9573,2023-01-20 10:50:19.020399,139068129,0,10.89696,8.229745,6.585068,0
9605,2023-01-20 10:50:19.120407,139168101,0,9.2022,8.154185,6.512152,0
9638,2023-01-20 10:50:19.220397,139268068,0,8.999195,8.670806,12.73774,0
9668,2023-01-20 10:50:19.320394,139368091,0,8.279837,7.918767,9.396152,0
9701,2023-01-20 10:50:19.420369,139468097,0,11.47397,7.586918,10.2746,0
9733,2023-01-20 10:50:19.520307,139568088,0,12.22261,6.905653,8.690086,0
9769,2023-01-20 10:50:19.620277,139668101,0,10.35395,6.185971,8.688885,0
9799,2023-01-20 10:50:19.720242,139768068,0,10.30557,8.17499,10.04961,0
9833,2023-01-20 10:50:19.820246,139868077,0,9.756469,8.905989,10.16827,0
9863,2023-01-20 10:50:19.920234,139968083,0,11.04513,8.620617,11.05858,0
9896,2023-01-20 10:50:20.020331,140068191,0,15.03546,8.788469,12.00636,0
9928,2023-01-20 10:50:20.120260,140168110,0,10.78902,7.233853,10.43393,0
9961,2023-01-20 10:50:20.220241,140268070,0,12.65464,10.07882,10.26759,0
9994,2023-01-20 10:50:20.320319,140368084,0,13.06832,6.671529,8.922239,0
10027,2023-01-20 10:50:20.420335,140468050,0,10.43468,8.819738,13.35393,0
10059,2023-01-20 10:50:20.520338,140568057,0,9.168756,10.28021,12.77989,0
10095,2023-01-20 10:50:20.620408,140668123,0,9.515095,10.60339,11.33019,0
10125,2023-01-20 10:50:20.720378,140768055,0,9.570556,11.27551,10.69312,0
10159,2023-01-20 10:50:20.820407,140868078,0,8.29507,11.12412,10.47184,0
10189,2023-01-20 10:50:20.920264,140968054,0,15.51052,9.900582,10.27839,0
10222,2023-01-20 10:50:21.020203,141068077,0,10.5269,10.10612,13.21407,0
10254,2023-01-20 10:50:21.120252,141168070,0,14.07706,9.102144,10.31623,0
10287,2023-01-20 10:50:21.220321,141268100,0,9.419271,10.48535,12.37854,0
10317,2023-01-20 10:50:21.320325,141368128,0,11.37535,8.4958,8.481391,0
10350,2023-01-20 10:50:21.420232,141468048,0,10.2916,9.128902,8.253944,0
10382,2023-01-20 10:50:21.520281,141568061,0,11.3341,9.498301,9.42827,0
10418,2023-01-20 10:50:21.620307,141668071,0,13.26147,9.299747,10.23596,0
10448,2023-01-20 10:50:21.720237,141768062,0,12.45357,10.75091,13.08684,0
10482,2023-01-20 10:50:21.820204,141868081,0,11.49773,10.17828,12.15168,0
10512,2023-01-20 10:50:21.920214,141968104,0,10.60614,8.367928,12.45036,0
10545,2023-01-20 10:50:22.020184,142068075,0,11.08659,8.091769,12.24544,0
10577,2023-01-20 10:50:22.120246,142168086,0,11.70267,9.456038,12.26738,0
10610,2023-01-20 10:50:22.220252,142268059,0,12.26238,8.763855,13.54088,0
10640,2023-01-20 10:50:22.320254,142368096,0,10.35192,9.607152,11.75756,0
10673,2023-01-20 10:50:22.420189,142468050,0,9.976322,9.353997,13.08092,0
10705,2023-01-20 10:50:22.520238,142568052,0,11.66095,8.503114,9.502333,0
10741,2023-01-20 10:50:22.620343,142668124,0,10.19629,9.012637,10.88136,0
10771,2023-01-20 10:50:22.720258,142768055,0,11.46644,7.967422,9.668898,0
10805,2023-01-20 10:50:22.820250,142868067,0,9.183977,8.357495,9.85244,0
10835,2023-01-20 10:50:22.920224,142968073,0,11.27084,7.581275,8.351971,0
10868,2023-01-20 10:50:23.020228,143068092,0,12.47732,7.723916,10.79882,0
10901,2023-01-20 10:50:23.120312,143168125,0,11.292,9.510248,9.361075,0
10934,2023-01-20 10:50:23.220321,143268099,0,12.86725,11.94693,11.9664,0
10964,2023-01-20 10:50:23.320280,143368087,0,14.63102,11.50613,15.36507,0
10997,2023-01-20 10:50:23.420221,143468048,0,16.11088,10.12153,15.42169,0
11029,2023-01-20 10:50:23.520244,143568057,0,17.85859,9.641448,14.55323,0
11065,2023-01-20 10:50:23.620291,143668095,0,16.60265,9.414936,15.0406,0
11095,2023-01-20 10:50:23.720234,143768052,0,12.91723,10.81654,12.89349,0
11129,2023-01-20 10:50:23.820255,143868087,0,14.40448,9.270525,11.50468,0
11162,2023-01-20 10:50:23.920265,143968114,0,12.98393,10.7684,12.65947,0
11195,2023-01-20 10:50:24.020227,144068077,0,15.51877,9.223165,12.90087,0
11227,2023-01-20 10:50:24.120290,144168078,0,13.27496,12.54538,14.66863,0
11260,2023-01-20 10:50:24.220294,144268046,0,11.51521,10.31772,12.20217,0
11290,2023-01-20 10:50:24.320255,144368069,0,16.0012,9.975975,12.6322,0
11323,2023-01-20 10:50:24.420195,144468046,0,12.444,10.38544,13.05156,0
11356,2023-01-20 10:50:24.520317,144568102,0,13.45554,11.01419,11.29782,0
11393,2023-01-20 10:50:24.620321,144668070,0,17.89306,10.72935,12.48226,0
11423,2023-01-20 10:50:24.720222,144768052,0,16.51897,13.19448,14.5648,0
11457,2023-01-20 10:50:24.820221,144868116,0,16.76885,12.26868,16.60492,0
11488,2023-01-20 10:50:24.920181,144968075,0,16.22058,10.18602,12.50532,0
11521,2023-01-20 10:50:25.020194,145068082,0,12.39575,9.465635,12.96498,0
11553,2023-01-20 10:50:25.120252,145168111,0,12.3218,8.757619,10.07718,0
11587,2023-01-20 10:50:25.220243,145268080,0,12.42891,9.118268,13.23498,0
11617,2023-01-20 10:50:25.320245,145368088,0,12.59716,10.21625,13.63508,0
11650,2023-01-20 10:50:25.420235,145468080,0,12.37781,8.917933,9.664848,0
11682,2023-01-20 10:50:25.520308,145568140,0,14.07413,8.528742,7.730564,0
11718,2023-01-20 10:50:25.620281,145668105,0,15.67873,9.777859,10.23413,0
11748,2023-01-20 10:50:25.720239,145768075,0,13.98018,11.57979,8.620708,0
11781,2023-01-20 10:50:25.820280,145868131,0,14.582,10.20352,10.45572,0
11813,2023-01-20 10:50:25.920200,145968075,0,13.28693,9.14376,10.46959,0
11846,2023-01-20 10:50:26.020200,146068086,0,15.88693,10.5553,13.22635,0
11878,2023-01-20 10:50:26.120251,146168100,0,14.31188,11.75198,13.61597,0
11911,2023-01-20 10:50:26.220241,146268067,0,14.21966,11.03414,13.74706,0
11941,2023-01-20 10:50:26.320214,146368076,0,14.97597,11.3643,14.00542,0
11974,2023-01-20 10:50:26.420203,146468088,0,14.55237,10.25499,13.94067,0
12006,2023-01-20 10:50:26.520235,146568090,0,13.14958,10.65185,13.80533,0
12042,2023-01-20 10:50:26.620274,146668106,0,13.8646,8.781651,10.28137,0
12072,2023-01-20 10:50:26.720249,146768086,0,12.74704,10.66748,14.09912,0
12105,2023-01-20 10:50:26.820315,146868161,0,11.73765,9.081223,11.49452,0
12136,2023-01-20 10:50:26.920207,146968077,0,18.99317,9.826654,13.55771,0
12169,2023-01-20 10:50:27.020346,147068234,0,13.28322,11.05021,17.90176,0
12201,2023-01-20 10:50:27.120232,147168111,0,9.839024,12.7138,21.31829,0
12234,2023-01-20 10:50:27.220205,147268073,0,10.95556,13.40173,19.85138,0
12264,2023-01-20 10:50:27.320271,147368125,0,15.11547,11.64776,14.7056,0
12297,2023-01-20 10:50:27.418442,147468101,0,17.31989,10.82466,11.73218,0
12329,2023-01-20 10:50:27.509480,147568111,0,13.27448,9.280477,10.00024,0
12365,2023-01-20 10:50:27.600705,147668256,0,12.24052,9.464997,13.24213,0
12395,2023-01-20 10:50:27.700521,147768080,0,15.10561,10.70845,12.53871,0
12428,2023-01-20 10:50:27.800680,147868247,0,12.79463,8.21063,11.8439,0
12460,2023-01-20 10:50:27.900442,147968072,0,16.30692,11.73916,15.03935,0
12493,2023-01-20 10:50:28.000674,148068368,0,13.18403,9.680473,14.07631,0
12525,2023-01-20 10:50:28.100426,148168095,0,14.67362,11.72086,11.29389,0
12559,2023-01-20 10:50:28.200682,148268326,0,15.70593,9.344308,12.03281,0
12589,2023-01-20 10:50:28.300495,148368114,0,11.13383,12.29742,14.77032,0
12622,2023-01-20 10:50:28.400757,148468276,0,11.88874,10.56381,11.72224,0
12654,2023-01-20 10:50:28.511497,148568075,0,15.98076,10.15603,13.13641,0
12690,2023-01-20 10:50:28.618446,148668104,0,17.36581,9.354386,14.04692,0
12720,2023-01-20 10:50:28.709449,148768107,0,16.38331,10.6968,11.0438,0
12753,2023-01-20 10:50:28.800666,148868281,0,18.08247,9.928351,12.55191,0
12786,2023-01-20 10:50:28.900357,148968086,0,13.20429,11.71344,16.34618,0
12819,2023-01-20 10:50:29.000608,149068450,0,15.64085,11.34579,13.08822,0
12851,2023-01-20 10:50:29.100335,149168123,0,17.21053,9.992004,12.46435,0
12885,2023-01-20 10:50:29.200660,149268394,0,16.96878,9.369864,13.14965,0
12915,2023-01-20 10:50:29.300301,149368100,0,17.13313,8.817588,13.45173,0
12948,2023-01-20 10:50:29.400600,149468464,0,18.75147,9.268456,15.13039,0
12980,2023-01-20 10:50:29.500221,149568065,0,19.05958,10.28734,14.93988,0
13016,2023-01-20 10:50:29.600620,149668445,0,19.34508,7.357991,13.71253,0
13046,2023-01-20 10:50:29.700245,149768079,0,14.53948,11.1429,16.35497,0
13079,2023-01-20 10:50:29.800603,149868446,0,10.43198,8.666599,14.26519,0
13110,2023-01-20 10:50:29.900247,149968113,0,9.090376,9.325054,14.2444,0
13143,2023-01-20 10:50:30.000616,150068504,0,9.055749,8.572889,10.94921,0
13175,2023-01-20 10:50:30.100255,150168109,0,8.167954,8.434972,8.64288,0
13208,2023-01-20 10:50:30.200599,150268419,0,11.07791,8.173745,14.88686,0
13238,2023-01-20 10:50:30.300291,150368110,0,10.63064,10.04011,12.03496,0
13271,2023-01-20 10:50:30.400610,150468428,0,11.95592,9.101105,10.81514,0
13303,2023-01-20 10:50:30.500256,150568079,0,12.91275,6.955084,7.498593,0
13339,2023-01-20 10:50:30.600621,150668450,0,10.78895,6.204617,9.305619,0
13370,2023-01-20 10:50:30.700239,150768070,0,11.69369,6.530032,9.063814,0
13403,2023-01-20 10:50:30.800591,150868424,0,12.99447,5.359688,7.591186,0
13434,2023-01-20 10:50:30.900212,150968079,0,11.00282,9.605029,14.59317,0
13467,2023-01-20 10:50:31.000612,151068511,0,10.09756,8.459165,14.191,0
13499,2023-01-20 10:50:31.100399,151168211,0,7.537358,9.035019,13.97232,0
13532,2023-01-20 10:50:31.200656,151268380,0,8.703787,9.252971,15.46979,0
13562,2023-01-20 10:50:31.300343,151368117,0,9.692304,8.754387,13.87586,0
13595,2023-01-20 10:50:31.400598,151468422,0,9.701367,10.34893,14.31441,0
13627,2023-01-20 10:50:31.500250,151568094,0,11.38714,9.549117,13.28765,0
13662,2023-01-20 10:50:31.600618,151668481,0,11.70381,9.020948,11.5863,0
13693,2023-01-20 10:50:31.700212,151768062,0,10.53464,11.17584,13.34297,0
13726,2023-01-20 10:50:31.800594,151868431,0,8.84332,9.407649,10.85518,0
13758,2023-01-20 10:50:31.900259,151968119,0,6.566878,9.069654,8.874116,0
13791,2023-01-20 10:50:32.000607,152068490,0,5.694209,9.801435,8.966024,0
13823,2023-01-20 10:50:32.100239,152168095,0,7.293936,8.557368,9.608089,0
13856,2023-01-20 10:50:32.200601,152268430,0,6.524621,10.62573,10.9039,0
13886,2023-01-20 10:50:32.300287,152368110,0,6.879038,9.91222,11.75309,0
13919,2023-01-20 10:50:32.400600,152468416,0,6.806056,8.91933,10.05153,0
13951,2023-01-20 10:50:32.500235,152568076,0,5.311943,9.323525,7.699149,0
13986,2023-01-20 10:50:32.600613,152668479,0,6.641691,6.554191,11.70754,0
14017,2023-01-20 10:50:32.700212,152768064,0,6.131338,7.034446,10.19496,0
14050,2023-01-20 10:50:32.800596,152868435,0,6.61389,7.964004,8.447846,0
14081,2023-01-20 10:50:32.900253,152968113,0,8.248697,7.480855,5.847054,0
14114,2023-01-20 10:50:33.000607,153068488,0,11.57136,8.131656,12.97313,0
14146,2023-01-20 10:50:33.100257,153168110,0,9.810648,8.654975,9.795202,0
14179,2023-01-20 10:50:33.200594,153268419,0,13.72053,7.757877,11.21802,0
14210,2023-01-20 10:50:33.300298,153368119,0,11.71549,7.602178,7.917636,0
14243,2023-01-20 10:50:33.400601,153468418,0,10.07448,9.126707,14.71131,0
14276,2023-01-20 10:50:33.500264,153568086,0,7.077291,10.69151,17.52228,0
14312,2023-01-20 10:50:33.600614,153668440,0,9.479656,7.268571,11.087,0
14343,2023-01-20 10:50:33.700234,153768067,0,8.440285,5.9709,8.041814,0
14376,2023-01-20 10:50:33.800586,153868425,0,8.306388,7.324785,9.043658,0
14409,2023-01-20 10:50:33.900244,153968110,0,8.617998,6.189587,8.217655,0
14442,2023-01-20 10:50:34.000586,154068478,0,9.742273,6.129556,11.63385,0
14474,2023-01-20 10:50:34.100218,154168096,0,7.162224,6.532484,8.906087,0
14507,2023-01-20 10:50:34.200613,154268477,0,8.014898,5.576257,11.03729,0
14537,2023-01-20 10:50:34.300257,154368097,0,6.618432,8.747756,9.574323,0
14570,2023-01-20 10:50:34.400593,154468409,0,7.365859,8.877522,10.18889,0
14603,2023-01-20 10:50:34.500280,154568059,0,9.231614,5.903317,6.880238,0
14637,2023-01-20 10:50:34.600688,154668432,0,10.29019,8.600735,14.24487,0
14669,2023-01-20 10:50:34.700280,154768072,0,7.705698,7.230406,9.32704,0
14702,2023-01-20 10:50:34.800593,154868434,0,12.96913,9.334661,12.90348,0
14735,2023-01-20 10:50:34.900219,154968093,0,8.38594,8.936695,12.53508,0
14768,2023-01-20 10:50:35.000616,155068522,0,9.693401,7.167351,8.735089,0
14800,2023-01-20 10:50:35.100324,155168145,0,11.9244,6.131715,10.47854,0
14833,2023-01-20 10:50:35.200665,155268401,0,11.09216,9.688364,12.72061,0
14863,2023-01-20 10:50:35.300339,155368077,0,12.15216,8.390994,10.77067,0
14896,2023-01-20 10:50:35.400656,155468397,0,11.72622,9.779157,14.2229,0
14928,2023-01-20 10:50:35.500333,155568073,0,9.428522,10.40008,13.62502,0
14963,2023-01-20 10:50:35.600688,155668427,0,6.677061,9.838888,13.22013,0
14994,2023-01-20 10:50:35.700335,155768095,0,10.88066,8.966913,11.93289,0
15027,2023-01-20 10:50:35.800628,155868408,0,10.01364,7.337258,9.187041,0
15058,2023-01-20 10:50:35.900229,155968050,0,7.600408,7.730418,8.892701,0
15091,2023-01-20 10:50:36.000597,156068459,0,5.578381,7.383265,10.8955,0
15123,2023-01-20 10:50:36.100275,156168079,0,5.800703,6.872205,8.467176,0
15156,2023-01-20 10:50:36.200664,156268410,0,11.31266,6.309261,8.709782,0
15186,2023-01-20 10:50:36.300308,156368103,0,13.93574,7.353355,10.53224,0
15219,2023-01-20 10:50:36.400599,156468441,0,8.89452,8.950847,11.89415,0
15251,2023-01-20 10:50:36.500276,156568062,0,10.79167,7.722239,9.945212,0
15286,2023-01-20 10:50:36.600684,156668414,0,14.89684,8.858426,12.72268,0
15317,2023-01-20 10:50:36.700318,156768044,0,16.0455,8.327187,15.21135,0
15350,2023-01-20 10:50:36.800696,156868419,0,16.18648,9.101423,14.94862,0
15381,2023-01-20 10:50:36.900244,156968059,0,17.08444,9.117019,13.78402,0
15414,2023-01-20 10:50:37.000602,157068509,0,19.71284,8.758715,12.52535,0
15446,2023-01-20 10:50:37.100255,157168083,0,18.30234,8.679684,14.69732,0
15479,2023-01-20 10:50:37.200658,157268406,0,17.39747,10.52764,15.58133,0
15509,2023-01-20 10:50:37.300342,157368087,0,13.42019,10.77236,14.79634,0
15542,2023-01-20 10:50:37.400654,157468397,0,11.1059,10.01495,12.48161,0
15574,2023-01-20 10:50:37.500332,157568059,0,9.357148,9.478672,9.918186,0
15609,2023-01-20 10:50:37.601023,157668735,0,7.940521,8.964224,9.26048,0
15640,2023-01-20 10:50:37.700365,157768092,0,10.0803,9.355068,8.550323,0
15673,2023-01-20 10:50:37.800675,157868417,0,14.74427,8.916603,11.59532,0
15705,2023-01-20 10:50:37.900265,157968050,0,13.5282,10.55625,12.08122,0
15738,2023-01-20 10:50:38.000591,158068477,0,15.71754,10.4336,13.62039,0
15770,2023-01-20 10:50:38.091235,158168078,0,14.17985,10.50904,11.61326,0
15801,2023-01-20 10:50:38.182518,158268380,0,15.52316,12.55536,14.12817,0
15833,2023-01-20 10:50:38.280517,158368104,0,12.7583,12.55855,12.3687,0
15865,2023-01-20 10:50:38.380866,158468451,0,14.67094,13.03824,13.01425,0
15899,2023-01-20 10:50:38.480454,158568064,0,12.87296,11.71092,12.14175,0
15933,2023-01-20 10:50:38.580918,158668560,0,13.40015,11.76889,11.2002,0
15966,2023-01-20 10:50:38.680390,158768042,0,15.15501,10.31537,13.90102,0
15997,2023-01-20 10:50:38.780669,158868326,0,13.7911,13.30091,15.63065,0
16032,2023-01-20 10:50:38.889233,158968061,0,11.93023,14.06408,14.38919,0
16065,2023-01-20 10:50:39.000530,159068449,0,13.70213,12.4861,12.20564,0
16097,2023-01-20 10:50:39.091196,159168080,0,13.20191,12.57755,12.94588,0
16129,2023-01-20 10:50:39.182421,159268326,0,15.76974,12.04739,13.26278,0
16161,2023-01-20 10:50:39.280391,159368062,0,12.22676,12.487,13.08845,0
16192,2023-01-20 10:50:39.380562,159468269,0,14.19577,13.74719,14.04363,0
16226,2023-01-20 10:50:39.480327,159568054,0,13.20885,12.6093,12.30072,0
16259,2023-01-20 10:50:39.580714,159668457,0,13.72274,14.68882,13.67811,0
16292,2023-01-20 10:50:39.680317,159768110,0,13.44981,13.53626,12.52443,0
16323,2023-01-20 10:50:39.780370,159868221,0,16.99197,11.73195,14.57138,0
16357,2023-01-20 10:50:39.880188,159968046,0,13.09665,14.00717,14.73125,0
16388,2023-01-20 10:50:39.980237,160068090,0,11.7728,10.76511,12.1346,0
16422,2023-01-20 10:50:40.080281,160168089,0,15.05825,11.29767,12.0608,0
16454,2023-01-20 10:50:40.180313,160268066,0,15.47041,12.96725,14.45834,0
16486,2023-01-20 10:50:40.280328,160368111,0,13.53491,13.77359,13.82136,0
16517,2023-01-20 10:50:40.380216,160468051,0,13.28758,12.6704,12.56156,0
16551,2023-01-20 10:50:40.480217,160568052,0,14.76501,12.66529,11.33512,0
16585,2023-01-20 10:50:40.580532,160668354,0,16.84649,11.56948,12.92709,0
16618,2023-01-20 10:50:40.680252,160768057,0,17.28511,12.75789,15.87404,0
16649,2023-01-20 10:50:40.780293,160868079,0,13.0035,15.23475,14.44985,0
16683,2023-01-20 10:50:40.880229,160968047,0,12.10953,11.55763,12.13715,0
16714,2023-01-20 10:50:40.980260,161068121,0,13.35965,11.26574,12.11611,0
16748,2023-01-20 10:50:41.080266,161168088,0,16.16274,12.84584,11.39653,0
16780,2023-01-20 10:50:41.180296,161268060,0,20.1976,10.14188,14.62088,0
16812,2023-01-20 10:50:41.280342,161368089,0,19.03474,11.28593,15.72542,0
16843,2023-01-20 10:50:41.380328,161468068,0,14.92233,13.42657,14.64693,0
16877,2023-01-20 10:50:41.480274,161568047,0,14.68992,12.92805,12.26848,0
16911,2023-01-20 10:50:41.580676,161668491,0,17.38769,13.58636,14.43769,0
16944,2023-01-20 10:50:41.680274,161768065,0,16.48327,12.41297,13.04646,0
16975,2023-01-20 10:50:41.780309,161868061,0,14.92719,12.11746,13.38696,0
17009,2023-01-20 10:50:41.880261,161968047,0,16.08029,12.8226,12.53822,0
17040,2023-01-20 10:50:41.980211,162068049,0,18.5877,11.98979,15.4081,0
17074,2023-01-20 10:50:42.080292,162168101,0,14.97465,12.54269,14.13886,0
17106,2023-01-20 10:50:42.180301,162268061,0,13.08198,10.60455,11.84366,0
17138,2023-01-20 10:50:42.280335,162368124,0,16.02727,13.65485,13.00472,0
17169,2023-01-20 10:50:42.380208,162468045,0,20.21965,11.0175,14.59053,0
17203,2023-01-20 10:50:42.480218,162568053,0,19.48974,12.42869,17.01687,0
17237,2023-01-20 10:50:42.580502,162668323,0,17.91456,14.11997,15.93831,0
17270,2023-01-20 10:50:42.680225,162768045,0,15.28552,16.54342,16.08235,0
17301,2023-01-20 10:50:42.780238,162868061,0,14.60008,13.36416,14.16356,0
17335,2023-01-20 10:50:42.880245,162968098,0,15.46243,14.35229,13.27638,0
17366,2023-01-20 10:50:42.980155,163068046,0,19.98529,10.69487,16.10087,0
17400,2023-01-20 10:50:43.080242,163168077,0,16.52991,14.43393,15.29969,0
17432,2023-01-20 10:50:43.180292,163268049,0,13.8435,13.39327,14.3571,0
17464,2023-01-20 10:50:43.280344,163368086,0,15.30891,14.08911,12.86217,0
17495,2023-01-20 10:50:43.380303,163468044,0,18.64371,12.89318,13.47596,0
17530,2023-01-20 10:50:43.480299,163568075,0,19.32529,12.05175,13.97279,0
17564,2023-01-20 10:50:43.580499,163668320,0,16.70514,16.47808,15.52968,0
17597,2023-01-20 10:50:43.680220,163768046,0,13.9072,13.98089,14.11615,0
17628,2023-01-20 10:50:43.780239,163868062,0,15.81839,13.25156,13.37296,0
17664,2023-01-20 10:50:43.880209,163968045,0,12.93498,16.59208,13.49674,0
17695,2023-01-20 10:50:43.980188,164068042,0,15.12154,12.68971,14.24773,0
17729,2023-01-20 10:50:44.080260,164168073,0,15.56815,10.60501,14.15207,0
17761,2023-01-20 10:50:44.180338,164268096,0,16.47923,10.35025,13.34218,0
17793,2023-01-20 10:50:44.280335,164368082,0,17.28815,13.05695,12.43512,0
17824,2023-01-20 10:50:44.380294,164468042,0,18.66089,12.20749,15.66418,0
17859,2023-01-20 10:50:44.480317,164568065,0,16.88731,12.29371,16.83133,0
17893,2023-01-20 10:50:44.580362,164668111,0,15.5818,14.70907,16.11908,0
17926,2023-01-20 10:50:44.680293,164768055,0,13.31198,13.3029,14.71339,0
17957,2023-01-20 10:50:44.780292,164868071,0,15.50984,13.17668,14.47889,0
17991,2023-01-20 10:50:44.880266,164968094,0,15.70944,12.4249,14.55788,0
18022,2023-01-20 10:50:44.980161,165068046,0,19.90725,12.46367,15.68773,0
18056,2023-01-20 10:50:45.080254,165168079,0,15.98311,16.92256,15.71928,0
18088,2023-01-20 10:50:45.180317,165268054,0,14.05726,15.4136,13.96756,0
18120,2023-01-20 10:50:45.280339,165368071,0,14.07029,15.84407,14.77377,0
18151,2023-01-20 10:50:45.380308,165468055,0,16.65044,14.23231,16.56819,0
18185,2023-01-20 10:50:45.480321,165568108,0,15.32544,11.48711,12.01689,0
18219,2023-01-20 10:50:45.580282,165668114,0,15.28596,9.750623,12.37638,0
18252,2023-01-20 10:50:45.680246,165768049,0,15.24169,8.97004,12.81526,0
18283,2023-01-20 10:50:45.780324,165868080,0,15.39806,11.40398,12.07951,0
18317,2023-01-20 10:50:45.880265,165968049,0,15.46671,14.69562,12.43779,0
18348,2023-01-20 10:50:45.980226,166068057,0,18.2792,13.14085,14.48536,0
18382,2023-01-20 10:50:46.080267,166168097,0,17.59114,15.84403,15.82785,0
18414,2023-01-20 10:50:46.180270,166268088,0,14.52424,13.19933,14.03456,0
18446,2023-01-20 10:50:46.280295,166368070,0,17.95649,13.37873,12.98601,0
18477,2023-01-20 10:50:46.380318,166468042,0,20.38369,10.07841,15.55771,0
18511,2023-01-20 10:50:46.480317,166568044,0,16.24653,13.70616,15.5961,0
18545,2023-01-20 10:50:46.580354,166668098,0,15.55367,14.62231,13.75251,0
18578,2023-01-20 10:50:46.680269,166768046,0,17.71322,14.02613,16.40244,0
18609,2023-01-20 10:50:46.780322,166868136,0,14.22114,14.22784,13.51281,0
18643,2023-01-20 10:50:46.873001,166968070,0,19.14593,11.79954,15.70924,0
18674,2023-01-20 10:50:46.963952,167068051,0,15.89302,13.0294,14.60845,0
18708,2023-01-20 10:50:47.060420,167168076,0,17.2655,13.60938,13.05158,0
18740,2023-01-20 10:50:47.160430,167268049,0,20.73097,10.54704,15.60363,0
18772,2023-01-20 10:50:47.260471,167368073,0,19.19218,12.05277,17.69708,0
18803,2023-01-20 10:50:47.360453,167468052,0,15.7755,13.67279,15.60723,0
18836,2023-01-20 10:50:47.460500,167568100,0,17.37657,14.86587,16.74509,0
18870,2023-01-20 10:50:47.560484,167668086,0,16.40455,12.23431,16.37809,0
18903,2023-01-20 10:50:47.660467,167768057,0,16.04335,12.20222,13.47115,0
18934,2023-01-20 10:50:47.760516,167868085,0,15.23809,10.03465,10.98437,0
18968,2023-01-20 10:50:47.860475,167968059,0,18.703,10.99453,14.46762,0
18999,2023-01-20 10:50:47.960419,168068043,0,17.23296,12.59009,13.37177,0
19033,2023-01-20 10:50:48.060487,168168127,0,17.37144,14.6596,15.57536,0
19065,2023-01-20 10:50:48.160405,168268045,0,15.02022,12.01865,13.08622,0
19097,2023-01-20 10:50:48.260441,168368101,0,20.09734,11.01008,15.10284,0
19128,2023-01-20 10:50:48.360352,168468045,0,15.6933,14.83497,15.48523,0
19162,2023-01-20 10:50:48.460334,168568048,0,15.28157,11.87843,14.01536,0
19197,2023-01-20 10:50:48.560384,168668111,0,16.62785,14.62438,13.59175,0
19230,2023-01-20 10:50:48.660311,168768063,0,21.02615,12.43926,14.75572,0
19261,2023-01-20 10:50:48.760343,168868130,0,20.13503,11.43766,16.87189,0
19297,2023-01-20 10:50:48.860528,168968357,0,15.38968,17.98086,16.3932,0
19328,2023-01-20 10:50:48.960164,169068041,0,13.70307,15.4722,15.30002,0
19362,2023-01-20 10:50:49.060229,169168096,0,14.56134,14.28951,13.72165,0
19394,2023-01-20 10:50:49.160233,169268051,0,17.84872,13.27435,14.17164,0
19426,2023-01-20 10:50:49.260304,169368067,0,14.48958,14.81527,13.49014,0
19457,2023-01-20 10:50:49.360398,169468101,0,15.24495,16.0958,13.9148,0
19491,2023-01-20 10:50:49.460314,169568042,0,14.67327,15.20035,12.94093,0
19525,2023-01-20 10:50:49.560281,169668091,0,14.95413,16.94204,13.93747,0
19558,2023-01-20 10:50:49.660233,169768046,0,15.34276,15.27527,12.71795,0
19589,2023-01-20 10:50:49.760306,169868068,0,15.74854,16.59954,14.04705,0
19623,2023-01-20 10:50:49.860279,169968052,0,14.75909,14.26499,13.74074,0
19654,2023-01-20 10:50:49.960242,170068066,0,18.15269,13.21359,15.04565,0
19688,2023-01-20 10:50:50.060272,170168122,0,14.71761,12.8668,14.28302,0
19762,2023-01-20 10:50:50.160184,170268043,0,17.13459,12.34509,12.7509,0
19794,2023-01-20 10:50:50.260236,170368072,0,16.86172,13.18386,14.88615,0
19825,2023-01-20 10:50:50.360256,170468049,0,15.50763,12.07096,12.77596,0
19859,2023-01-20 10:50:50.460280,170568045,0,16.11694,12.38061,15.04032,0
19893,2023-01-20 10:50:50.560337,170668085,0,17.51891,11.248,14.43518,0
19926,2023-01-20 10:50:50.660358,170768100,0,15.7529,11.68648,13.73417,0
19957,2023-01-20 10:50:50.760360,170868104,0,14.6264,12.09188,13.73783,0
19991,2023-01-20 10:50:50.860253,170968042,0,16.47283,11.90574,14.73674,0
20022,2023-01-20 10:50:50.960193,171068054,0,17.42691,11.66917,13.34259,0
20056,2023-01-20 10:50:51.060242,171168088,0,16.57241,12.72039,15.63852,0
20088,2023-01-20 10:50:51.160280,171268053,0,13.88132,10.968,13.3852,0
20120,2023-01-20 10:50:51.260357,171368103,0,15.72474,12.85434,12.41586,0
20151,2023-01-20 10:50:51.360337,171468086,0,18.80975,12.90965,11.85041,0
20185,2023-01-20 10:50:51.460275,171568054,0,20.98966,10.43754,15.85685,0
20219,2023-01-20 10:50:51.560271,171668097,0,16.81531,15.87823,15.26107,0
20252,2023-01-20 10:50:51.660233,171768043,0,14.90867,14.11384,13.67463,0
20283,2023-01-20 10:50:51.760329,171868080,0,18.56482,13.62741,15.48952,0
20317,2023-01-20 10:50:51.860297,171968065,0,15.59453,12.83265,14.36489,0
20348,2023-01-20 10:50:51.960254,172068087,0,17.43031,12.77646,13.87046,0
20382,2023-01-20 10:50:52.060291,172168151,0,15.45737,15.11936,15.00629,0
20414,2023-01-20 10:50:52.160196,172268059,0,15.73244,14.31266,13.03588,0
20446,2023-01-20 10:50:52.260230,172368068,0,15.99441,14.38514,14.37083,0
20477,2023-01-20 10:50:52.360246,172468040,0,17.49982,13.70372,13.70362,0
20511,2023-01-20 10:50:52.460291,172568058,0,16.14068,14.21497,15.00008,0
20545,2023-01-20 10:50:52.560356,172668106,0,16.88566,12.1473,13.42645,0
20578,2023-01-20 10:50:52.660329,172768105,0,15.8089,13.3516,13.83944,0
20609,2023-01-20 10:50:52.760262,172868092,0,19.44935,11.61064,15.60447,0
20643,2023-01-20 10:50:52.860194,172968047,0,14.9064,12.75105,14.12428,0
20674,2023-01-20 10:50:52.960185,173068040,0,18.82189,12.05815,14.57619,0
20708,2023-01-20 10:50:53.060259,173168091,0,19.45038,12.08135,16.31062,0
20740,2023-01-20 10:50:53.160252,173268045,0,15.39058,11.90135,14.17018,0
20772,2023-01-20 10:50:53.260300,173368069,0,16.26089,12.05958,11.6708,0
20803,2023-01-20 10:50:53.360342,173468097,0,19.96592,10.96496,15.6835,0
20837,2023-01-20 10:50:53.460264,173568043,0,14.99216,12.77235,15.8276,0
20871,2023-01-20 10:50:53.560277,173668105,0,12.63184,12.48914,13.92514,0
20905,2023-01-20 10:50:53.660265,173768074,0,12.93103,11.26613,13.5981,0
20936,2023-01-20 10:50:53.760341,173868086,0,14.3928,13.68688,12.20469,0
20972,2023-01-20 10:50:53.860615,173968376,0,19.34985,11.66784,15.19138,0
21003,2023-01-20 10:50:53.960255,174068083,0,19.43492,11.65643,16.63211,0
21037,2023-01-20 10:50:54.054757,174168098,0,14.88396,16.5915,15.10146,0
21069,2023-01-20 10:50:54.145602,174268046,0,14.64358,12.3406,14.47395,0
21101,2023-01-20 10:50:54.244675,174368068,0,16.27059,14.8468,13.41952,0
21132,2023-01-20 10:50:54.355859,174468050,0,20.42675,11.76177,15.42774,0
21167,2023-01-20 10:50:54.460303,174568057,0,17.80718,14.66488,16.30142,0
21201,2023-01-20 10:50:54.560333,174668105,0,14.52991,12.2751,13.77161,0
21234,2023-01-20 10:50:54.660313,174768113,0,17.00988,13.37958,12.93962,0
21265,2023-01-20 10:50:54.760254,174868088,0,20.16018,10.55416,15.80612,0
21299,2023-01-20 10:50:54.860191,174968044,0,21.22403,9.814083,17.43095,0
21330,2023-01-20 10:50:54.960179,175068041,0,16.8819,14.78735,16.80212,0
21364,2023-01-20 10:50:55.060244,175168082,0,14.00074,13.17744,15.22964,0
21396,2023-01-20 10:50:55.160267,175268061,0,13.8578,11.59677,13.93357,0
21428,2023-01-20 10:50:55.260310,175368116,0,13.15254,11.33386,14.06406,0
21459,2023-01-20 10:50:55.360201,175468057,0,12.78468,11.87666,14.44365,0
21493,2023-01-20 10:50:55.460213,175568051,0,14.47874,12.68846,12.70312,0
21527,2023-01-20 10:50:55.560319,175668095,0,18.73414,12.85361,14.89636,0
21560,2023-01-20 10:50:55.660332,175768080,0,14.73678,13.32486,14.28785,0
21591,2023-01-20 10:50:55.760337,175868080,0,16.22224,15.02828,13.04854,0
21625,2023-01-20 10:50:55.860296,175968070,0,18.15573,12.41276,15.97997,0
21656,2023-01-20 10:50:55.960265,176068095,0,14.38768,13.34479,14.31733,0
21690,2023-01-20 10:50:56.060220,176168079,0,17.03281,12.71232,13.05125,0
21722,2023-01-20 10:50:56.160184,176268054,0,19.03732,10.01896,16.48012,0
21754,2023-01-20 10:50:56.254725,176368075,0,20.10707,9.558207,17.35114,0
21785,2023-01-20 10:50:56.345606,176468048,0,20.63633,9.308635,17.61559,0
21819,2023-01-20 10:50:56.440161,176568052,0,18.64676,11.25653,17.59408,0
21853,2023-01-20 10:50:56.540235,176668145,0,14.47759,16.2008,15.80821,0
21886,2023-01-20 10:50:56.640130,176768051,0,15.4343,15.16172,14.30493,0
21917,2023-01-20 10:50:56.740170,176868090,0,17.5973,15.231,15.1139,0
21951,2023-01-20 10:50:56.840102,176968040,0,17.48318,13.00435,12.59593,0
21982,2023-01-20 10:50:56.940066,177068050,0,19.22053,11.53165,16.37538,0
22016,2023-01-20 10:50:57.044571,177168074,0,15.13447,12.97016,15.4514,0
22048,2023-01-20 10:50:57.155795,177268045,0,13.75361,9.997013,11.99719,0
22080,2023-01-20 10:50:57.254819,177368119,0,16.76876,11.21992,10.95292,0
22110,2023-01-20 10:50:57.345606,177468051,0,17.11814,12.99222,15.80397,0
22144,2023-01-20 10:50:57.440110,177568047,0,14.90288,11.98409,13.65728,0
22178,2023-01-20 10:50:57.540128,177668096,0,19.12209,10.38885,15.45617,0
22211,2023-01-20 10:50:57.640067,177768047,0,15.55974,12.54042,14.19657,0
22242,2023-01-20 10:50:57.740131,177868093,0,18.43372,12.09758,14.15981,0
22276,2023-01-20 10:50:57.840132,177968110,0,17.20662,14.60949,15.41479,0
22307,2023-01-20 10:50:57.940003,178068049,0,16.07446,12.56188,12.75815,0
22341,2023-01-20 10:50:58.039992,178168074,0,19.02816,11.80562,14.56155,0
22373,2023-01-20 10:50:58.139980,178268051,0,19.77575,11.72136,16.96959,0
22405,2023-01-20 10:50:58.240006,178368073,0,15.57063,14.53243,14.98499,0
22436,2023-01-20 10:50:58.339970,178468046,0,14.47498,12.67804,12.9525,0
22470,2023-01-20 10:50:58.439981,178568050,0,19.11065,11.37446,14.80666,0
22504,2023-01-20 10:50:58.540175,178668213,0,17.09617,15.00113,15.72479,0
22537,2023-01-20 10:50:58.640023,178768045,0,15.86744,13.18049,13.03068,0
22569,2023-01-20 10:50:58.740053,178868082,0,20.41323,11.42808,15.21671,0
22603,2023-01-20 10:50:58.840005,178968058,0,17.6823,14.82904,16.80462,0
22636,2023-01-20 10:50:58.939941,179068044,0,13.65481,12.96423,15.03465,0
22670,2023-01-20 10:50:59.039961,179168080,0,13.56631,11.26624,12.39031,0
22702,2023-01-20 10:50:59.140008,179268093,0,17.95777,13.25782,12.09024,0
22734,2023-01-20 10:50:59.239999,179368065,0,19.34382,13.39562,15.56849,0
22765,2023-01-20 10:50:59.340000,179468069,0,15.0334,13.43164,14.22599,0
22799,2023-01-20 10:50:59.439970,179568050,0,16.17036,13.90907,12.64165,0
22833,2023-01-20 10:50:59.539989,179668092,0,20.13116,11.05134,16.08035,0
22866,2023-01-20 10:50:59.639961,179768056,0,16.10034,15.44765,15.04721,0
22897,2023-01-20 10:50:59.740035,179868076,0,14.65641,13.20979,13.04825,0
22931,2023-01-20 10:50:59.840058,179968086,0,19.13111,11.99036,14.42348,0
22962,2023-01-20 10:50:59.939960,180068039,0,15.66507,14.30545,14.69184,0
22996,2023-01-20 10:51:00.039967,180168080,0,17.32092,13.79023,13.86643,0
23028,2023-01-20 10:51:00.139922,180268044,0,16.34506,14.53842,15.03938,0
23060,2023-01-20 10:51:00.239971,180368085,0,18.14389,13.69645,13.84657,0
23091,2023-01-20 10:51:00.339991,180468074,0,16.46426,14.49273,15.56538,0
23125,2023-01-20 10:51:00.440044,180568115,0,18.36786,13.18715,14.08105,0
23159,2023-01-20 10:51:00.539999,180668088,0,16.69503,15.88409,15.18958,0
23192,2023-01-20 10:51:00.639961,180768058,0,14.71129,12.62588,13.54819,0
23223,2023-01-20 10:51:00.739969,180868060,0,18.51693,13.1428,13.7504,0
23257,2023-01-20 10:51:00.839962,180968053,0,17.09758,16.59785,15.66336,0
23288,2023-01-20 10:51:00.939965,181068067,0,15.12137,14.39352,13.64507,0
23322,2023-01-20 10:51:01.039984,181168084,0,14.77013,15.05007,13.61348,0
23354,2023-01-20 10:51:01.140013,181268091,0,15.49148,16.10016,12.84268,0
23386,2023-01-20 10:51:01.240004,181368071,0,19.43276,13.4992,14.25577,0
23417,2023-01-20 10:51:01.339968,181468042,0,18.62193,15.31218,15.58243,0
23451,2023-01-20 10:51:01.439976,181568052,0,15.51833,13.43961,13.91455,0
23485,2023-01-20 10:51:01.540041,181668114,0,16.82286,14.66066,12.25422,0
23518,2023-01-20 10:51:01.639999,181768070,0,19.42463,12.46196,15.96115,0
23549,2023-01-20 10:51:01.740036,181868110,0,14.89188,14.24754,15.20716,0
23583,2023-01-20 10:51:01.839952,181968039,0,15.40406,14.1278,13.35355,0
23614,2023-01-20 10:51:01.939937,182068055,0,19.36009,12.60342,15.82737,0
23648,2023-01-20 10:51:02.039942,182168072,0,15.54786,13.24898,14.321,0
23680,2023-01-20 10:51:02.139923,182268039,0,19.03749,12.15155,14.83656,0
23712,2023-01-20 10:51:02.239974,182368073,0,16.46799,13.64514,15.28067,0
23743,2023-01-20 10:51:02.339986,182468061,0,16.6606,14.77122,13.55137,0
23777,2023-01-20 10:51:02.440028,182568097,0,19.11884,14.7834,15.1684,0
23811,2023-01-20 10:51:02.540014,182668103,0,15.59582,13.58578,14.59407,0
23844,2023-01-20 10:51:02.639951,182768056,0,18.18866,14.63185,13.70076,0
23875,2023-01-20 10:51:02.739944,182868060,0,17.81733,16.34735,15.79752,0
23909,2023-01-20 10:51:02.839930,182968049,0,15.81869,13.76149,14.25874,0
23940,2023-01-20 10:51:02.939943,183068052,0,16.79647,16.07207,13.87671,0
23974,2023-01-20 10:51:03.040034,183168132,0,19.04824,15.54693,16.0337,0
24006,2023-01-20 10:51:03.139957,183268042,0,15.82307,14.64939,15.13516,0
24038,2023-01-20 10:51:03.240015,183368095,0,20.28577,13.15686,16.06721,0
24069,2023-01-20 10:51:03.339964,183468053,0,15.70294,16.96307,15.75761,0
24103,2023-01-20 10:51:03.439951,183568040,0,15.20748,13.52404,13.3203,0
24137,2023-01-20 10:51:03.540033,183668110,0,19.34808,13.61587,15.07154,0
24170,2023-01-20 10:51:03.639976,183768044,0,16.81258,15.76581,15.64676,0
24201,2023-01-20 10:51:03.740041,183868105,0,15.32862,14.90653,13.52896,0
24235,2023-01-20 10:51:03.839991,183968067,0,20.47763,11.77494,15.74717,0
24269,2023-01-20 10:51:03.939914,184068024,0,16.14749,16.65844,15.49703,0
24303,2023-01-20 10:51:04.039957,184168073,0,14.92856,14.79582,13.3497,0
24335,2023-01-20 10:51:04.139973,184268055,0,18.57362,14.27389,15.52791,0
24367,2023-01-20 10:51:04.240016,184368079,0,16.00206,13.81672,14.27232,0
24398,2023-01-20 10:51:04.340036,184468101,0,17.12891,14.23431,14.03379,0
24434,2023-01-20 10:51:04.440054,184568129,0,16.87523,17.44804,15.72455,0
24469,2023-01-20 10:51:04.540008,184668106,0,15.92925,15.30703,14.21238,0
24502,2023-01-20 10:51:04.639939,184768050,0,19.56189,13.99312,15.61127,0
24533,2023-01-20 10:51:04.739956,184868066,0,16.14722,15.6314,14.80606,0
24566,2023-01-20 10:51:04.839946,184968054,0,18.11676,15.3543,14.96654,0
24598,2023-01-20 10:51:04.939950,185068055,0,16.84123,16.76393,14.87873,0
24632,2023-01-20 10:51:05.040027,185168124,0,15.45506,14.9619,14.08982,0
24664,2023-01-20 10:51:05.139978,185268059,0,18.90842,15.02239,15.11225,0
24696,2023-01-20 10:51:05.240006,185368085,0,15.98157,15.02349,14.09948,0
24727,2023-01-20 10:51:05.339963,185468059,0,19.24507,13.44482,14.94959,0
24761,2023-01-20 10:51:05.439945,185568047,0,16.3151,14.86093,15.20243,0
24795,2023-01-20 10:51:05.539999,185668093,0,15.44404,14.90683,13.14558,0
24828,2023-01-20 10:51:05.639991,185768075,0,19.40513,13.44538,16.10966,0
24859,2023-01-20 10:51:05.740033,185868106,0,15.47909,13.21452,14.15786,0
24892,2023-01-20 10:51:05.839979,185968051,0,18.96227,12.49778,13.87496,0
24924,2023-01-20 10:51:05.939956,186068042,0,16.07705,16.00353,15.74107,0
24958,2023-01-20 10:51:06.039980,186168071,0,14.82264,14.83743,13.83855,0
24990,2023-01-20 10:51:06.139969,186268050,0,19.91259,12.45638,16.00369,0
25022,2023-01-20 10:51:06.240028,186368109,0,15.85709,15.33505,15.02071,0
25053,2023-01-20 10:51:06.340007,186468103,0,15.77031,15.95182,12.75353,0
25087,2023-01-20 10:51:06.436404,186568067,0,19.91543,12.87905,16.10732,0
25121,2023-01-20 10:51:06.527530,186668099,0,15.64036,17.48431,16.00787,0
25154,2023-01-20 10:51:06.620375,186768045,0,15.78609,13.89364,14.06297,0
25185,2023-01-20 10:51:06.720307,186868070,0,19.37971,13.85445,14.18906,0
25267,2023-01-20 10:51:06.820241,186968062,0,15.72091,17.03108,15.21169,0
25299,2023-01-20 10:51:06.920301,187068043,0,16.24532,16.02966,12.82554,0
25333,2023-01-20 10:51:07.020445,187168113,0,16.95891,16.8497,15.1641,0
25365,2023-01-20 10:51:07.120459,187268076,0,14.45755,16.5607,13.0401,0
25397,2023-01-20 10:51:07.220505,187368084,0,15.38793,17.13448,13.59276,0
25428,2023-01-20 10:51:07.320466,187468056,0,15.05588,14.5331,13.03609,0
25462,2023-01-20 10:51:07.422675,187568061,0,13.82484,15.31973,12.6638,0
25496,2023-01-20 10:51:07.533533,187668095,0,17.68552,16.18073,14.12257,0
25529,2023-01-20 10:51:07.636451,187768086,0,21.62962,12.93298,16.9855,0
25560,2023-01-20 10:51:07.727535,187868075,0,19.48927,16.19041,14.84659,0
25593,2023-01-20 10:51:07.820410,187968043,0,21.83977,13.8969,15.8875,0
25625,2023-01-20 10:51:07.920362,188068038,0,17.50515,16.83721,16.02033,0
25659,2023-01-20 10:51:08.020371,188168084,0,15.63759,12.24669,14.65919,0
25691,2023-01-20 10:51:08.120338,188268064,0,17.38309,14.26536,13.90324,0
25723,2023-01-20 10:51:08.220329,188368065,0,17.56791,16.42018,15.72991,0
25754,2023-01-20 10:51:08.320364,188468099,0,15.42932,14.76917,14.40926,0
25788,2023-01-20 10:51:08.420306,188568051,0,19.45687,13.29121,15.7333,0
25822,2023-01-20 10:51:08.520279,188668084,0,15.77876,13.68806,14.88489,0
25855,2023-01-20 10:51:08.620195,188768047,0,18.25825,13.27471,15.14771,0
25886,2023-01-20 10:51:08.720223,188868072,0,15.38173,16.03229,15.14455,0
25918,2023-01-20 10:51:08.820208,188968054,0,15.03083,16.15885,13.93637,0
25953,2023-01-20 10:51:08.920257,189068102,0,20.24753,12.32891,16.53238,0
25987,2023-01-20 10:51:09.020241,189168078,0,15.67248,16.9837,15.35653,0
26019,2023-01-20 10:51:09.120238,189268042,0,15.00396,15.57935,13.66184,0
26051,2023-01-20 10:51:09.220309,189368083,0,19.96718,13.06914,14.75562,0
26082,2023-01-20 10:51:09.320302,189468062,0,16.50458,13.39894,14.68641,0
26116,2023-01-20 10:51:09.420301,189568049,0,18.55409,11.87063,15.18377,0
26150,2023-01-20 10:51:09.520357,189668105,0,15.50458,13.81632,15.02556,0
26183,2023-01-20 10:51:09.620353,189768100,0,17.92932,13.42287,14.09297,0
26214,2023-01-20 10:51:09.720329,189868070,0,18.24975,14.23653,16.39182,0
26247,2023-01-20 10:51:09.820303,189968052,0,14.92937,12.02845,13.35468,0
26279,2023-01-20 10:51:09.920233,190068042,0,19.27523,12.73872,13.64017,0
26313,2023-01-20 10:51:10.020244,190168097,0,19.16351,12.61026,16.74541,0
26345,2023-01-20 10:51:10.120234,190268069,0,15.8885,15.33779,16.4285,0
26377,2023-01-20 10:51:10.220295,190368108,0,13.84409,11.72579,13.72429,0
26408,2023-01-20 10:51:10.320273,190468050,0,14.67997,10.82231,12.45897,0
26442,2023-01-20 10:51:10.420294,190568053,0,15.28576,12.94423,12.33077,0
26476,2023-01-20 10:51:10.520277,190668088,0,17.89139,14.80418,13.06435,0
26508,2023-01-20 10:51:10.620193,190768048,0,21.16109,11.13203,17.00432,0
26540,2023-01-20 10:51:10.720205,190868071,0,17.39843,15.58493,15.55897,0
26573,2023-01-20 10:51:10.820412,190968284,0,15.07759,13.16686,13.45089,0
26605,2023-01-20 10:51:10.920259,191068117,0,19.48879,12.54954,15.65069,0
26639,2023-01-20 10:51:11.020252,191168097,0,15.9255,13.06943,14.15429,0
26671,2023-01-20 10:51:11.120225,191268058,0,16.96589,14.61571,13.18434,0
26703,2023-01-20 10:51:11.220252,191368077,0,21.27183,11.96235,14.54759,0
26734,2023-01-20 10:51:11.320226,191468062,0,20.7362,11.50708,17.32548,0
26768,2023-01-20 10:51:11.420211,191568046,0,18.90417,14.75188,17.36967,0
26802,2023-01-20 10:51:11.520360,191668144,0,16.39341,17.27374,16.6055,0
26834,2023-01-20 10:51:11.620307,191768051,0,14.89061,18.2969,15.75891,0
26866,2023-01-20 10:51:11.720314,191868058,0,13.56826,16.1231,14.22565,0
26899,2023-01-20 10:51:11.820530,191968286,0,13.75525,12.03227,12.8551,0
26931,2023-01-20 10:51:11.920236,192068052,0,15.55646,12.42516,12.6075,0
26965,2023-01-20 10:51:12.020218,192168077,0,16.7623,14.76086,11.79048,0
26997,2023-01-20 10:51:12.120233,192268072,0,20.34774,13.23743,13.88321,0
27029,2023-01-20 10:51:12.220322,192368137,0,19.41515,14.35635,16.21621,0
27060,2023-01-20 10:51:12.320286,192468063,0,15.35336,11.83565,13.61904,0
27094,2023-01-20 10:51:12.420295,192568052,0,18.75949,11.15153,14.37808,0
27128,2023-01-20 10:51:12.520282,192668096,0,15.3695,11.97335,14.292,0
27160,2023-01-20 10:51:12.620203,192768049,0,19.31554,10.93424,15.46629,0
27192,2023-01-20 10:51:12.720289,192868070,0,15.93285,13.01533,14.87464,0
27225,2023-01-20 10:51:12.820647,192968389,0,15.87139,11.78345,12.61804,0
27257,2023-01-20 10:51:12.920267,193068070,0,19.44985,12.09138,13.60716,0
27291,2023-01-20 10:51:13.020233,193168082,0,17.48884,14.06589,15.56568,0
27323,2023-01-20 10:51:13.120203,193268042,0,14.32414,13.00484,14.22516,0
27355,2023-01-20 10:51:13.220239,193368071,0,15.0473,10.68878,12.12037,0
27386,2023-01-20 10:51:13.320214,193468053,0,17.38992,13.63767,11.92827,0
27420,2023-01-20 10:51:13.420221,193568053,0,20.66191,13.0146,14.44672,0
27454,2023-01-20 10:51:13.520369,193668140,0,22.0925,10.95944,17.47368,0
27486,2023-01-20 10:51:13.620331,193768058,0,16.20884,13.65867,15.40717,0
27518,2023-01-20 10:51:13.720311,193868064,0,12.42564,11.99048,13.38035,0
27551,2023-01-20 10:51:13.820558,193968344,0,14.6538,10.53114,11.82251,0
27585,2023-01-20 10:51:13.920212,194068059,0,18.0055,12.58893,12.38619,0
27620,2023-01-20 10:51:14.020221,194168106,0,20.762,9.826118,16.09193,0
27652,2023-01-20 10:51:14.120282,194268111,0,18.73459,13.30256,16.26029,0
27684,2023-01-20 10:51:14.220302,194368082,0,14.13226,13.08778,14.16078,0
27715,2023-01-20 10:51:14.320290,194468050,0,14.98354,11.3988,12.88777,0
27750,2023-01-20 10:51:14.420288,194568045,0,19.26945,12.74345,12.82828,0
27784,2023-01-20 10:51:14.520286,194668103,0,21.00138,9.182328,17.25906,0
27816,2023-01-20 10:51:14.620213,194768063,0,19.33416,11.78633,17.14339,0
27848,2023-01-20 10:51:14.720284,194868065,0,16.53534,15.11087,15.61094,0
27881,2023-01-20 10:51:14.820657,194968395,0,13.4585,14.78772,14.11978,0
27913,2023-01-20 10:51:14.920269,195068066,0,13.3033,11.49569,12.21137,0
27947,2023-01-20 10:51:15.020230,195168072,0,15.62339,11.66895,11.93594,0
27979,2023-01-20 10:51:15.120216,195268049,0,19.03185,13.58676,11.64913,0
28011,2023-01-20 10:51:15.220259,195368076,0,21.53378,10.45805,15.95698,0
28042,2023-01-20 10:51:15.320268,195468044,0,18.84814,12.33804,17.44678,0
28076,2023-01-20 10:51:15.420355,195568099,0,16.72713,15.15071,16.59961,0
28110,2023-01-20 10:51:15.520351,195668095,0,14.27703,14.92179,15.35889,0
28142,2023-01-20 10:51:15.620302,195768049,0,12.82488,12.44538,13.77056,0
28174,2023-01-20 10:51:15.720309,195868071,0,13.62545,10.58324,12.1457,0
28207,2023-01-20 10:51:15.820498,195968284,0,15.10789,10.54542,11.76569,0
28239,2023-01-20 10:51:15.920204,196068045,0,17.78983,12.06092,11.29595,0
28273,2023-01-20 10:51:16.020265,196168136,0,19.74456,12.05301,13.38534,0
28305,2023-01-20 10:51:16.120281,196268085,0,21.31784,9.939423,17.4344,0
28337,2023-01-20 10:51:16.220386,196368135,0,20.3742,10.35538,17.66977,0
28368,2023-01-20 10:51:16.320316,196468058,0,16.17391,15.84978,16.11134,0
28402,2023-01-20 10:51:16.418526,196568100,0,14.41741,12.86562,13.60164,0
28436,2023-01-20 10:51:16.509498,196668094,0,19.75537,11.73684,15.49545,0
28468,2023-01-20 10:51:16.600681,196768253,0,14.95475,16.83585,14.74368,0
28500,2023-01-20 10:51:16.700499,196868115,0,15.20999,14.89017,13.82992,0
28533,2023-01-20 10:51:16.800792,196968452,0,18.46392,14.58978,15.26377,0
28565,2023-01-20 10:51:16.900295,197068046,0,15.33558,15.04777,15.05316,0
28599,2023-01-20 10:51:17.000620,197168463,0,19.02587,13.30459,15.92595,0
28631,2023-01-20 10:51:17.100291,197268060,0,15.35642,12.87428,14.58894,0
28663,2023-01-20 10:51:17.200683,197368379,0,19.17049,12.20795,14.58185,0
28694,2023-01-20 10:51:17.300386,197468059,0,16.00047,15.66242,15.19404,0
28728,2023-01-20 10:51:17.400665,197568315,0,14.68597,12.26988,13.18529,0
