LineNo,UTC_Approx,TimeUS,C,Roll,Pitch,Yaw,VN,VE,VD,dPD,PN,PE,PD,GX,GY,GZ,OH
367,2023-01-20 10:49:56.258497,116247435,0,-2.22,0.22,219.56,-0.02263117,-0.05524498,-0.02300413,-0.03492786,-0.8328345,-0.3641514,-0.6490828,-0.08,-0.16,0,733.43
957,2023-01-20 10:49:56.349466,116347450,0,-2.22,0.22,219.56,-0.02342067,-0.05674209,-0.0232251,-0.05381823,-0.830404,-0.3727289,-0.6537236,-0.08,-0.16,0,733.43
1115,2023-01-20 10:49:56.451414,116453964,0,-2.22,0.22,219.56,-0.02355558,-0.05749848,-0.0259636,-0.06168355,-0.8287176,-0.3806837,-0.6599636,-0.08,-0.16,0,733.43
1334,2023-01-20 10:49:56.564043,116565584,0,-2.22,0.22,219.56,-0.02537738,-0.05771517,-0.02780981,-0.06825386,-0.8282636,-0.3880846,-0.6664838,-0.08,-0.16,0,733.43
1552,2023-01-20 10:49:56.664880,116666343,0,-2.22,0.22,219.56,-0.02692939,-0.05930052,-0.03029707,-0.08027662,-0.8293458,-0.3964917,-0.674683,-0.08,-0.16,0,733.43
1874,2023-01-20 10:49:56.764500,116766338,0,-2.22,0.22,219.56,-0.02842018,-0.06161652,-0.03283044,-0.09347161,-0.8312737,-0.4055727,-0.6828759,-0.08,-0.16,0,733.43
1919,2023-01-20 10:49:56.864372,116866343,0,-2.22,0.22,219.55,-0.02853699,-0.06453757,-0.03504983,-0.09433383,-0.8302302,-0.4161433,-0.6920834,-0.08,-0.16,0,733.43
1967,2023-01-20 10:49:56.964368,116966340,0,-2.22,0.22,219.55,-0.02743241,-0.06774444,-0.03528036,-0.09398934,-0.8283219,-0.4268971,-0.7005243,-0.08,-0.16,0,733.43
2017,2023-01-20 10:49:57.064380,117066339,0,-2.22,0.22,219.55,-0.0246502,-0.06992977,-0.03810063,-0.09806953,-0.8242853,-0.4362289,-0.7106267,-0.08,-0.16,0,733.43
2061,2023-01-20 10:49:57.164406,117166344,0,-2.21,0.22,219.55,-0.02066288,-0.07084243,-0.04018411,-0.1045244,-0.8198606,-0.4446959,-0.7202107,-0.08,-0.16,0,733.43
2113,2023-01-20 10:49:57.271510,117266340,0,-2.21,0.22,219.55,-0.01527376,-0.06789022,-0.04320331,-0.09365687,-0.813089,-0.4483723,-0.7292143,-0.08,-0.16,0,733.43
2172,2023-01-20 10:49:57.382565,117366367,0,-2.21,0.23,219.55,-0.009398829,-0.06481873,-0.04459682,-0.08048043,-0.8059739,-0.4502469,-0.7368945,-0.08,-0.16,0,733.43
2228,2023-01-20 10:49:57.476613,117466341,0,-2.21,0.23,219.55,-0.0005893547,-0.06179043,-0.04749349,-0.09657318,-0.7957664,-0.4528073,-0.7474092,-0.08,-0.16,0,733.43
2287,2023-01-20 10:49:57.567525,117566339,0,-2.21,0.23,219.54,0.005404555,-0.05988283,-0.04861818,-0.09170812,-0.7869273,-0.4559528,-0.7558642,-0.08,-0.16,0,733.43
2341,2023-01-20 10:49:57.664269,117666343,0,-2.21,0.23,219.54,0.01289383,-0.05808854,-0.05133052,-0.09619169,-0.7778846,-0.4593209,-0.7659791,-0.08,-0.16,0,733.43
2400,2023-01-20 10:49:57.764245,117766341,0,-2.21,0.23,219.54,0.01924135,-0.05731583,-0.05279587,-0.09980141,-0.7692624,-0.4630058,-0.7753752,-0.08,-0.16,0,733.43
2444,2023-01-20 10:49:57.864220,117866343,0,-2.21,0.23,219.54,0.02485674,-0.05767038,-0.05416277,-0.1034978,-0.7615407,-0.4681031,-0.7862034,-0.08,-0.16,0,733.43
2489,2023-01-20 10:49:57.964187,117966340,0,-2.21,0.22,219.54,0.02945195,-0.05850834,-0.05672798,-0.1078219,-0.7546004,-0.4739306,-0.79611,-0.08,-0.16,0,733.43
2528,2023-01-20 10:49:58.064248,118066359,0,-2.21,0.22,219.54,0.0337956,-0.05887357,-0.05834373,-0.09155505,-0.7487621,-0.478917,-0.8051342,-0.08,-0.16,0,733.43
2568,2023-01-20 10:49:58.164315,118166343,0,-2.21,0.22,219.53,0.0371017,-0.05856252,-0.05923188,-0.07477721,-0.7434958,-0.4836585,-0.812546,-0.08,-0.16,0,733.43
2610,2023-01-20 10:49:58.264328,118266346,0,-2.22,0.22,219.53,0.04229639,-0.05731782,-0.06122066,-0.08561036,-0.7362378,-0.4877086,-0.8221784,-0.08,-0.16,0,733.43
2650,2023-01-20 10:49:58.364299,118366348,0,-2.21,0.23,219.52,0.04997434,-0.05593515,-0.06271531,-0.09651113,-0.7279478,-0.4917088,-0.8314248,-0.08,-0.16,0,733.43
2689,2023-01-20 10:49:58.464282,118466343,0,-2.21,0.22,219.51,0.05291939,-0.05838745,-0.06362752,-0.09901518,-0.7237719,-0.4999929,-0.8415546,-0.08,-0.16,0,733.43
2730,2023-01-20 10:49:58.564280,118566343,0,-2.21,0.22,219.52,0.04994804,-0.06515661,-0.0651248,-0.09671765,-0.7212974,-0.510218,-0.8505016,-0.08,-0.16,0,733.43
2770,2023-01-20 10:49:58.664277,118666358,0,-2.21,0.22,219.53,0.05443495,-0.06678367,-0.0670505,-0.09002475,-0.7159007,-0.5160888,-0.8596936,-0.08,-0.16,0,733.43
2811,2023-01-20 10:49:58.764239,118766347,0,-2.21,0.22,219.53,0.06192493,-0.06544361,-0.0681276,-0.08265712,-0.7089291,-0.5199459,-0.8677279,-0.08,-0.16,0,733.43
2855,2023-01-20 10:49:58.864246,118866362,0,-2.21,0.22,219.53,0.06327494,-0.06182866,-0.06889751,-0.06985208,-0.7058581,-0.5215098,-0.8750277,-0.08,-0.16,0,733.43
2894,2023-01-20 10:49:58.964232,118966347,0,-2.21,0.22,219.51,0.06198059,-0.05534559,-0.06910205,-0.05706948,-0.7041278,-0.5224524,-0.8809326,-0.08,-0.16,0,733.43
2933,2023-01-20 10:49:59.064260,119066357,0,-2.21,0.22,219.48,0.06723875,-0.04658229,-0.06994396,-0.06810418,-0.7002465,-0.5207576,-0.8889166,-0.08,-0.16,0,733.43
2972,2023-01-20 10:49:59.164279,119166350,0,-2.22,0.21,219.5,0.06193295,-0.04264847,-0.06903117,-0.07612824,-0.6949826,-0.5184913,-0.8963208,-0.08,-0.16,0,733.43
3013,2023-01-20 10:49:59.264288,119266350,0,-2.2,0.21,219.48,0.07099885,-0.04233303,-0.07186146,-0.07629414,-0.6865655,-0.5241886,-0.9041129,-0.08,-0.16,0,733.43
3052,2023-01-20 10:49:59.364301,119366364,0,-2.21,0.21,219.5,0.07348616,-0.04065249,-0.07147845,-0.06711879,-0.6766196,-0.5335766,-0.9105298,-0.08,-0.16,0,733.43
3092,2023-01-20 10:49:59.464283,119466350,0,-2.21,0.21,219.52,0.0834499,-0.05212331,-0.07114223,-0.05868364,-0.6674695,-0.5403186,-0.917181,-0.08,-0.16,0,733.43
3133,2023-01-20 10:49:59.564294,119566365,0,-2.22,0.2,219.49,0.08947223,-0.05990362,-0.07682136,-0.05531054,-0.6586205,-0.5458573,-0.9223962,-0.08,-0.16,0,733.43
3172,2023-01-20 10:49:59.664291,119666375,0,-2.21,0.21,219.49,0.09278683,-0.04505022,-0.07593465,-0.05393926,-0.6515533,-0.5500014,-0.928717,-0.08,-0.16,0,733.43
3213,2023-01-20 10:49:59.764251,119766353,0,-2.21,0.21,219.52,0.08918589,-0.05238932,-0.07459607,-0.05175036,-0.6450551,-0.5536937,-0.9339741,-0.08,-0.16,0,733.43
3252,2023-01-20 10:49:59.864240,119866352,0,-2.21,0.2,219.5,0.08677778,-0.06238125,-0.07773236,-0.0302939,-0.6416953,-0.5499544,-0.936923,-0.08,-0.16,0,733.43
3291,2023-01-20 10:49:59.964237,119966354,0,-2.22,0.2,219.49,0.08688848,-0.04283287,-0.07777854,-0.007050362,-0.6389567,-0.5437767,-0.9380639,-0.08,-0.16,0,733.43
3330,2023-01-20 10:50:00.064254,120066356,0,-2.22,0.2,219.51,0.08876553,-0.02782945,-0.07451708,0.01542407,-0.6331717,-0.5370764,-0.9374986,-0.08,-0.16,0,733.43
3370,2023-01-20 10:50:00.164280,120166355,0,-2.23,0.2,219.49,0.09405053,-0.0306772,-0.07071295,0.03164015,-0.6255721,-0.5312479,-0.9356146,-0.08,-0.16,0,733.43
3411,2023-01-20 10:50:00.264293,120266363,0,-2.23,0.19,219.46,0.09250176,-0.01211813,-0.07226944,0.03042177,-0.6227173,-0.5240792,-0.9335658,-0.08,-0.16,0,733.43
3450,2023-01-20 10:50:00.364270,120366348,0,-2.22,0.2,219.5,0.09102593,-0.01587977,-0.06677964,0.03250918,-0.6212267,-0.517249,-0.9312696,-0.08,-0.16,0,733.43
3490,2023-01-20 10:50:00.464283,120466359,0,-2.23,0.19,219.51,0.08572122,-0.02861856,-0.06906009,0.02157258,-0.623227,-0.5118957,-0.9296562,-0.08,-0.16,0,733.43
3530,2023-01-20 10:50:00.564280,120566349,0,-2.23,0.19,219.49,0.08032715,-0.0170012,-0.07082541,0.01331129,-0.6254635,-0.5080413,-0.9280178,-0.08,-0.16,0,733.43
3571,2023-01-20 10:50:00.664271,120666346,0,-2.23,0.19,219.5,0.0762276,0.00306371,-0.06749161,0.004311939,-0.6290742,-0.5043781,-0.9278606,-0.08,-0.16,0,733.43
3612,2023-01-20 10:50:00.764268,120766355,0,-2.24,0.18,219.48,0.07128993,-0.00305154,-0.06215046,0.0005308944,-0.6321115,-0.5014384,-0.9276835,-0.08,-0.16,0,733.43
3653,2023-01-20 10:50:00.864250,120866353,0,-2.25,0.18,219.47,0.06614505,-0.0007858252,-0.06587733,0.007440266,-0.6382894,-0.4936018,-0.9264167,-0.08,-0.16,0,733.43
3690,2023-01-20 10:50:00.964226,120966347,0,-2.24,0.19,219.49,0.06741954,0.00834957,-0.06319456,0.02304518,-0.6443766,-0.4843818,-0.9241973,-0.08,-0.16,0,733.43
3722,2023-01-20 10:50:01.064251,121066375,0,-2.25,0.18,219.51,0.05706969,0.0001062689,-0.06150465,0.01454963,-0.6503223,-0.4787893,-0.9236029,-0.08,-0.16,0,733.43
3753,2023-01-20 10:50:01.164248,121166365,0,-2.24,0.18,219.5,0.05037592,0.003860297,-0.06277212,0.004783621,-0.6548086,-0.4754573,-0.922752,-0.08,-0.16,0,733.43
3787,2023-01-20 10:50:01.264210,121266360,0,-2.25,0.17,219.49,0.04321525,0.01123869,-0.062681,0.004557114,-0.6558549,-0.4710712,-0.9222556,-0.08,-0.16,0,733.43
3818,2023-01-20 10:50:01.364148,121366352,0,-2.25,0.16,219.49,0.04709806,0.007152534,-0.06230055,0.007994693,-0.6546234,-0.4668306,-0.921078,-0.08,-0.16,0,733.43
3850,2023-01-20 10:50:01.464163,121466353,0,-2.2,0.14,219.47,0.05842431,0.005967269,-0.05983962,-0.001199862,-0.648855,-0.4636873,-0.9217792,-0.08,-0.16,0,733.43
3883,2023-01-20 10:50:01.564214,121566352,0,-2.2,0.22,219.47,0.03878261,0.02409677,-0.05858183,-0.01044946,-0.6409342,-0.4612717,-0.9222731,-0.08,-0.16,0,733.43
3916,2023-01-20 10:50:01.664229,121666348,0,-2.14,0.33,219.41,0.0284681,-0.04856827,-0.08053914,-0.0572731,-0.6384221,-0.4601465,-0.9264023,-0.08,-0.16,0,733.43
3949,2023-01-20 10:50:01.764239,121766356,0,-2.14,0.29,219.1,0.03322782,0.02821032,-0.06167331,-0.05678746,-0.6391698,-0.4605736,-0.9302796,-0.08,-0.16,0,733.43
3982,2023-01-20 10:50:01.864187,121866351,0,-1.99,0.41,219.97,0.01908335,0.02650742,-0.07859359,-0.06918662,-0.6458036,-0.4544369,-0.9352275,-0.08,-0.16,0,733.43
4014,2023-01-20 10:50:01.964107,121966347,0,-1.11,0.65,220.5,0.03466633,0.05585768,-0.1677164,-0.1427926,-0.6525103,-0.4460396,-0.9434947,-0.08,-0.16,0,733.43
4046,2023-01-20 10:50:02.064130,122066355,0,-0.36,0.86,220.72,0.04055775,0.05532436,-0.3913116,-0.3196324,-0.6557218,-0.4368232,-0.9643877,-0.08,-0.16,0,733.43
4077,2023-01-20 10:50:02.164194,122166353,0,0.35,0.74,220.74,0.05590925,0.03509939,-0.5421461,-0.4354708,-0.6547126,-0.4285013,-1.002754,-0.08,-0.16,0,733.43
4111,2023-01-20 10:50:02.264211,122266347,0,0.17,-0.12,220.62,0.07661546,0.04722354,-0.5053558,-0.3900134,-0.6538967,-0.4084243,-1.046764,-0.08,-0.16,0,733.43
4142,2023-01-20 10:50:02.364215,122366353,0,-0.07,-0.46,220.49,0.09338924,0.05484652,-0.4892796,-0.3795266,-0.6520193,-0.3894059,-1.087666,-0.08,-0.16,0,733.43
4174,2023-01-20 10:50:02.463957,122466351,0,0.28,-0.89,220.64,0.05656294,0.01259041,-0.437738,-0.3750026,-0.6520703,-0.3775203,-1.129614,-0.08,-0.16,0,733.43
4207,2023-01-20 10:50:02.563582,122566374,0,-0.16,-0.86,221.03,0.004275194,-0.0370649,-0.3642873,-0.3404893,-0.6527659,-0.3713295,-1.166013,-0.08,-0.16,0,733.43
4241,2023-01-20 10:50:02.663437,122666351,0,-0.47,-0.87,221.52,0.014761,-0.0143629,-0.2989053,-0.3227814,-0.6570359,-0.3721351,-1.200819,-0.08,-0.16,0,733.43
4273,2023-01-20 10:50:02.763489,122766365,0,-0.33,-0.49,222.02,-0.009812152,-0.04663396,-0.2093717,-0.2779247,-0.6623635,-0.3762772,-1.229334,-0.08,-0.16,0,733.43
4307,2023-01-20 10:50:02.863453,122866332,0,0.1,-0.05,222.33,0.003213026,-0.03763137,-0.1534027,-0.3395794,-0.6654652,-0.3686318,-1.269882,-0.08,-0.16,0.01,733.43
4338,2023-01-20 10:50:02.963446,122966350,0,0.3,-0.28,222.43,0.003587447,-0.03819243,-0.1500614,-0.4665495,-0.6673361,-0.358209,-1.308114,-0.08,-0.16,0.01,733.43
4371,2023-01-20 10:50:03.063464,123066378,0,0.51,-0.63,222.33,-0.03470282,-0.0513285,-0.1031772,-0.4832655,-0.6933899,-0.3390896,-1.356531,-0.08,-0.16,0.01,733.43
4401,2023-01-20 10:50:03.163459,123166375,0,1.06,-0.15,222.06,-0.01290207,-0.05478899,-0.1201047,-0.5590316,-0.7260348,-0.3204383,-1.403251,-0.08,-0.16,0.01,733.43
4436,2023-01-20 10:50:03.263447,123266360,0,1.48,0.57,221.82,0.002693551,-0.05756792,-0.1220376,-0.6180937,-0.7547835,-0.2890632,-1.465759,-0.08,-0.16,0.01,733.43
4466,2023-01-20 10:50:03.363447,123366355,0,1.85,0.91,221.92,0.02687989,-0.06594239,-0.1346377,-0.647082,-0.7769375,-0.2575435,-1.516631,-0.08,-0.16,0.01,733.43
4499,2023-01-20 10:50:03.463467,123466364,0,2.32,0.72,222.26,0.0328158,-0.09282784,-0.1048243,-0.4051188,-0.8016475,-0.2340632,-1.556368,-0.08,-0.16,0.01,733.43
4531,2023-01-20 10:50:03.563463,123566347,0,2.66,0.48,222.8,0.06345731,-0.0972499,-0.09602529,-0.2160923,-0.8216418,-0.2186993,-1.582651,-0.07,-0.16,0.01,733.43
4565,2023-01-20 10:50:03.663474,123666355,0,2.34,0.34,223.41,0.09833692,-0.07707935,-0.1960522,-0.1787213,-0.8406582,-0.2134983,-1.603681,-0.08,-0.16,0.01,733.43
4597,2023-01-20 10:50:03.763479,123766364,0,2.09,0.35,223.98,0.09885426,-0.1549092,-0.2552218,-0.1785101,-0.8537489,-0.2160604,-1.624629,-0.07,-0.16,0.01,733.43
4631,2023-01-20 10:50:03.863665,123866353,0,1.62,0.46,224.31,0.1494149,-0.1523329,-0.3560404,-0.2813577,-0.861244,-0.2323856,-1.657107,-0.08,-0.16,0.01,733.43
4663,2023-01-20 10:50:03.963980,123966357,0,1.01,0.63,224.53,0.1790186,-0.1191966,-0.5137908,-0.4767945,-0.8624462,-0.2548354,-1.698404,-0.08,-0.16,0.01,733.43
4696,2023-01-20 10:50:04.064140,124066362,0,0.09,0.67,224.35,0.1962631,-0.1474676,-0.5885608,-0.5897847,-0.846546,-0.2828883,-1.753739,-0.08,-0.16,0.01,733.43
4726,2023-01-20 10:50:04.164192,124166346,0,-1.74,0.84,223.85,0.1729494,-0.1531377,-0.5836631,-0.6144008,-0.8238278,-0.310807,-1.815533,-0.08,-0.16,0.01,733.43
4761,2023-01-20 10:50:04.264233,124266366,0,-3.62,0.76,223.37,0.1496229,-0.10424,-0.6355532,-0.6538163,-0.7921948,-0.3355897,-1.880106,-0.08,-0.16,0.01,733.43
4791,2023-01-20 10:50:04.364227,124366364,0,-4.73,-0.18,222.99,0.1042081,-0.07000415,-0.6019672,-0.6028571,-0.7610526,-0.3548816,-1.943599,-0.08,-0.16,0.01,733.43
4824,2023-01-20 10:50:04.464185,124466350,0,-5.34,-0.72,222.67,0.06895927,-0.007504058,-0.5970803,-0.567681,-0.7356986,-0.3628469,-2.002394,-0.08,-0.16,0.01,733.43
4857,2023-01-20 10:50:04.564144,124566349,0,-4.54,-1.01,222.22,-0.01860823,0.02934303,-0.5874676,-0.5386897,-0.7184858,-0.363967,-2.055571,-0.08,-0.16,0.01,733.43
4891,2023-01-20 10:50:04.664165,124666357,0,-2.99,-0.81,221.8,-0.07361779,0.02441449,-0.5532284,-0.5165437,-0.6991082,-0.3665388,-2.10946,-0.08,-0.16,0.01,733.43
4923,2023-01-20 10:50:04.764212,124766361,0,-1.88,-0.7,221.13,-0.1016643,0.0646932,-0.5517859,-0.5484748,-0.6839803,-0.3690687,-2.164021,-0.08,-0.16,0.01,733.43
4957,2023-01-20 10:50:04.864187,124866351,0,-1.26,-0.56,220.26,-0.1084395,0.04895192,-0.5741182,-0.6276676,-0.6781645,-0.3802668,-2.225831,-0.08,-0.16,0.01,733.43
4987,2023-01-20 10:50:04.964149,124966361,0,-1.78,-0.3,219.96,-0.1293173,0.04419143,-0.6170662,-0.7239604,-0.6791888,-0.3931251,-2.292733,-0.08,-0.16,0.01,733.43
5020,2023-01-20 10:50:05.064161,125066359,0,-2.5,0,220.37,-0.1560582,0.0819698,-0.6583373,-0.7567257,-0.686058,-0.3962031,-2.361712,-0.08,-0.16,0.01,733.43
5050,2023-01-20 10:50:05.164199,125166348,0,-2.78,0.19,221.19,-0.1723039,0.08191741,-0.6448954,-0.7160265,-0.69768,-0.3928614,-2.42954,-0.08,-0.16,0.01,733.43
5085,2023-01-20 10:50:05.264224,125266359,0,-2.68,0.34,222.14,-0.1924461,0.1222879,-0.6250624,-0.6956194,-0.7146424,-0.3849176,-2.498652,-0.08,-0.16,0.01,733.43
5115,2023-01-20 10:50:05.364216,125366356,0,-2.26,0.48,222.75,-0.2337584,0.1467028,-0.664797,-0.7521595,-0.7360787,-0.3734256,-2.569741,-0.08,-0.16,0.01,733.43
5148,2023-01-20 10:50:05.464215,125466348,0,-1.41,0.89,222.99,-0.2688656,0.1432807,-0.6456988,-0.761187,-0.7551992,-0.3556252,-2.645111,-0.08,-0.16,0.01,733.43
5180,2023-01-20 10:50:05.564249,125566368,0,-1,0.9,222.71,-0.2977514,0.1597065,-0.6050029,-0.7372822,-0.7742034,-0.3351471,-2.718355,-0.08,-0.16,0.01,733.43
5215,2023-01-20 10:50:05.664237,125666350,0,-0.85,-0.11,222.15,-0.2694253,0.1611133,-0.5686444,-0.6960965,-0.7978292,-0.3213838,-2.789838,-0.08,-0.16,0.01,733.43
5247,2023-01-20 10:50:05.764243,125766353,0,-0.61,-1.16,221.34,-0.2949668,0.1338692,-0.5666867,-0.6863249,-0.8247228,-0.3118757,-2.85799,-0.08,-0.16,0.01,733.43
5281,2023-01-20 10:50:05.858431,125866372,0,-0.38,-2.06,220.4,-0.3399384,0.1056931,-0.5009331,-0.5942004,-0.8612326,-0.2939829,-2.920269,-0.08,-0.16,0.01,733.43
5311,2023-01-20 10:50:05.949344,125966358,0,0.23,-1.99,219.34,-0.3752709,0.08414006,-0.4930431,-0.5775719,-0.9028118,-0.2785068,-2.97923,-0.08,-0.16,0.01,733.43
5344,2023-01-20 10:50:06.044301,126066355,0,0.31,-1.87,218.18,-0.4019741,0.01509943,-0.4250348,-0.5366014,-0.9417877,-0.2720245,-3.038685,-0.08,-0.16,0.01,733.43
5374,2023-01-20 10:50:06.144339,126166357,0,0.62,-1.94,216.99,-0.4928603,-0.04906391,-0.4139377,-0.5904392,-0.9795741,-0.2740917,-3.097031,-0.08,-0.16,0.01,733.43
5409,2023-01-20 10:50:06.243805,126266351,0,0.56,-2.13,216.02,-0.5209301,-0.1074679,-0.3861346,-0.5788617,-1.017991,-0.2855383,-3.153085,-0.08,-0.16,0.01,733.43
5441,2023-01-20 10:50:06.342574,126366355,0,-0.08,-2.42,212.32,-0.5479593,-0.1658877,-0.3377076,-0.5554098,-1.058106,-0.3053345,-3.20811,-0.08,-0.16,0.01,733.43
5474,2023-01-20 10:50:06.441850,126466354,0,-1.05,-2.48,212.48,-0.6110311,-0.2305198,-0.2873432,-0.5136901,-1.095747,-0.3291316,-3.261197,-0.08,-0.16,0.01,733.43
5506,2023-01-20 10:50:06.541842,126566358,0,-2.5,-2.85,212.98,-0.6376466,-0.2546947,-0.1855695,-0.4484025,-1.136741,-0.3562351,-3.312184,-0.08,-0.16,0.01,733.43
5540,2023-01-20 10:50:06.641816,126666366,0,-2.91,-3.59,213.76,-0.7285919,-0.2745408,-0.1935056,-0.4918326,-1.199803,-0.3775996,-3.361886,-0.08,-0.16,0.01,733.43
5572,2023-01-20 10:50:06.741744,126766358,0,-2.44,-3.84,214.24,-0.8088457,-0.2818165,-0.1626443,-0.5005651,-1.280742,-0.3955144,-3.410961,-0.08,-0.16,0.01,733.43
5606,2023-01-20 10:50:06.841663,126866352,0,-1.35,-3.79,214.24,-0.9454154,-0.3311486,-0.1416134,-0.494144,-1.376766,-0.4179184,-3.456838,-0.08,-0.16,0.01,733.43
5636,2023-01-20 10:50:06.941588,126966367,0,0.13,-3.11,213.63,-1.03065,-0.3603866,-0.03666822,-0.3978493,-1.484354,-0.4452365,-3.497493,-0.08,-0.16,0.01,733.43
5669,2023-01-20 10:50:07.041525,127066363,0,0.5,-3.33,212.88,-1.074621,-0.4210345,0.02742585,-0.325272,-1.597501,-0.4784206,-3.531922,-0.08,-0.16,0.01,733.43
5699,2023-01-20 10:50:07.141493,127166349,0,0.47,-3.42,212.34,-1.139471,-0.4952594,0.07553482,-0.3027232,-1.714252,-0.5164267,-3.56282,-0.08,-0.16,0.01,733.43
5734,2023-01-20 10:50:07.241509,127266350,0,0.11,-3.55,212.08,-1.203548,-0.5452051,0.1290243,-0.2642278,-1.832663,-0.5658568,-3.591093,-0.08,-0.16,0.01,733.43
5764,2023-01-20 10:50:07.341577,127366355,0,-0.36,-3.47,212.17,-1.308622,-0.6059061,0.1960587,-0.2742062,-1.950468,-0.6264169,-3.618992,-0.08,-0.16,0.01,733.43
5797,2023-01-20 10:50:07.441568,127466345,0,-0.53,-2.95,212.34,-1.369487,-0.6375154,0.2014042,-0.2686433,-2.074542,-0.6881338,-3.642664,-0.08,-0.16,0.01,733.43
5829,2023-01-20 10:50:07.541490,127566353,0,-0.1,-2.43,212.54,-1.421468,-0.6915115,0.2770042,-0.1854478,-2.205846,-0.7511353,-3.662887,-0.08,-0.16,0.01,733.43
5863,2023-01-20 10:50:07.646106,127666349,0,-0.07,-2.17,212.68,-1.485316,-0.7228613,0.3298415,-0.09488338,-2.348697,-0.8149392,-3.677258,-0.08,-0.16,0.01,733.43
5895,2023-01-20 10:50:07.757380,127766350,0,0.15,-2.48,212.69,-1.549538,-0.7552108,0.3268073,-0.1055634,-2.502175,-0.8775644,-3.689199,-0.08,-0.16,0.01,733.43
5929,2023-01-20 10:50:07.856015,127866352,0,0.36,-3.14,212.75,-1.627443,-0.8136622,0.3195904,-0.08588535,-2.659339,-0.9406248,-3.698265,-0.08,-0.16,0.01,733.43
5960,2023-01-20 10:50:07.946816,127966367,0,0.41,-4.06,212.82,-1.69739,-0.8570296,0.3004668,-0.1081036,-2.820312,-1.005867,-3.707456,-0.08,-0.16,0.01,733.43
5994,2023-01-20 10:50:08.041395,128066351,0,0.67,-4.31,212.97,-1.746356,-0.899931,0.2431714,-0.1661533,-2.99105,-1.078324,-3.719132,-0.08,-0.16,0.01,733.43
6024,2023-01-20 10:50:08.141378,128166352,0,1.15,-3.77,213.19,-1.824458,-0.9805087,0.2770667,-0.1531116,-3.175699,-1.158941,-3.733826,-0.08,-0.16,0.01,733.43
6059,2023-01-20 10:50:08.241381,128266349,0,1.5,-2.77,213.58,-1.891746,-1.033085,0.264565,-0.1541347,-3.367907,-1.2486,-3.748645,-0.08,-0.16,0.01,733.43
6089,2023-01-20 10:50:08.341429,128366354,0,1.59,-1.18,214.34,-1.946529,-1.096608,0.2462668,-0.1951564,-3.564103,-1.344736,-3.766811,-0.08,-0.16,0.01,733.43
6122,2023-01-20 10:50:08.441443,128466347,0,1.55,-0.45,215.16,-1.956843,-1.131074,0.1933818,-0.2242717,-3.759705,-1.446421,-3.78574,-0.08,-0.16,0.01,733.43
6154,2023-01-20 10:50:08.541451,128566361,0,1.44,-0.63,215.68,-1.956532,-1.142461,0.1832336,-0.2177539,-3.950632,-1.550588,-3.804852,-0.08,-0.16,0.01,733.43
6188,2023-01-20 10:50:08.641444,128666362,0,1.42,-1.27,215.87,-1.952958,-1.185743,0.1497955,-0.2325283,-4.132606,-1.658503,-3.825121,-0.08,-0.16,0.01,733.43
6220,2023-01-20 10:50:08.741436,128766362,0,1.17,-1.92,215.83,-1.979397,-1.241677,0.1571905,-0.2557183,-4.306319,-1.772001,-3.84798,-0.08,-0.16,0.01,733.43
6254,2023-01-20 10:50:08.841466,128866356,0,0.8,-2.53,215.47,-1.997984,-1.297387,0.1748514,-0.2447005,-4.476501,-1.89368,-3.871888,-0.08,-0.16,0.01,733.43
6287,2023-01-20 10:50:08.941560,128966352,0,0.07,-2.6,214.96,-2.027169,-1.350532,0.1858385,-0.270143,-4.637395,-2.021954,-3.900279,-0.08,-0.16,0.01,733.43
6320,2023-01-20 10:50:09.041633,129066352,0,-0.83,-2.48,214.56,-2.058299,-1.378832,0.1444205,-0.2821745,-4.812924,-2.157522,-3.929392,-0.08,-0.16,0.01,733.43
6350,2023-01-20 10:50:09.141672,129166352,0,-1.31,-2.15,214.57,-2.114123,-1.400057,0.1066627,-0.3500273,-4.999995,-2.297653,-3.962438,-0.08,-0.16,0.01,733.43
6385,2023-01-20 10:50:09.241616,129266349,0,-1.34,-1.11,214.97,-2.122888,-1.405862,0.1357786,-0.3089962,-5.198822,-2.440081,-3.993508,-0.08,-0.16,0.01,733.43
6415,2023-01-20 10:50:09.341455,129366368,0,-1.33,-0.33,215.48,-2.152743,-1.392869,0.1194044,-0.3369157,-5.406525,-2.58199,-4.025538,-0.08,-0.16,0.01,733.43
6448,2023-01-20 10:50:09.441128,129466653,0,-1.09,1.44,216.13,-2.161407,-1.364131,0.1809963,-0.2716989,-5.622505,-2.721404,-4.063118,-0.08,-0.16,0.01,733.43
6480,2023-01-20 10:50:09.539901,129566645,0,-0.45,3.13,217,-2.13148,-1.298129,0.1876245,-0.2896496,-5.837507,-2.853015,-4.093099,-0.08,-0.16,0.01,733.43
6514,2023-01-20 10:50:09.639155,129666642,0,0.41,3.72,217.93,-2.061779,-1.243321,0.2349733,-0.2617191,-6.038197,-2.972503,-4.121478,-0.08,-0.16,0.01,733.43
6546,2023-01-20 10:50:09.739153,129766641,0,0.72,3.47,218.55,-1.980208,-1.201036,0.2493387,-0.2802262,-6.229224,-3.084278,-4.148262,-0.08,-0.16,0.01,733.43
6580,2023-01-20 10:50:09.839145,129866643,0,0.89,2.95,218.99,-1.945444,-1.179251,0.2884432,-0.2430075,-6.416694,-3.200522,-4.172822,-0.08,-0.16,0.01,733.43
6611,2023-01-20 10:50:09.939125,129966645,0,0.92,2.74,219.22,-1.860618,-1.147425,0.3449197,-0.2072949,-6.598639,-3.318618,-4.193881,-0.08,-0.16,0.01,733.43
6644,2023-01-20 10:50:10.039118,130066641,0,0.57,2.68,219.34,-1.820207,-1.117361,0.3823817,-0.1648791,-6.775706,-3.42964,-4.212042,-0.08,-0.16,0.01,733.43
6674,2023-01-20 10:50:10.139156,130166654,0,0.49,2.16,219.57,-1.782026,-1.099681,0.4026956,-0.1727181,-6.946966,-3.534083,-4.229203,-0.08,-0.16,0.01,733.43
6709,2023-01-20 10:50:10.239059,130266643,0,0.46,1.5,219.77,-1.715993,-1.061971,0.4211622,-0.1705308,-7.114852,-3.637182,-4.246885,-0.08,-0.16,0.01,733.43
6739,2023-01-20 10:50:10.338820,130366663,0,0.3,1.06,219.86,-1.701964,-1.050816,0.4494162,-0.166029,-7.283323,-3.741136,-4.262687,-0.08,-0.16,0.01,733.43
6772,2023-01-20 10:50:10.438985,130466996,0,0.46,1.16,219.79,-1.669299,-1.063027,0.4970149,-0.132583,-7.4435,-3.844767,-4.279103,-0.08,-0.16,0.01,733.43
6804,2023-01-20 10:50:10.538961,130567000,0,0.73,2.01,219.55,-1.619114,-1.030081,0.477099,-0.2112865,-7.590981,-3.947076,-4.296932,-0.08,-0.16,0.01,733.43
6838,2023-01-20 10:50:10.638947,130667009,0,1,4.71,219.29,-1.542314,-1.000376,0.5426512,-0.1238225,-7.729216,-4.045821,-4.310343,-0.08,-0.16,0.01,733.43
6870,2023-01-20 10:50:10.738916,130766996,0,1.17,8.3,218.9,-1.415325,-0.9434043,0.5786273,-0.09762502,-7.849888,-4.137683,-4.322495,-0.08,-0.16,0.01,733.43
6904,2023-01-20 10:50:10.838875,130867000,0,0.97,10.82,218.53,-1.268818,-0.8622514,0.6047367,-0.04531718,-7.965062,-4.224369,-4.330682,-0.08,-0.16,0.01,733.43
6934,2023-01-20 10:50:10.938795,130967009,0,0.58,10.95,218.24,-1.122888,-0.7600368,0.5916287,-0.06983243,-8.075053,-4.30605,-4.336989,-0.08,-0.16,0.01,733.43
6967,2023-01-20 10:50:11.038765,131067000,0,0.43,9.23,217.76,-0.9949525,-0.6722194,0.5604312,-0.06455582,-8.178283,-4.382902,-4.342267,-0.08,-0.16,0.01,733.43
6997,2023-01-20 10:50:11.138863,131167011,0,0.34,7.72,217.14,-0.8805602,-0.6063557,0.5798851,-0.05492844,-8.277059,-4.456757,-4.348119,-0.08,-0.16,0.01,733.43
7033,2023-01-20 10:50:11.238911,131267009,0,0.49,7.08,216.54,-0.7681351,-0.5641802,0.5912732,-0.04094234,-8.362536,-4.525304,-4.355623,-0.08,-0.16,0.01,733.43
7063,2023-01-20 10:50:11.338917,131367022,0,0.02,6.56,215.86,-0.6645323,-0.5351996,0.603487,-0.09169418,-8.437576,-4.592312,-4.367096,-0.08,-0.16,0.01,733.43
7096,2023-01-20 10:50:11.438890,131466996,0,-0.22,6.36,215.34,-0.6037572,-0.4631319,0.5788723,-0.1364568,-8.507037,-4.650965,-4.37869,-0.08,-0.16,0.01,733.43
7127,2023-01-20 10:50:11.538900,131567001,0,-0.46,6.09,214.98,-0.5436211,-0.4339322,0.6100128,-0.1458112,-8.572001,-4.700844,-4.391984,-0.08,-0.16,0.01,733.43
7161,2023-01-20 10:50:11.638903,131667000,0,-0.8,5.67,214.71,-0.4701173,-0.363608,0.5461891,-0.1851662,-8.632154,-4.74755,-4.40569,-0.08,-0.16,0.01,733.43
7193,2023-01-20 10:50:11.738897,131766995,0,-0.46,5.12,214.72,-0.4214225,-0.3497262,0.6027797,-0.1676261,-8.688575,-4.79267,-4.421884,-0.08,-0.16,0.01,733.43
7227,2023-01-20 10:50:11.838873,131867000,0,-0.71,5.05,214.9,-0.4062223,-0.3290237,0.5792553,-0.1761286,-8.737868,-4.834181,-4.437853,-0.08,-0.16,0.01,733.43
7257,2023-01-20 10:50:11.938798,131967000,0,-0.87,5.35,215.29,-0.3116639,-0.2778663,0.5987325,-0.1799409,-8.781845,-4.874838,-4.454434,-0.08,-0.16,0.01,733.43
7290,2023-01-20 10:50:12.038782,132066999,0,-1.1,5.5,216.05,-0.3122799,-0.276914,0.6275607,-0.1106792,-8.823599,-4.914661,-4.466397,-0.08,-0.16,0.01,733.43
7320,2023-01-20 10:50:12.138860,132166996,0,-1.29,5.5,217.08,-0.2394241,-0.2310197,0.6370443,-0.129033,-8.864294,-4.954445,-4.477339,-0.08,-0.16,0.01,733.43
7355,2023-01-20 10:50:12.238930,132267017,0,-1.6,5.36,218.05,-0.2343463,-0.2078334,0.7064929,-0.02998574,-8.901016,-4.990652,-4.484939,-0.08,-0.16,0.01,733.43
7385,2023-01-20 10:50:12.338937,132367028,0,-2.14,4.95,218.4,-0.2030468,-0.1424382,0.6935802,-0.08521125,-8.936127,-5.024498,-4.492284,-0.08,-0.16,0.01,733.43
7418,2023-01-20 10:50:12.438899,132466995,0,-2.15,4.94,218.35,-0.1684953,-0.1006328,0.7174572,-0.05094652,-8.964431,-5.051948,-4.496898,-0.08,-0.16,0.01,733.43
7450,2023-01-20 10:50:12.538897,132567000,0,-1.84,4.96,218.2,-0.1838156,-0.038082,0.7364175,-0.04763134,-8.987184,-5.07498,-4.499512,-0.08,-0.16,0.01,733.43
7484,2023-01-20 10:50:12.638896,132667000,0,-1.69,4.76,218.25,-0.1401499,0.01648879,0.7690368,0.04480368,-9.009078,-5.08672,-4.497066,-0.08,-0.16,0.01,733.43
7516,2023-01-20 10:50:12.738907,132767000,0,-1.36,3.89,218.48,-0.1485742,0.0635713,0.7701913,0.05030831,-9.031612,-5.087899,-4.491862,-0.08,-0.16,0.01,733.43
7550,2023-01-20 10:50:12.838894,132867010,0,-0.82,3.34,218.06,-0.1134002,0.1109027,0.7749534,0.1073759,-9.046102,-5.0861,-4.481859,-0.08,-0.16,0.01,733.43
7580,2023-01-20 10:50:12.938811,132967000,0,-0.22,3.21,216.98,-0.1238243,0.1137003,0.7634236,0.07405413,-9.051252,-5.084463,-4.474569,-0.08,-0.16,0.01,733.43
7614,2023-01-20 10:50:13.038794,133066999,0,0,3.33,215.8,-0.08754757,0.1520496,0.7676253,0.08430461,-9.057012,-5.077123,-4.469176,-0.08,-0.16,0.01,733.43
7644,2023-01-20 10:50:13.138870,133167001,0,0.01,2.98,214.65,-0.07127498,0.166326,0.7198291,0.0001196307,-9.063805,-5.064705,-4.465361,-0.08,-0.16,0.01,733.43
7679,2023-01-20 10:50:13.238913,133267000,0,-0.27,2.68,213.31,-0.08626204,0.1551691,0.7030905,0.0009273407,-9.065847,-5.057724,-4.463426,-0.08,-0.16,0.01,733.43
7709,2023-01-20 10:50:13.338930,133367020,0,-0.61,2.51,211.54,-0.09076767,0.1890872,0.741857,-0.00221644,-9.062334,-5.058714,-4.463823,-0.08,-0.16,0.01,733.43
7742,2023-01-20 10:50:13.438904,133466996,0,-0.77,2.69,209.73,-0.07612205,0.1861074,0.7125183,-0.01127388,-9.063922,-5.055038,-4.465575,-0.08,-0.16,0.01,733.43
7774,2023-01-20 10:50:13.538909,133567000,0,-0.05,3.04,208.31,-0.08523418,0.1827281,0.7195652,-0.03876701,-9.071129,-5.048256,-4.469211,-0.08,-0.16,0.01,733.43
7808,2023-01-20 10:50:13.638903,133666995,0,0.63,3.14,207.33,-0.08308355,0.1936563,0.7056119,-0.0002018567,-9.074116,-5.03883,-4.467699,-0.09,-0.16,0.01,733.43
7840,2023-01-20 10:50:13.738905,133766998,0,0.68,2.99,206.94,-0.08932357,0.1588371,0.7161855,0.03973549,-9.070928,-5.029211,-4.463022,-0.09,-0.16,0.01,733.43
7874,2023-01-20 10:50:13.838880,133867006,0,-0.09,2.66,207.33,-0.07519999,0.1625602,0.6772654,0.1175045,-9.069462,-5.010872,-4.450819,-0.09,-0.16,0.01,733.43
7906,2023-01-20 10:50:13.938794,133967003,0,0.44,1.92,207.87,-0.09895001,0.1538429,0.659519,0.1178031,-9.070008,-4.982981,-4.436472,-0.08,-0.16,0.01,733.43
7939,2023-01-20 10:50:14.038783,134067014,0,1.38,1.79,208.38,-0.06338736,0.1125551,0.6773109,0.1813309,-9.074052,-4.958508,-4.422189,-0.09,-0.16,0.01,733.43
7969,2023-01-20 10:50:14.138845,134167003,0,1.47,2.58,209.06,-0.09010621,0.08583187,0.6832694,0.1746487,-9.081301,-4.936674,-4.406552,-0.09,-0.16,0.01,733.43
8004,2023-01-20 10:50:14.238890,134267000,0,1.75,3.06,209.71,-0.1180396,0.06310799,0.719056,0.2842326,-9.088529,-4.925159,-4.380218,-0.09,-0.16,0.01,733.43
8034,2023-01-20 10:50:14.338900,134367002,0,1.3,3.39,210.15,-0.09883805,0.03597882,0.7533423,0.3372063,-9.094785,-4.924296,-4.351318,-0.09,-0.16,0.01,733.43
8067,2023-01-20 10:50:14.438902,134467000,0,0.84,3.83,210.43,-0.0760874,0.04390016,0.7185021,0.3018386,-9.099969,-4.924446,-4.323496,-0.09,-0.16,0.01,733.43
8100,2023-01-20 10:50:14.538904,134567002,0,0.64,3.95,210.8,-0.1075968,0.02991461,0.699792,0.2245863,-9.103727,-4.925715,-4.301558,-0.09,-0.16,0.01,733.43
8134,2023-01-20 10:50:14.638898,134666996,0,0.62,4.11,211.31,-0.08406285,0.0312497,0.6591121,0.1619153,-9.113736,-4.921668,-4.285029,-0.09,-0.16,0.01,733.43
8166,2023-01-20 10:50:14.738902,134767000,0,0.93,4.04,211.96,-0.1126115,-0.00117415,0.650067,0.1092345,-9.131198,-4.911595,-4.272533,-0.09,-0.16,0.01,733.43
8200,2023-01-20 10:50:14.838871,134867002,0,1.03,4.47,212.35,-0.09124527,0.01360568,0.5846611,0.03515856,-9.141841,-4.908491,-4.265801,-0.09,-0.16,0.01,733.43
8230,2023-01-20 10:50:14.938800,134967015,0,0.8,4.8,212.26,-0.07559165,0.01796031,0.5613195,-0.0335502,-9.144699,-4.91308,-4.265692,-0.09,-0.16,0.01,733.43
8263,2023-01-20 10:50:15.038758,135066999,0,0.78,4.74,211.95,-0.06975785,-0.01395024,0.5773348,0.00362207,-9.148608,-4.912849,-4.266477,-0.09,-0.16,0.01,733.43
8293,2023-01-20 10:50:15.138827,135167003,0,1.11,4.69,211.45,-0.04246025,0.01647841,0.5133433,-0.09234907,-9.152981,-4.908121,-4.273113,-0.09,-0.16,0.01,733.43
8328,2023-01-20 10:50:15.238872,135267000,0,1.1,5.19,211.21,-0.02087823,0.004080687,0.4992493,-0.1004694,-9.155587,-4.903331,-4.281675,-0.09,-0.16,0.01,733.43
8358,2023-01-20 10:50:15.338903,135367011,0,1.02,5.06,211.14,-0.01909637,-0.02828842,0.5351263,-0.08943976,-9.156281,-4.898074,-4.289751,-0.09,-0.16,0.01,733.43
8391,2023-01-20 10:50:15.438903,135467000,0,0.77,4.93,211.1,-0.01386857,-0.0140799,0.479683,-0.1225046,-9.153555,-4.896068,-4.297526,-0.09,-0.16,0.01,733.43
8423,2023-01-20 10:50:15.538903,135567003,0,0.65,4.63,210.98,-0.02265093,-0.034311,0.4918179,-0.1249507,-9.146887,-4.897322,-4.307205,-0.09,-0.16,0.01,733.43
8457,2023-01-20 10:50:15.638904,135667005,0,0.71,4.66,210.65,0.0001418837,-0.06150172,0.5396136,-0.07331524,-9.140998,-4.898153,-4.316285,-0.09,-0.16,0.01,733.43
8489,2023-01-20 10:50:15.738904,135767003,0,0,4.71,210.19,-0.002602976,-0.06723624,0.5084341,-0.1154689,-9.135918,-4.897627,-4.326967,-0.09,-0.16,0.01,733.43
8523,2023-01-20 10:50:15.838910,135867019,0,0.04,4.97,209.34,-0.02205901,-0.03322046,0.5094945,-0.08631306,-9.134221,-4.893929,-4.334786,-0.09,-0.16,0.01,733.43
8553,2023-01-20 10:50:15.938862,135967002,0,0.18,4.85,207.73,-0.01379815,-0.06125436,0.5831402,-0.02524286,-9.136273,-4.884861,-4.341314,-0.09,-0.16,0.01,733.43
8586,2023-01-20 10:50:16.038868,136067015,0,0.24,4.95,205.08,-0.02767794,-0.03636817,0.525149,-0.05894142,-9.144854,-4.873191,-4.344873,-0.09,-0.16,0.01,733.43
8616,2023-01-20 10:50:16.138900,136167016,0,0.51,5.42,201.51,-0.02865445,-0.02157708,0.565055,-0.01470152,-9.160515,-4.857738,-4.346278,-0.09,-0.16,0.01,733.43
8651,2023-01-20 10:50:16.238878,136266996,0,0.74,5.7,197.46,-0.01890832,-0.06606175,0.5959681,0.05259069,-9.181957,-4.843409,-4.342437,-0.08,-0.16,0.01,733.43
8681,2023-01-20 10:50:16.338825,136366998,0,0.83,5.99,193.26,-0.0126965,-0.07383449,0.5640653,0.07130768,-9.211544,-4.829003,-4.333182,-0.08,-0.16,0.01,733.43
8714,2023-01-20 10:50:16.438816,136466999,0,0.61,6.38,189.21,0.02111765,-0.07959822,0.5762607,0.1219094,-9.231667,-4.818496,-4.319008,-0.08,-0.16,0.01,733.43
8746,2023-01-20 10:50:16.538872,136566998,0,0.06,6.53,185.52,0.01028678,-0.1255563,0.6231995,0.1907309,-9.243463,-4.809653,-4.303561,-0.08,-0.16,0.01,733.43
8780,2023-01-20 10:50:16.638904,136666995,0,-0.45,6.47,182.07,0.05125765,-0.1463364,0.6057577,0.1740014,-9.254138,-4.808711,-4.288003,-0.08,-0.16,0.01,733.43
8812,2023-01-20 10:50:16.738914,136767007,0,-1.16,6.31,178.9,0.07942753,-0.1597719,0.5738373,0.1284838,-9.265642,-4.813865,-4.274513,-0.08,-0.16,0.01,733.43
8846,2023-01-20 10:50:16.838906,136867010,0,-1.59,6.14,176.14,0.08235683,-0.1685176,0.552176,0.08022048,-9.272622,-4.820799,-4.264422,-0.08,-0.16,0.01,733.43
8876,2023-01-20 10:50:16.938875,136967003,0,-2.19,5.97,173.45,0.07020436,-0.1778097,0.5484222,0.06391335,-9.276142,-4.827764,-4.25698,-0.08,-0.16,0.01,733.43
8909,2023-01-20 10:50:17.038871,137067002,0,-2.42,5.54,170.54,0.1084408,-0.2132135,0.5284882,0.02585103,-9.275725,-4.838027,-4.252018,-0.08,-0.16,0.01,733.43
8939,2023-01-20 10:50:17.138909,137167011,0,-2.91,5.34,167.71,0.1106953,-0.2241125,0.5063372,-0.01757609,-9.272862,-4.850443,-4.25208,-0.08,-0.16,0.01,733.43
8974,2023-01-20 10:50:17.238929,137267017,0,-3.7,5.42,165.21,0.1248883,-0.2506934,0.513311,-0.03500213,-9.266864,-4.863393,-4.255115,-0.08,-0.16,0.01,733.43
9004,2023-01-20 10:50:17.338923,137367020,0,-4.21,5.28,162.48,0.08372221,-0.249211,0.5187104,-0.05033385,-9.25845,-4.87359,-4.257733,-0.08,-0.16,0.01,733.43
9037,2023-01-20 10:50:17.438910,137467008,0,-4.63,4.78,159.43,0.08100717,-0.1949746,0.4959553,-0.07879818,-9.247971,-4.884175,-4.262096,-0.08,-0.16,0.01,733.43
9069,2023-01-20 10:50:17.538911,137566998,0,-4.57,4.72,156.22,0.1202521,-0.1955759,0.5023682,-0.09491876,-9.234711,-4.894272,-4.269618,-0.08,-0.16,0.01,733.43
9103,2023-01-20 10:50:17.638915,137666995,0,-4.74,4.35,152.64,0.08480027,-0.1743913,0.5151767,-0.07864916,-9.222029,-4.903141,-4.276466,-0.08,-0.16,0.01,733.43
9135,2023-01-20 10:50:17.738930,137767012,0,-4.77,3.88,148.83,0.1062767,-0.1819947,0.519038,-0.06635779,-9.209328,-4.909295,-4.282806,-0.08,-0.17,0.01,733.43
9169,2023-01-20 10:50:17.835450,137866999,0,-4.71,3.54,145.04,0.1016096,-0.1664034,0.506443,-0.05185347,-9.198016,-4.914442,-4.287185,-0.08,-0.17,0.01,733.43
9199,2023-01-20 10:50:17.926548,137967004,0,-4.79,3.1,141.22,0.06252561,-0.1427492,0.5144067,-0.03056903,-9.189263,-4.91583,-4.290479,-0.08,-0.17,0.01,733.43
9232,2023-01-20 10:50:18.021482,138067027,0,-4.65,3.14,137.51,0.05441922,-0.1335129,0.5274925,0.01453956,-9.180511,-4.91644,-4.291262,-0.08,-0.17,0.01,733.43
9263,2023-01-20 10:50:18.132253,138167002,0,-4.96,3.22,133.93,0.04154731,-0.1065994,0.5348759,0.01248554,-9.16824,-4.910266,-4.291419,-0.08,-0.17,0.01,733.43
9298,2023-01-20 10:50:18.238871,138267001,0,-4.9,2.76,130.23,0.0404409,-0.09317901,0.5505196,0.03783481,-9.156311,-4.902498,-4.292839,-0.08,-0.17,0.01,733.43
9328,2023-01-20 10:50:18.338922,138367012,0,-4.86,2.66,126.71,0.06337763,-0.09595694,0.5517476,-0.02401412,-9.143428,-4.891358,-4.298224,-0.08,-0.17,0.01,733.43
9361,2023-01-20 10:50:18.435470,138466999,0,-4.82,3.02,123.47,0.0500824,-0.09473677,0.561908,-0.05082157,-9.132404,-4.878696,-4.304341,-0.08,-0.17,0.01,733.43
9393,2023-01-20 10:50:18.526576,138567002,0,-4.99,3.33,121.1,0.03843604,-0.05988512,0.5553668,-0.1002563,-9.121904,-4.86259,-4.310621,-0.08,-0.17,0.01,733.43
9427,2023-01-20 10:50:18.619396,138667000,0,-4.9,3.57,119.89,0.04710482,-0.1010111,0.5649586,-0.06685657,-9.111444,-4.850328,-4.31632,-0.08,-0.17,0.01,733.43
9459,2023-01-20 10:50:18.719379,138767017,0,-5.14,3.29,119.51,0.05915733,-0.09197244,0.5365614,-0.1435926,-9.098854,-4.834007,-4.327189,-0.08,-0.17,0.01,733.43
9493,2023-01-20 10:50:18.819326,138866998,0,-5.14,3.02,119.76,0.08518353,-0.1223652,0.5644087,-0.07742824,-9.0858,-4.822924,-4.33359,-0.08,-0.17,0.01,733.43
9525,2023-01-20 10:50:18.919290,138966998,0,-4.98,2.67,120.15,0.08371806,-0.1112789,0.5636104,-0.07679833,-9.069801,-4.808893,-4.339773,-0.08,-0.17,0.01,733.43
9558,2023-01-20 10:50:19.019273,139067003,0,-4.65,1.94,119.62,0.08060517,-0.07621101,0.5748392,-0.01601144,-9.054318,-4.798626,-4.341725,-0.08,-0.18,0.01,733.43
9588,2023-01-20 10:50:19.119303,139166998,0,-4.36,1.43,118.1,0.1077295,-0.07931833,0.5789652,0.005003177,-9.037775,-4.786528,-4.342971,-0.08,-0.18,0.01,733.43
9623,2023-01-20 10:50:19.219324,139266995,0,-4.37,1.51,116.79,0.06829447,-0.03828117,0.5997143,0.06129614,-9.021432,-4.776826,-4.340453,-0.08,-0.18,0.01,733.43
9653,2023-01-20 10:50:19.319306,139367002,0,-4.29,1.53,116.08,0.08448675,-0.04379762,0.5917764,0.02824949,-9.002584,-4.765784,-4.338377,-0.08,-0.18,0.01,733.43
9686,2023-01-20 10:50:19.419272,139466999,0,-3.81,1.73,115.76,0.08332321,-0.03862849,0.6087102,0.06452616,-8.987705,-4.756513,-4.333026,-0.07,-0.18,0.01,733.43
9718,2023-01-20 10:50:19.519240,139567020,0,-3.68,1.89,115.65,0.06628147,-0.051011,0.5892308,0.04070271,-8.977129,-4.744928,-4.328854,-0.07,-0.18,0.01,733.43
9752,2023-01-20 10:50:19.619174,139666998,0,-3.78,1.88,115.71,0.05036208,-0.001903992,0.5967976,0.06751077,-8.967013,-4.732153,-4.32239,-0.07,-0.18,0.01,733.43
9784,2023-01-20 10:50:19.719173,139766999,0,-4.1,2.09,116.01,0.008927852,-0.00379554,0.6152543,0.1144658,-8.953118,-4.709995,-4.312849,-0.07,-0.18,0.01,733.43
9818,2023-01-20 10:50:19.819166,139866997,0,-3.75,2.6,116.43,0.04277703,0.01533842,0.5714701,0.100195,-8.942492,-4.69104,-4.300395,-0.07,-0.18,0.01,733.43
9848,2023-01-20 10:50:19.919157,139967005,0,-3.32,2.7,116.66,0.001932785,-0.0311961,0.5892019,0.1078214,-8.933146,-4.668691,-4.288994,-0.07,-0.18,0.01,733.43
9881,2023-01-20 10:50:20.019142,140067002,0,-3.31,2.74,116.83,0.01605118,0.00353645,0.5769482,0.121513,-8.92706,-4.651345,-4.275601,-0.07,-0.18,0.01,733.43
9911,2023-01-20 10:50:20.119149,140166999,0,-3.56,3.02,117.09,-0.0005353466,-0.04269056,0.5607519,0.1397671,-8.924118,-4.634937,-4.261839,-0.07,-0.18,0.01,733.43
9946,2023-01-20 10:50:20.219164,140266994,0,-4,3.2,117.33,-0.00166508,0.01432008,0.545018,0.1582288,-8.920787,-4.619657,-4.247675,-0.07,-0.18,0.01,733.43
9979,2023-01-20 10:50:20.319240,140367006,0,-3.24,3.49,117.18,0.02782545,-0.04834699,0.5136034,0.1427466,-8.916008,-4.598995,-4.232174,-0.07,-0.18,0.01,733.43
10012,2023-01-20 10:50:20.419280,140466995,0,-2.79,3.61,116.99,0.01458744,-0.06490379,0.496277,0.1630888,-8.910961,-4.585323,-4.214545,-0.07,-0.18,0.01,733.43
10044,2023-01-20 10:50:20.519280,140566999,0,-2.73,3.47,116.78,0.02907274,-0.1132468,0.478292,0.1530484,-8.90466,-4.573298,-4.198141,-0.07,-0.18,0.01,733.43
10078,2023-01-20 10:50:20.619284,140667000,0,-3.11,2.57,116.57,-0.01833246,-0.1229602,0.4787987,0.1442188,-8.900151,-4.568387,-4.185172,-0.07,-0.18,0.01,733.43
10110,2023-01-20 10:50:20.719325,140767003,0,-3.79,1.58,116.6,0.009497325,-0.1416591,0.4435932,0.05851907,-8.895626,-4.564989,-4.177235,-0.07,-0.18,0.01,733.43
10144,2023-01-20 10:50:20.819329,140866999,0,-4.38,0.85,116.99,-0.02538343,-0.1179924,0.4762381,0.0853744,-8.89632,-4.564625,-4.171035,-0.07,-0.18,0.01,733.43
10174,2023-01-20 10:50:20.919219,140967008,0,-5.34,0.34,117.5,-0.007211039,-0.09587632,0.4031031,-0.02526837,-8.905151,-4.561492,-4.169999,-0.07,-0.18,0.01,733.43
10207,2023-01-20 10:50:21.019128,141067002,0,-5.97,0.02,117.94,-0.03734595,-0.03678631,0.4339877,0.01336275,-8.909264,-4.556209,-4.170523,-0.07,-0.18,0.01,733.43
10237,2023-01-20 10:50:21.119177,141166996,0,-6.45,-0.47,118.2,0.002171297,0.01427843,0.3749598,-0.05579495,-8.903796,-4.542716,-4.17337,-0.07,-0.18,0.01,733.43
10272,2023-01-20 10:50:21.219234,141267013,0,-6.91,-0.95,118.37,-0.01066305,0.08386002,0.3726152,-0.02508287,-8.896576,-4.524807,-4.175053,-0.07,-0.18,0.01,733.43
10302,2023-01-20 10:50:21.319208,141367011,0,-6.94,-0.88,118.61,0.04838989,0.1609254,0.35468,-0.04390921,-8.883805,-4.495835,-4.177732,-0.07,-0.18,0.01,733.43
10335,2023-01-20 10:50:21.419179,141466995,0,-6.91,-0.54,118.94,0.0530405,0.2563672,0.3705945,-0.00284597,-8.868834,-4.46137,-4.180121,-0.07,-0.19,0.01,733.43
10367,2023-01-20 10:50:21.519221,141567001,0,-6.87,-0.66,118.95,0.09635818,0.28036,0.3052189,-0.1027225,-8.847848,-4.415108,-4.187158,-0.07,-0.19,0.01,733.43
10401,2023-01-20 10:50:21.619237,141667000,0,-6.62,-1.24,117.74,0.126508,0.3845918,0.3211919,-0.06336243,-8.82769,-4.36274,-4.19242,-0.07,-0.19,0.01,733.43
10433,2023-01-20 10:50:21.719181,141767005,0,-6.39,-1.75,114.45,0.1588308,0.4352141,0.323952,-0.07589132,-8.807693,-4.296572,-4.199223,-0.07,-0.19,0.01,733.43
10467,2023-01-20 10:50:21.819121,141866998,0,-6.29,-2.06,109.36,0.153751,0.5684528,0.342664,-0.03885713,-8.786545,-4.227829,-4.204583,-0.07,-0.19,0.01,733.43
10497,2023-01-20 10:50:21.919116,141967006,0,-5.93,-2.65,103.19,0.2081397,0.6205157,0.3051664,-0.09187368,-8.761298,-4.152878,-4.210886,-0.07,-0.19,0.01,733.43
10530,2023-01-20 10:50:22.019107,142066998,0,-5.53,-3.66,96.34,0.2011593,0.7069983,0.3538151,-0.02888658,-8.729693,-4.07164,-4.217486,-0.07,-0.19,0.01,733.43
10560,2023-01-20 10:50:22.119158,142166999,0,-4.9,-4.82,88.57,0.2224409,0.7780307,0.3211319,-0.08173926,-8.681981,-3.977315,-4.226669,-0.07,-0.19,0.01,733.43
10595,2023-01-20 10:50:22.219192,142266999,0,-3.73,-5.76,81.04,0.2753725,0.8597942,0.308087,-0.07866493,-8.635653,-3.881007,-4.236152,-0.07,-0.19,0.01,733.43
10625,2023-01-20 10:50:22.319180,142367022,0,-2.76,-6.51,74.62,0.2808096,0.9152061,0.29524,-0.1457895,-8.58624,-3.782598,-4.249967,-0.07,-0.19,0.01,733.43
10658,2023-01-20 10:50:22.419134,142466995,0,-1.97,-7.49,69.96,0.3088366,1.012529,0.25776,-0.1615952,-8.539496,-3.681557,-4.263943,-0.07,-0.19,0.01,733.43
10690,2023-01-20 10:50:22.519187,142567002,0,-1.41,-8.79,67.17,0.2972568,1.1043,0.2256092,-0.2060877,-8.490307,-3.57413,-4.282355,-0.07,-0.19,0.01,733.43
10724,2023-01-20 10:50:22.619219,142666999,0,-1.09,-10.29,65.88,0.3028527,1.245292,0.220616,-0.1869918,-8.451548,-3.454484,-4.302692,-0.07,-0.19,0.01,733.43
10756,2023-01-20 10:50:22.719202,142766999,0,-1.39,-11.9,65.75,0.3051358,1.375418,0.1960313,-0.2808691,-8.428557,-3.316915,-4.330265,-0.07,-0.19,0.01,733.43
10790,2023-01-20 10:50:22.819185,142867002,0,-1.92,-12.91,66.46,0.3337958,1.512301,0.2001968,-0.2545719,-8.400847,-3.163237,-4.354358,-0.07,-0.19,0.01,733.43
10820,2023-01-20 10:50:22.919154,142967003,0,-2.33,-13.73,67.69,0.4002898,1.709894,0.202221,-0.2362128,-8.36637,-2.987927,-4.377553,-0.07,-0.19,0.01,733.43
10853,2023-01-20 10:50:23.019150,143067014,0,-2.29,-14.33,69.23,0.4464501,1.877462,0.1577294,-0.2131709,-8.327005,-2.794744,-4.395258,-0.07,-0.19,0.02,733.43
10883,2023-01-20 10:50:23.119206,143167019,0,-2.53,-14.39,70.46,0.5054067,2.078099,0.1403719,-0.1859824,-8.283233,-2.578824,-4.412477,-0.07,-0.19,0.02,733.43
10919,2023-01-20 10:50:23.219222,143266999,0,-3.05,-14.8,71.34,0.567637,2.295419,0.1071293,-0.1878525,-8.231737,-2.347606,-4.430862,-0.07,-0.19,0.02,733.43
10949,2023-01-20 10:50:23.319196,143367002,0,-3.17,-15.65,72.01,0.6366814,2.462896,0.07898237,-0.2128681,-8.170633,-2.100857,-4.452613,-0.07,-0.19,0.02,733.43
10982,2023-01-20 10:50:23.419168,143466995,0,-3.13,-16.38,72.64,0.691994,2.654869,0.05621185,-0.2475725,-8.099874,-1.839499,-4.477334,-0.07,-0.19,0.02,733.43
11014,2023-01-20 10:50:23.519189,143567002,0,-2.86,-17.05,73.2,0.7630789,2.861142,-0.01476544,-0.3225693,-8.010779,-1.553714,-4.506258,-0.07,-0.19,0.02,733.43
11048,2023-01-20 10:50:23.619204,143667008,0,-1.99,-17.17,73.64,0.8278448,3.074726,-0.07933196,-0.4001733,-7.92206,-1.246456,-4.541744,-0.07,-0.19,0.02,733.43
11080,2023-01-20 10:50:23.719177,143766995,0,-1.61,-17.8,74.11,0.8717496,3.351727,-0.09559961,-0.4579308,-7.838864,-0.9166543,-4.584458,-0.07,-0.19,0.02,733.43
11114,2023-01-20 10:50:23.819170,143867002,0,-1.32,-18.14,74.54,0.8798595,3.605212,-0.1096782,-0.493944,-7.758604,-0.5626862,-4.633673,-0.06,-0.19,0.02,733.43
11147,2023-01-20 10:50:23.919178,143967027,0,-2.18,-17.58,74.84,0.904466,3.812198,-0.1829443,-0.6504346,-7.691628,-0.1863278,-4.693986,-0.06,-0.19,0.02,733.43
11180,2023-01-20 10:50:24.019161,144067011,0,-3.44,-17.08,74.92,0.9083373,4.024521,-0.1636046,-0.654264,-7.61698,0.2094729,-4.75805,-0.06,-0.19,0.02,733.43
11210,2023-01-20 10:50:24.119210,144166999,0,-4.34,-16.97,74.98,0.9283486,4.215637,-0.1874972,-0.682672,-7.528323,0.6369789,-4.826094,-0.06,-0.19,0.02,733.43
11245,2023-01-20 10:50:24.219257,144267008,0,-4.46,-16.78,75.04,0.9934222,4.361154,-0.2636687,-0.7472261,-7.440885,1.073089,-4.897556,-0.06,-0.19,0.02,733.43
11275,2023-01-20 10:50:24.319185,144366998,0,-4.89,-16.91,75.13,1.042169,4.516635,-0.2496948,-0.8045444,-7.364774,1.505276,-4.975702,-0.06,-0.19,0.02,733.43
11308,2023-01-20 10:50:24.419144,144466995,0,-5.24,-17,75.21,1.083913,4.71096,-0.2580815,-0.7969384,-7.275885,1.963534,-5.050183,-0.06,-0.19,0.02,733.43
11341,2023-01-20 10:50:24.519226,144567011,0,-5.73,-16.58,74.68,1.169059,4.877506,-0.2853606,-0.8182176,-7.172759,2.446466,-5.128839,-0.06,-0.19,0.02,733.43
11376,2023-01-20 10:50:24.619247,144666995,0,-5.23,-16.13,73.92,1.218097,5.025077,-0.2763877,-0.8010442,-7.052311,2.935034,-5.209296,-0.06,-0.2,0.02,733.43
11408,2023-01-20 10:50:24.719166,144766995,0,-4.95,-15.92,73.41,1.247072,5.119764,-0.2814404,-0.8458591,-6.898471,3.435128,-5.294431,-0.06,-0.2,0.02,733.43
11442,2023-01-20 10:50:24.819116,144867011,0,-5.23,-16.01,72.28,1.336083,5.240326,-0.2657013,-0.8561189,-6.747624,3.947665,-5.382269,-0.06,-0.2,0.02,733.43
11473,2023-01-20 10:50:24.919108,144967002,0,-5.44,-15.29,71.3,1.378707,5.289015,-0.2639527,-0.9016294,-6.602252,4.466002,-5.472277,-0.06,-0.2,0.02,733.43
11506,2023-01-20 10:50:25.019109,145066998,0,-5.27,-11.56,70.89,1.401215,5.344443,-0.2288575,-0.8342872,-6.449394,4.995739,-5.552749,-0.06,-0.2,0.02,733.43
11536,2023-01-20 10:50:25.119153,145167012,0,-5.35,-5.5,70.83,1.420379,5.322246,-0.1009646,-0.6771188,-6.282788,5.525851,-5.624632,-0.06,-0.2,0.02,733.43
11572,2023-01-20 10:50:25.219168,145267005,0,-5,1.59,70.86,1.402364,5.211795,0.01237207,-0.5100243,-6.122974,6.045141,-5.681503,-0.06,-0.2,0.02,733.43
11602,2023-01-20 10:50:25.319158,145367001,0,-5.28,9.24,70.93,1.345799,5.009681,0.08689039,-0.393325,-5.966679,6.55367,-5.724367,-0.06,-0.2,0.02,733.43
11635,2023-01-20 10:50:25.419162,145467007,0,-4.72,15.19,70.78,1.290432,4.743166,0.1416162,-0.2875465,-5.841076,7.032484,-5.758991,-0.06,-0.19,0.02,733.43
11667,2023-01-20 10:50:25.519176,145567008,0,-3.53,16.73,71.62,1.182485,4.450723,0.2029592,-0.2095654,-5.775382,7.467859,-5.781967,-0.06,-0.19,0.02,733.43
11701,2023-01-20 10:50:25.619174,145666997,0,-4.69,15.58,72.73,1.086074,4.121881,0.2450954,0.01325022,-5.704538,7.872606,-5.780106,-0.06,-0.19,0.02,733.43
11733,2023-01-20 10:50:25.719171,145767007,0,-6.6,15.75,73.29,0.9964269,3.77688,0.4456706,0.4073864,-5.627642,8.254133,-5.753879,-0.06,-0.19,0.02,733.43
11766,2023-01-20 10:50:25.819156,145867007,0,-7.08,17.1,73.34,0.9183565,3.428504,0.5342936,0.5758346,-5.552099,8.607548,-5.709447,-0.06,-0.19,0.02,733.43
11798,2023-01-20 10:50:25.919123,145966998,0,-5.98,19.07,73.45,0.8365819,3.052463,0.5449383,0.5938205,-5.481774,8.924635,-5.655749,-0.06,-0.19,0.02,733.43
11831,2023-01-20 10:50:26.019112,146066999,0,-3.63,19.03,74.23,0.7414118,2.653851,0.5161324,0.5258833,-5.419463,9.207357,-5.605327,-0.06,-0.19,0.02,733.43
11861,2023-01-20 10:50:26.119153,146167002,0,-2.92,17.72,75.18,0.6298481,2.285801,0.47596,0.4317949,-5.373857,9.452619,-5.561626,-0.06,-0.19,0.02,733.43
11896,2023-01-20 10:50:26.219173,146266999,0,-4.07,14.6,75.54,0.5130658,1.986337,0.5557935,0.4775331,-5.332077,9.662373,-5.517928,-0.06,-0.19,0.02,733.43
11926,2023-01-20 10:50:26.319138,146367000,0,-4.79,12.94,75.52,0.4127646,1.713608,0.5571377,0.4420056,-5.292191,9.843444,-5.473555,-0.06,-0.19,0.02,733.43
11959,2023-01-20 10:50:26.419113,146466998,0,-5.94,11.12,74.74,0.3455272,1.353232,0.498183,0.3059719,-5.256402,9.997147,-5.439555,-0.06,-0.19,0.02,733.43
11991,2023-01-20 10:50:26.519163,146567018,0,-6.09,9.03,73.95,0.3194939,1.124923,0.4523304,0.1925385,-5.221159,10.12688,-5.414365,-0.06,-0.19,0.02,733.43
12025,2023-01-20 10:50:26.619179,146667011,0,-5.35,7.32,73.57,0.2823506,0.9693331,0.4064347,0.137385,-5.196423,10.22933,-5.393788,-0.06,-0.2,0.02,733.43
12057,2023-01-20 10:50:26.719165,146767002,0,-5.14,6.09,73.27,0.231939,0.7230838,0.2760705,0.0431064,-5.189986,10.30158,-5.378675,-0.06,-0.2,0.02,733.43
12090,2023-01-20 10:50:26.819160,146867006,0,-5.23,4.3,72.73,0.2022174,0.5859134,0.09071128,-0.08656027,-5.184933,10.36061,-5.375976,-0.06,-0.2,0.02,733.43
12121,2023-01-20 10:50:26.919128,146966998,0,-6.03,2.8,72.07,0.1915753,0.4277218,-0.1168169,-0.2368564,-5.18431,10.41158,-5.389486,-0.06,-0.2,0.02,733.43
12154,2023-01-20 10:50:27.019115,147067003,0,-5.93,1.61,71.51,0.2071397,0.3697287,-0.2830528,-0.3546053,-5.174233,10.45162,-5.418663,-0.06,-0.2,0.02,733.43
12184,2023-01-20 10:50:27.119123,147167002,0,-5.27,1.14,71.13,0.2150389,0.3043531,-0.4783593,-0.5059706,-5.150518,10.48393,-5.463048,-0.06,-0.2,0.02,733.43
12219,2023-01-20 10:50:27.219127,147266995,0,-5.33,1.55,71.04,0.2246325,0.2553785,-0.6413661,-0.6451125,-5.121197,10.51049,-5.524414,-0.06,-0.2,0.02,733.43
12249,2023-01-20 10:50:27.319146,147367000,0,-5.35,2.05,71.22,0.2441883,0.1929635,-0.7880067,-0.7801416,-5.08112,10.53341,-5.599837,-0.06,-0.2,0.02,733.43
12282,2023-01-20 10:50:27.417458,147467020,0,-4.65,2.4,71.55,0.2671977,0.1391295,-0.9540777,-0.9405022,-5.042904,10.54883,-5.687106,-0.06,-0.2,0.02,733.43
12314,2023-01-20 10:50:27.508476,147567008,0,-3.66,2.46,72.16,0.2538015,0.0404417,-1.117925,-1.102398,-5.004326,10.55819,-5.789226,-0.06,-0.2,0.02,733.43
12348,2023-01-20 10:50:27.599494,147666995,0,-2.93,2.04,72.99,0.2312697,-0.0233876,-1.271203,-1.246509,-4.971111,10.56136,-5.90506,-0.06,-0.2,0.02,733.43
12380,2023-01-20 10:50:27.699444,147767002,0,-2.86,1.67,73.7,0.1891524,-0.06223376,-1.369801,-1.341078,-4.944867,10.56808,-6.032499,-0.06,-0.2,0.01,733.43
12413,2023-01-20 10:50:27.799435,147867001,0,-3.28,1.55,73.92,0.1545034,-0.04746201,-1.436916,-1.412021,-4.923009,10.56925,-6.171738,-0.06,-0.2,0.01,733.43
12445,2023-01-20 10:50:27.899368,147966998,0,-3.85,1.93,73.75,0.1577873,-0.07782897,-1.528167,-1.504189,-4.890508,10.5779,-6.319377,-0.06,-0.2,0.01,733.43
12478,2023-01-20 10:50:27.999305,148066999,0,-3.68,2.56,73.48,0.131954,-0.1371686,-1.596169,-1.567171,-4.86349,10.57863,-6.471282,-0.06,-0.2,0.01,733.43
12508,2023-01-20 10:50:28.099333,148167002,0,-2.91,2.92,73.39,0.1346727,-0.164957,-1.653529,-1.596017,-4.808885,10.56712,-6.628094,-0.06,-0.2,0.01,733.43
12543,2023-01-20 10:50:28.199356,148267000,0,-1.36,2.7,73.33,0.07040951,-0.2184895,-1.678971,-1.614377,-4.768301,10.54953,-6.791758,-0.06,-0.2,0.01,733.43
12574,2023-01-20 10:50:28.299409,148367028,0,-1.23,2.34,73.5,0.03618634,-0.237771,-1.755164,-1.707097,-4.728095,10.52132,-6.96138,-0.06,-0.2,0.01,733.43
12607,2023-01-20 10:50:28.399425,148467019,0,-1.48,2.08,73.82,-0.0147037,-0.315293,-1.775402,-1.750807,-4.702742,10.49118,-7.133651,-0.06,-0.2,0.01,733.43
12639,2023-01-20 10:50:28.510302,148566998,0,-1.75,1.85,74.18,-0.05380583,-0.3502217,-1.80064,-1.829712,-4.660954,10.47541,-7.315419,-0.06,-0.2,0.01,733.43
12673,2023-01-20 10:50:28.617436,148666995,0,-1.48,1.6,74.33,-0.07414294,-0.3160715,-1.826797,-1.873182,-4.630451,10.45458,-7.49994,-0.06,-0.2,0.01,733.43
12705,2023-01-20 10:50:28.708443,148767002,0,-1.25,1.34,74.16,-0.1204026,-0.3189817,-1.846807,-1.88863,-4.600806,10.43161,-7.685023,-0.06,-0.2,0.01,733.43
12738,2023-01-20 10:50:28.799439,148866998,0,-1.18,1.38,73.78,-0.1470999,-0.332305,-1.80808,-1.828431,-4.586054,10.40459,-7.871261,-0.06,-0.2,0.01,733.43
12771,2023-01-20 10:50:28.899272,148966999,0,-1.59,1.15,73.28,-0.1814663,-0.3622997,-1.854655,-1.870978,-4.579925,10.37338,-8.056669,-0.06,-0.2,0.01,733.43
12804,2023-01-20 10:50:28.999158,149066999,0,-1.71,0.76,72.79,-0.2076194,-0.3309543,-1.850313,-1.862175,-4.584045,10.34084,-8.241045,-0.06,-0.2,0.01,733.43
12834,2023-01-20 10:50:29.099230,149167018,0,-1.52,0.47,72.39,-0.2275967,-0.3158508,-1.85546,-1.868958,-4.568104,10.31421,-8.429303,-0.06,-0.2,0.01,733.43
12870,2023-01-20 10:50:29.199267,149267001,0,-1.73,0.08,72.18,-0.2606439,-0.353419,-1.885494,-1.902562,-4.565567,10.28684,-8.618483,-0.06,-0.2,0.01,733.43
12900,2023-01-20 10:50:29.299217,149367015,0,-1.51,0.29,72.19,-0.259459,-0.2751403,-1.837953,-1.869563,-4.579152,10.25742,-8.806595,-0.06,-0.2,0.01,733.43
12933,2023-01-20 10:50:29.399160,149467023,0,-1.45,0,72.69,-0.3000759,-0.3163325,-1.879767,-1.901842,-4.598866,10.2292,-8.994409,-0.06,-0.2,0.01,733.43
12965,2023-01-20 10:50:29.499153,149566998,0,-2.31,-0.51,73.3,-0.2826648,-0.2227431,-1.879149,-1.899942,-4.61422,10.19767,-9.185211,-0.06,-0.2,0.01,733.43
12999,2023-01-20 10:50:29.599173,149666998,0,-2.77,-0.81,73.67,-0.2957906,-0.2599441,-1.915961,-1.934084,-4.634669,10.16894,-9.375263,-0.06,-0.2,0.01,733.43
13031,2023-01-20 10:50:29.699169,149767003,0,-3.42,-0.59,73.42,-0.2854499,-0.2236449,-1.858168,-1.879804,-4.63893,10.14262,-9.568722,-0.06,-0.2,0.01,733.43
13064,2023-01-20 10:50:29.799155,149866998,0,-3.7,-0.16,72.87,-0.2514727,-0.2249362,-1.83601,-1.858545,-4.647778,10.1179,-9.759481,-0.06,-0.2,0.01,733.43
13095,2023-01-20 10:50:29.899134,149966999,0,-3.43,-0.03,72.39,-0.1743758,-0.2177733,-1.857766,-1.912568,-4.637141,10.09452,-9.951064,-0.06,-0.2,0.01,733.43
13128,2023-01-20 10:50:29.999113,150067001,0,-2.76,0.28,72.09,-0.1390962,-0.213884,-1.875866,-1.934327,-4.633235,10.07069,-10.14246,-0.06,-0.2,0.01,733.43
13158,2023-01-20 10:50:30.099144,150166998,0,-1.7,0.16,72.38,-0.1266761,-0.2118001,-1.874178,-1.957856,-4.630841,10.04644,-10.33778,-0.06,-0.2,0.01,733.43
13193,2023-01-20 10:50:30.199175,150266995,0,-0.55,0.03,73.2,-0.1749061,-0.2347054,-1.849677,-1.935659,-4.634558,10.02367,-10.52768,-0.06,-0.2,0.01,733.43
13223,2023-01-20 10:50:30.299201,150367020,0,-0.44,-0.1,74.11,-0.1781726,-0.1804606,-1.788044,-1.904624,-4.65341,10.00541,-10.72235,-0.06,-0.2,0.01,733.43
13256,2023-01-20 10:50:30.399197,150467015,0,-1.02,-0.13,74.85,-0.1936239,-0.1753951,-1.784424,-1.902039,-4.674696,9.988503,-10.91258,-0.06,-0.2,0.01,733.43
13288,2023-01-20 10:50:30.499176,150566999,0,-1.55,0.14,75.3,-0.1991987,-0.1970956,-1.769995,-1.909627,-4.682758,9.967545,-11.10224,-0.06,-0.2,0.01,733.43
13322,2023-01-20 10:50:30.599179,150667008,0,-1.48,0.14,75.72,-0.2025147,-0.1715831,-1.717013,-1.849447,-4.69556,9.947711,-11.28958,-0.06,-0.2,0.01,733.43
13355,2023-01-20 10:50:30.699171,150767002,0,-1.06,0.05,76.2,-0.1857392,-0.1667962,-1.718962,-1.859017,-4.675331,9.923236,-11.47756,-0.06,-0.2,0.01,733.43
13388,2023-01-20 10:50:30.799165,150866998,0,-0.15,-0.1,76.48,-0.2036301,-0.1992421,-1.695345,-1.825101,-4.666602,9.900672,-11.65852,-0.06,-0.2,0.01,733.43
13419,2023-01-20 10:50:30.899136,150967002,0,0.36,-0.3,76.42,-0.2088959,-0.1635899,-1.646147,-1.815792,-4.658199,9.876935,-11.84432,-0.06,-0.2,0.01,733.43
13452,2023-01-20 10:50:30.999107,151067007,0,0.48,-0.67,75.99,-0.2134591,-0.1522724,-1.622815,-1.801765,-4.660523,9.856108,-12.02602,-0.06,-0.2,0.01,733.43
13482,2023-01-20 10:50:31.099185,151166998,0,0.19,-1.17,75.36,-0.228308,-0.1428101,-1.656723,-1.869833,-4.673735,9.82773,-12.20941,-0.06,-0.2,0.01,733.43
13517,2023-01-20 10:50:31.199270,151266995,0,0.29,-1.46,74.75,-0.2780854,-0.1479305,-1.608035,-1.814636,-4.694001,9.805378,-12.38915,-0.06,-0.2,0.01,733.43
13547,2023-01-20 10:50:31.299237,151367011,0,0.33,-1.65,74.23,-0.322928,-0.08810544,-1.516247,-1.729354,-4.725606,9.779907,-12.56845,-0.06,-0.2,0.01,733.43
13580,2023-01-20 10:50:31.399178,151467001,0,-0.06,-1.99,73.89,-0.305865,-0.06036904,-1.559598,-1.753391,-4.760309,9.761832,-12.74244,-0.06,-0.2,0.01,733.43
13612,2023-01-20 10:50:31.499176,151567019,0,-0.28,-2.07,73.87,-0.3490288,-0.05377608,-1.557505,-1.772057,-4.813176,9.746854,-12.91871,-0.06,-0.2,0.01,733.43
13645,2023-01-20 10:50:31.599145,151667008,0,-1.23,-1.91,74.26,-0.3765053,0.01988182,-1.519241,-1.720456,-4.86434,9.738781,-13.09293,-0.06,-0.2,0.01,733.43
13678,2023-01-20 10:50:31.699149,151766999,0,-2.07,-2.04,75.12,-0.3738269,0.0437559,-1.493656,-1.706312,-4.900424,9.734238,-13.26915,-0.06,-0.2,0.01,733.43
13711,2023-01-20 10:50:31.799161,151866998,0,-2.27,-2.15,76.09,-0.3597915,0.07963467,-1.481301,-1.69045,-4.936425,9.735858,-13.43844,-0.06,-0.2,0.01,733.43
13743,2023-01-20 10:50:31.899148,151967008,0,-2.73,-1.74,76.68,-0.3222126,0.1105823,-1.356384,-1.585666,-4.961145,9.739527,-13.60463,-0.05,-0.2,0.01,733.43
13776,2023-01-20 10:50:31.999119,152067002,0,-3.06,-1.01,77.01,-0.309213,0.118857,-1.157726,-1.380533,-4.986589,9.748661,-13.75301,-0.05,-0.2,0.01,733.43
13806,2023-01-20 10:50:32.099144,152167000,0,-3.32,-0.87,77.22,-0.2880257,0.1404519,-0.9642064,-1.216225,-5.009432,9.755164,-13.88379,-0.05,-0.2,0.01,733.43
13841,2023-01-20 10:50:32.199179,152267008,0,-3.59,-0.97,77.1,-0.2368831,0.1302058,-0.708396,-0.9498842,-5.031144,9.765734,-13.98885,-0.05,-0.2,0.01,733.43
13871,2023-01-20 10:50:32.299180,152367002,0,-3.48,-0.95,76.77,-0.2214577,0.1272216,-0.5170177,-0.7831452,-5.037142,9.766932,-14.07717,-0.05,-0.2,0.01,733.43
13904,2023-01-20 10:50:32.399195,152467011,0,-3.1,-1.02,76.34,-0.2144266,0.1368833,-0.329979,-0.5978487,-5.044125,9.773244,-14.1443,-0.05,-0.2,0.01,733.43
13936,2023-01-20 10:50:32.499164,152567005,0,-2.41,-0.94,75.96,-0.1945559,0.1369536,-0.18696,-0.4846227,-5.066494,9.775313,-14.20051,-0.05,-0.2,0.01,733.43
13969,2023-01-20 10:50:32.599133,152666999,0,-2.37,-0.91,75.5,-0.1938105,0.1395066,-0.06220443,-0.3517659,-5.086558,9.78285,-14.23971,-0.05,-0.2,0.02,733.43
14002,2023-01-20 10:50:32.699142,152766995,0,-2.8,-0.71,75.14,-0.1556904,0.1591292,0.03524425,-0.2756827,-5.105683,9.790019,-14.27134,-0.05,-0.2,0.02,733.43
14035,2023-01-20 10:50:32.799167,152867006,0,-3.17,-0.39,74.91,-0.1699564,0.1763172,0.162653,-0.148242,-5.122973,9.800977,-14.2912,-0.05,-0.2,0.02,733.43
14066,2023-01-20 10:50:32.899139,152966999,0,-3.47,-0.24,74.74,-0.131288,0.1552157,0.2263269,-0.1127468,-5.144866,9.801567,-14.30737,-0.05,-0.2,0.02,733.43
14099,2023-01-20 10:50:32.999121,153067002,0,-4.03,-0.28,74.71,-0.1121944,0.1248099,0.2703124,-0.07338073,-5.161876,9.806744,-14.31489,-0.05,-0.2,0.02,733.43
14129,2023-01-20 10:50:33.099151,153167004,0,-4.51,-0.04,74.74,-0.0771529,0.1238907,0.3255121,-0.06292856,-5.210358,9.809951,-14.32346,-0.05,-0.2,0.02,733.43
14164,2023-01-20 10:50:33.199174,153266999,0,-5.2,-0.16,74.89,-0.04232565,0.1360705,0.3499615,-0.03636101,-5.244898,9.816737,-14.32624,-0.05,-0.2,0.02,733.43
14194,2023-01-20 10:50:33.299181,153367002,0,-5.47,-0.28,75.26,0.01145958,0.1582385,0.3410024,-0.05355116,-5.284573,9.821517,-14.33143,-0.05,-0.2,0.02,733.43
14228,2023-01-20 10:50:33.399187,153467004,0,-5.36,-0.5,75.88,0.08414017,0.1486643,0.3313173,-0.04004575,-5.30875,9.829446,-14.33405,-0.05,-0.2,0.02,733.43
14261,2023-01-20 10:50:33.499185,153567006,0,-4.66,-0.59,76.53,0.1161013,0.1343036,0.3012018,-0.06693587,-5.348358,9.83394,-14.34037,-0.05,-0.2,0.02,733.43
14295,2023-01-20 10:50:33.599173,153666999,0,-4.43,-0.64,77.1,0.131383,0.1195761,0.2616105,-0.08029272,-5.370634,9.842209,-14.34472,-0.05,-0.2,0.02,733.43
14328,2023-01-20 10:50:33.699172,153767004,0,-4.24,-0.57,77.56,0.1460527,0.1593187,0.2951685,-0.06000185,-5.420182,9.844905,-14.3541,-0.06,-0.2,0.02,733.43
14361,2023-01-20 10:50:33.799159,153866998,0,-4.24,-0.57,77.94,0.1751425,0.1602474,0.2718135,-0.06612331,-5.448941,9.851891,-14.35995,-0.06,-0.2,0.02,733.43
14394,2023-01-20 10:50:33.899140,153967005,0,-4.36,-0.34,78.13,0.2049728,0.1515797,0.2535935,-0.0983748,-5.507957,9.851826,-14.36974,-0.06,-0.2,0.02,733.43
