LineNo,UTC_Approx,TimeUS,C,AX,AY,AZ,VWN,VWE,MN,ME,MD,MX,MY,MZ,IDX,IDY,IS
368,2023-01-20 10:49:56.258497,116247435,0,0,0,-0.08,0,0,253,25,401,0,0,0,0,0,0
958,2023-01-20 10:49:56.349466,116347450,0,0,0,-0.08,0,0,253,25,401,0,0,0,0,0,0
1116,2023-01-20 10:49:56.451414,116453964,0,0,0,-0.08,0,0,253,25,401,0,0,0,0,0,0
1335,2023-01-20 10:49:56.564043,116565584,0,0,0,-0.08,0,0,253,25,401,0,0,0,0,0,0
1553,2023-01-20 10:49:56.664880,116666343,0,0,0,-0.08,0,0,253,25,401,0,0,0,0,0,0
1875,2023-01-20 10:49:56.764500,116766338,0,0,0,-0.08,0,0,253,25,401,0,0,0,0,0,0
1920,2023-01-20 10:49:56.864372,116866343,0,0,0,-0.08,0,0,253,25,401,0,0,0,0,0,0
1968,2023-01-20 10:49:56.964368,116966340,0,0,0,-0.08,0,0,253,25,401,0,0,0,0,0,0
2018,2023-01-20 10:49:57.064380,117066339,0,0,0,-0.08,0,0,253,25,401,0,0,0,0,0,0
2062,2023-01-20 10:49:57.164406,117166344,0,0,0,-0.08,0,0,253,25,401,0,0,0,0,0,0
2114,2023-01-20 10:49:57.271510,117266340,0,0.01,0,-0.08,0,0,253,25,401,0,0,0,0,0,0
2173,2023-01-20 10:49:57.382565,117366367,0,0.01,0,-0.08,0,0,253,25,401,0,0,0,0,0,0
2229,2023-01-20 10:49:57.476613,117466341,0,0.02,-0.01,-0.08,0,0,253,25,401,0,0,0,0,0,0
2288,2023-01-20 10:49:57.567525,117566339,0,0.02,-0.01,-0.08,0,0,253,25,401,0,0,0,0,0,0
2342,2023-01-20 10:49:57.664269,117666343,0,0.02,-0.01,-0.07,0,0,253,25,401,0,0,0,0,0,0
2401,2023-01-20 10:49:57.764245,117766341,0,0.02,-0.01,-0.07,0,0,253,25,401,0,0,0,0,0,0
2445,2023-01-20 10:49:57.864220,117866343,0,0.02,-0.01,-0.07,0,0,253,25,401,0,0,0,0,0,0
2490,2023-01-20 10:49:57.964187,117966340,0,0.02,-0.01,-0.07,0,0,253,25,401,0,0,0,0,0,0
2529,2023-01-20 10:49:58.064248,118066359,0,0.03,-0.01,-0.07,0,0,253,25,401,0,0,0,0,0,0
2569,2023-01-20 10:49:58.164315,118166343,0,0.03,-0.01,-0.07,0,0,253,25,401,0,0,0,0,0,0
2611,2023-01-20 10:49:58.264328,118266346,0,0.03,-0.02,-0.07,0,0,253,25,401,0,0,0,0,0,0
2651,2023-01-20 10:49:58.364299,118366348,0,0.03,-0.02,-0.07,0,0,253,25,401,0,0,0,0,0,0
2690,2023-01-20 10:49:58.464282,118466343,0,0.02,-0.02,-0.07,0,0,253,25,401,0,0,0,0,0,0
2731,2023-01-20 10:49:58.564280,118566343,0,0.02,-0.02,-0.07,0,0,253,25,401,0,0,0,0,0,0
2771,2023-01-20 10:49:58.664277,118666358,0,0.03,-0.02,-0.07,0,0,253,25,401,0,0,0,0,0,0
2812,2023-01-20 10:49:58.764239,118766347,0,0.03,-0.02,-0.07,0,0,253,25,401,0,0,0,0,0,0
2856,2023-01-20 10:49:58.864246,118866362,0,0.03,-0.01,-0.07,0,0,253,25,401,0,0,0,0,0,0
2895,2023-01-20 10:49:58.964232,118966347,0,0.03,-0.01,-0.07,0,0,253,25,401,0,0,0,0,0,0
2934,2023-01-20 10:49:59.064260,119066357,0,0.04,-0.01,-0.07,0,0,253,25,401,0,0,0,0,0,0
2973,2023-01-20 10:49:59.164279,119166350,0,0.04,-0.01,-0.07,0,0,253,25,401,0,0,0,0,0,0
3014,2023-01-20 10:49:59.264288,119266350,0,0.03,-0.02,-0.07,0,0,253,25,401,0,0,0,0,0,0
3053,2023-01-20 10:49:59.364301,119366364,0,0.03,-0.02,-0.07,0,0,253,25,401,0,0,0,0,0,0
3093,2023-01-20 10:49:59.464283,119466350,0,0.04,-0.02,-0.07,0,0,253,25,401,0,0,0,0,0,0
3134,2023-01-20 10:49:59.564294,119566365,0,0.04,-0.02,-0.07,0,0,253,25,401,0,0,0,0,0,0
3173,2023-01-20 10:49:59.664291,119666375,0,0.04,-0.02,-0.07,0,0,253,25,401,0,0,0,0,0,0
3214,2023-01-20 10:49:59.764251,119766353,0,0.04,-0.02,-0.07,0,0,253,25,401,0,0,0,0,0,0
3253,2023-01-20 10:49:59.864240,119866352,0,0.04,-0.01,-0.07,0,0,253,25,401,0,0,0,0,0,0
3292,2023-01-20 10:49:59.964237,119966354,0,0.04,-0.01,-0.07,0,0,253,25,401,0,0,0,0,0,0
3331,2023-01-20 10:50:00.064254,120066356,0,0.04,-0.01,-0.07,0,0,253,25,401,0,0,0,0,0,0
3371,2023-01-20 10:50:00.164280,120166355,0,0.04,-0.01,-0.07,0,0,253,25,401,0,0,0,0,0,0
3412,2023-01-20 10:50:00.264293,120266363,0,0.04,-0.01,-0.07,0,0,253,25,401,0,0,0,0,0,0
3451,2023-01-20 10:50:00.364270,120366348,0,0.04,-0.01,-0.07,0,0,253,25,401,0,0,0,0,0,0
3491,2023-01-20 10:50:00.464283,120466359,0,0.04,-0.01,-0.07,0,0,253,25,401,0,0,0,0,0,0
3531,2023-01-20 10:50:00.564280,120566349,0,0.04,-0.01,-0.07,0,0,253,25,401,0,0,0,0,0,0
3572,2023-01-20 10:50:00.664271,120666346,0,0.04,-0.01,-0.07,0,0,253,25,401,0,0,0,0,0,0
3613,2023-01-20 10:50:00.764268,120766355,0,0.04,-0.01,-0.07,0,0,253,25,401,0,0,0,0,0,0
3654,2023-01-20 10:50:00.864250,120866353,0,0.04,0,-0.07,0,0,253,25,401,0,0,0,0,0,0
3691,2023-01-20 10:50:00.964226,120966347,0,0.04,0,-0.07,0,0,253,25,401,0,0,0,0,0,0
3723,2023-01-20 10:50:01.064251,121066375,0,0.04,0,-0.07,0,0,253,25,401,0,0,0,0,0,0
3754,2023-01-20 10:50:01.164248,121166365,0,0.04,0,-0.07,0,0,253,25,401,0,0,0,0,0,0
3788,2023-01-20 10:50:01.264210,121266360,0,0.04,0,-0.07,0,0,253,25,401,0,0,0,0,0,0
3819,2023-01-20 10:50:01.364148,121366352,0,0.04,0,-0.07,0,0,253,25,401,0,0,0,0,0,0
3851,2023-01-20 10:50:01.464163,121466353,0,0.04,-0.01,-0.07,0,0,253,25,401,0,0,0,0,0,0
3884,2023-01-20 10:50:01.564214,121566352,0,0.04,-0.01,-0.07,0,0,253,25,401,0,0,0,0,0,0
3917,2023-01-20 10:50:01.664229,121666348,0,0.04,-0.01,-0.07,0,0,253,25,401,0,0,0,0,0,0
3950,2023-01-20 10:50:01.764239,121766356,0,0.04,-0.01,-0.07,0,0,253,25,401,0,0,0,0,0,0
3983,2023-01-20 10:50:01.864187,121866351,0,0.04,0,-0.07,0,0,253,25,401,0,0,0,0,0,0
4015,2023-01-20 10:50:01.964107,121966347,0,0.04,0,-0.07,0,0,253,25,401,0,0,0,0,0,0
4047,2023-01-20 10:50:02.064130,122066355,0,0.04,0,-0.07,0,0,253,25,401,0,0,0,0,0,0
4078,2023-01-20 10:50:02.164194,122166353,0,0.04,0,-0.07,0,0,253,25,401,0,0,0,0,0,0
4112,2023-01-20 10:50:02.264211,122266347,0,0.04,0,-0.07,0,0,253,25,401,0,0,0,0,0,0
4143,2023-01-20 10:50:02.364215,122366353,0,0.04,0,-0.07,0,0,253,25,401,0,0,0,0,0,0
4175,2023-01-20 10:50:02.463957,122466351,0,0.04,0,-0.07,0,0,253,25,401,0,0,0,0,0,0
4208,2023-01-20 10:50:02.563582,122566374,0,0.04,0,-0.07,0,0,253,25,401,0,0,0,0,0,0
4242,2023-01-20 10:50:02.663437,122666351,0,0.04,0,-0.07,0,0,253,25,401,0,0,0,0,0,0
4274,2023-01-20 10:50:02.763489,122766365,0,0.04,0,-0.07,0,0,253,25,401,0,0,0,0,0,0
4308,2023-01-20 10:50:02.863453,122866332,0,0.04,0,-0.07,0,0,253,25,401,0,0,0,0,0,0
4339,2023-01-20 10:50:02.963446,122966350,0,0.04,0,-0.07,0,0,253,25,401,0,0,0,0,0,0
4372,2023-01-20 10:50:03.063464,123066378,0,0.04,0,-0.07,0,0,253,25,401,0,0,0,0,0,0
4402,2023-01-20 10:50:03.163459,123166375,0,0.04,0,-0.07,0,0,253,25,401,0,0,0,0,0,0
4437,2023-01-20 10:50:03.263447,123266360,0,0.04,0.01,-0.07,0,0,253,25,401,0,0,0,0,0,0
4467,2023-01-20 10:50:03.363447,123366355,0,0.04,0.01,-0.07,0,0,253,25,401,0,0,0,0,0,0
4500,2023-01-20 10:50:03.463467,123466364,0,0.04,0.01,-0.07,0,0,253,25,401,0,0,0,0,0,0
4532,2023-01-20 10:50:03.563463,123566347,0,0.04,0.01,-0.07,0,0,253,25,401,0,0,0,0,0,0
4566,2023-01-20 10:50:03.663474,123666355,0,0.04,0.01,-0.07,0,0,253,25,401,0,0,0,0,0,0
4598,2023-01-20 10:50:03.763479,123766364,0,0.04,0.01,-0.07,0,0,253,25,401,0,0,0,0,0,0
4632,2023-01-20 10:50:03.863665,123866353,0,0.03,0.01,-0.07,0,0,253,25,401,0,0,0,0,0,0
4664,2023-01-20 10:50:03.963980,123966357,0,0.03,0.01,-0.07,0,0,253,25,401,0,0,0,0,0,0
4697,2023-01-20 10:50:04.064140,124066362,0,0.04,0,-0.07,0,0,253,25,401,0,0,0,0,0,0
4727,2023-01-20 10:50:04.164192,124166346,0,0.04,0,-0.07,0,0,253,25,401,0,0,0,0,0,0
4762,2023-01-20 10:50:04.264233,124266366,0,0.04,0,-0.07,0,0,253,25,401,0,0,0,0,0,0
4792,2023-01-20 10:50:04.364227,124366364,0,0.04,0,-0.07,0,0,253,25,401,0,0,0,0,0,0
4825,2023-01-20 10:50:04.464185,124466350,0,0.04,0,-0.07,0,0,253,25,401,0,0,0,0,0,0
4858,2023-01-20 10:50:04.564144,124566349,0,0.04,0,-0.07,0,0,253,25,401,0,0,0,0,0,0
4892,2023-01-20 10:50:04.664165,124666357,0,0.04,0,-0.07,0,0,253,25,401,0,0,0,0,0,0
4924,2023-01-20 10:50:04.764212,124766361,0,0.04,0,-0.07,0,0,253,25,401,0,0,0,0,0,0
4958,2023-01-20 10:50:04.864187,124866351,0,0.04,0,-0.06,0,0,253,25,401,0,0,0,0,0,0
4988,2023-01-20 10:50:04.964149,124966361,0,0.04,0,-0.06,0,0,253,25,401,0,0,0,0,0,0
5021,2023-01-20 10:50:05.064161,125066359,0,0.04,0,-0.06,0,0,253,25,401,0,0,0,0,0,0
5051,2023-01-20 10:50:05.164199,125166348,0,0.04,0,-0.06,0,0,253,25,401,0,0,0,0,0,0
5086,2023-01-20 10:50:05.264224,125266359,0,0.04,0,-0.06,0,0,253,25,401,0,0,0,0,0,0
5116,2023-01-20 10:50:05.364216,125366356,0,0.04,0,-0.06,0,0,253,25,401,0,0,0,0,0,0
5149,2023-01-20 10:50:05.464215,125466348,0,0.04,0,-0.06,0,0,253,25,401,0,0,0,0,0,0
5181,2023-01-20 10:50:05.564249,125566368,0,0.04,0,-0.06,0,0,253,25,401,0,0,0,0,0,0
5216,2023-01-20 10:50:05.664237,125666350,0,0.04,0,-0.06,0,0,253,25,401,0,0,0,0,0,0
5248,2023-01-20 10:50:05.764243,125766353,0,0.04,0,-0.06,0,0,253,25,401,0,0,0,0,0,0
5282,2023-01-20 10:50:05.858431,125866372,0,0.04,0,-0.06,0,0,253,25,401,0,0,0,0,0,0
5312,2023-01-20 10:50:05.949344,125966358,0,0.04,0,-0.06,0,0,253,25,401,0,0,0,0,0,0
5345,2023-01-20 10:50:06.044301,126066355,0,0.04,0,-0.06,0,0,253,25,401,0,0,0,0,0,0
5375,2023-01-20 10:50:06.144339,126166357,0,0.04,0,-0.06,0,0,253,25,401,0,0,0,0,0,0
5410,2023-01-20 10:50:06.243805,126266351,0,0.04,0,-0.06,0,0,253,25,401,0,0,0,0,0,0
5442,2023-01-20 10:50:06.342574,126366355,0,0.04,0,-0.06,0,0,253,25,401,0,0,0,0,0,0
5475,2023-01-20 10:50:06.441850,126466354,0,0.04,0,-0.06,0,0,263,26,386,-10,3,-15,0,0,0
5507,2023-01-20 10:50:06.541842,126566358,0,0.04,0,-0.06,0,0,265,26,380,-11,5,-21,0,0,0
5541,2023-01-20 10:50:06.641816,126666366,0,0.04,0,-0.06,0,0,267,26,375,-12,7,-25,0,0,0
5573,2023-01-20 10:50:06.741744,126766358,0,0.04,0,-0.06,0,0,268,26,373,-13,8,-27,0,0,0
5607,2023-01-20 10:50:06.841663,126866352,0,0.04,0,-0.06,0,0,267,25,371,-12,9,-28,0,0,0
5637,2023-01-20 10:50:06.941588,126966367,0,0.04,0,-0.06,0,0,267,25,371,-12,9,-29,0,0,0
5670,2023-01-20 10:50:07.041525,127066363,0,0.04,0,-0.06,0,0,267,25,371,-12,9,-29,0,0,0
5700,2023-01-20 10:50:07.141493,127166349,0,0.04,0,-0.06,0,0,267,25,371,-12,9,-29,0,0,0
5735,2023-01-20 10:50:07.241509,127266350,0,0.04,0,-0.06,0,0,267,26,371,-13,8,-29,0,0,0
5765,2023-01-20 10:50:07.341577,127366355,0,0.04,0,-0.06,0,0,268,26,371,-13,8,-29,0,0,0
5798,2023-01-20 10:50:07.441568,127466345,0,0.04,0,-0.06,0,0,268,26,371,-13,9,-28,0,0,0
5830,2023-01-20 10:50:07.541490,127566353,0,0.04,0,-0.06,0,0,268,26,371,-13,9,-29,0,0,0
5864,2023-01-20 10:50:07.646106,127666349,0,0.04,0,-0.05,0,0,269,26,371,-13,11,-29,0,0,0
5896,2023-01-20 10:50:07.757380,127766350,0,0.04,0,-0.05,0,0,269,26,371,-13,11,-29,0,0,0
5930,2023-01-20 10:50:07.856015,127866352,0,0.05,0,-0.05,0,0,269,26,371,-13,12,-29,0,0,0
5961,2023-01-20 10:50:07.946816,127966367,0,0.05,0,-0.05,0,0,269,26,372,-13,12,-29,0,0,0
5995,2023-01-20 10:50:08.041395,128066351,0,0.04,0,-0.05,0,0,270,26,371,-13,13,-29,0,0,0
6025,2023-01-20 10:50:08.141378,128166352,0,0.04,0,-0.05,0,0,270,26,371,-14,13,-29,0,0,0
6060,2023-01-20 10:50:08.241381,128266349,0,0.04,0,-0.05,0,0,270,26,371,-14,13,-29,0,0,0
6090,2023-01-20 10:50:08.341429,128366354,0,0.04,0,-0.05,0,0,271,26,371,-14,13,-29,0,0,0
6123,2023-01-20 10:50:08.441443,128466347,0,0.05,0,-0.05,0,0,271,26,372,-14,14,-29,0,0,0
6155,2023-01-20 10:50:08.541451,128566361,0,0.05,0,-0.05,0,0,271,26,372,-14,14,-29,0,0,0
6189,2023-01-20 10:50:08.641444,128666362,0,0.05,0,-0.05,0,0,271,26,373,-14,15,-29,0,0,0
6221,2023-01-20 10:50:08.741436,128766362,0,0.05,0,-0.05,0,0,271,26,373,-14,15,-29,0,0,0
6255,2023-01-20 10:50:08.841466,128866356,0,0.05,0,-0.05,0,0,271,26,373,-14,15,-29,0,0,0
6288,2023-01-20 10:50:08.941560,128966352,0,0.05,0,-0.05,0,0,271,26,374,-14,16,-29,0,0,0
6321,2023-01-20 10:50:09.041633,129066352,0,0.05,0,-0.05,0,0,271,26,374,-14,16,-29,0,0,0
6351,2023-01-20 10:50:09.141672,129166352,0,0.05,0,-0.05,0,0,271,26,373,-14,16,-29,0,0,0
6386,2023-01-20 10:50:09.241616,129266349,0,0.05,0,-0.05,0,0,271,26,373,-14,16,-30,0,0,0
6416,2023-01-20 10:50:09.341455,129366368,0,0.05,0,-0.05,0,0,271,26,373,-14,16,-30,0,0,0
6449,2023-01-20 10:50:09.441128,129466653,0,0.05,0,-0.05,0,0,271,26,373,-13,16,-30,0,0,0
6481,2023-01-20 10:50:09.539901,129566645,0,0.05,0,-0.04,0,0,272,26,373,-13,16,-30,0,0,0
6515,2023-01-20 10:50:09.639155,129666642,0,0.05,0,-0.04,0,0,272,26,372,-12,17,-30,0,0,0
6547,2023-01-20 10:50:09.739153,129766641,0,0.05,0,-0.04,0,0,272,26,372,-11,17,-30,0,0,0
6581,2023-01-20 10:50:09.839145,129866643,0,0.05,0,-0.04,0,0,274,26,372,-10,17,-30,0,0,0
6612,2023-01-20 10:50:09.939125,129966645,0,0.05,0,-0.04,0,0,274,27,372,-9,17,-30,0,0,0
6645,2023-01-20 10:50:10.039118,130066641,0,0.05,0,-0.04,0,0,275,27,371,-8,16,-30,0,0,0
6675,2023-01-20 10:50:10.139156,130166654,0,0.05,0,-0.04,0,0,275,27,371,-7,16,-30,0,0,0
6710,2023-01-20 10:50:10.239059,130266643,0,0.05,0,-0.04,0,0,276,27,371,-7,16,-30,0,0,0
6740,2023-01-20 10:50:10.338820,130366663,0,0.05,0,-0.04,0,0,276,27,370,-7,16,-30,0,0,0
6773,2023-01-20 10:50:10.438985,130466996,0,0.05,0,-0.04,0,0,277,27,370,-5,16,-30,0,0,0
6805,2023-01-20 10:50:10.538961,130567000,0,0.05,0,-0.04,0,0,277,27,370,-5,16,-30,0,0,0
6839,2023-01-20 10:50:10.638947,130667009,0,0.05,0,-0.04,0,0,277,27,370,-4,17,-30,0,0,0
6871,2023-01-20 10:50:10.738916,130766996,0,0.05,0,-0.04,0,0,277,27,370,-4,17,-30,0,0,0
6905,2023-01-20 10:50:10.838875,130867000,0,0.05,0,-0.04,0,0,277,27,370,-4,17,-30,0,0,0
6935,2023-01-20 10:50:10.938795,130967009,0,0.05,0,-0.03,0,0,277,27,371,-3,18,-31,0,0,0
6968,2023-01-20 10:50:11.038765,131067000,0,0.05,0,-0.03,0,0,277,27,371,-4,18,-31,0,0,0
6998,2023-01-20 10:50:11.138863,131167011,0,0.05,0,-0.03,0,0,277,27,372,-4,18,-32,0,0,0
7034,2023-01-20 10:50:11.238911,131267009,0,0.05,0,-0.03,0,0,277,27,371,-4,19,-32,0,0,0
7064,2023-01-20 10:50:11.338917,131367022,0,0.05,0,-0.03,0,0,277,27,372,-4,19,-32,0,0,0
7097,2023-01-20 10:50:11.438890,131466996,0,0.05,0,-0.03,0,0,276,27,371,-5,18,-31,0,0,0
7128,2023-01-20 10:50:11.538900,131567001,0,0.05,0.01,-0.03,0,0,276,27,371,-5,18,-31,0,0,0
7162,2023-01-20 10:50:11.638903,131667000,0,0.05,0.01,-0.03,0,0,276,27,372,-5,18,-32,0,0,0
7194,2023-01-20 10:50:11.738897,131766995,0,0.05,0.01,-0.03,0,0,276,27,371,-5,18,-31,0,0,0
7228,2023-01-20 10:50:11.838873,131867000,0,0.05,0.01,-0.03,0,0,276,27,371,-5,18,-31,0,0,0
7258,2023-01-20 10:50:11.938798,131967000,0,0.05,0.01,-0.03,0,0,276,27,371,-4,18,-31,0,0,0
7291,2023-01-20 10:50:12.038782,132066999,0,0.05,0.01,-0.03,0,0,276,27,370,-4,18,-31,0,0,0
7321,2023-01-20 10:50:12.138860,132166996,0,0.05,0.01,-0.03,0,0,276,27,370,-4,18,-30,0,0,0
7356,2023-01-20 10:50:12.238930,132267017,0,0.05,0.01,-0.02,0,0,277,27,370,-3,19,-30,0,0,0
7386,2023-01-20 10:50:12.338937,132367028,0,0.05,0.01,-0.02,0,0,277,27,369,-3,18,-30,0,0,0
7419,2023-01-20 10:50:12.438899,132466995,0,0.04,0.01,-0.02,0,0,277,27,369,-2,19,-30,0,0,0
7451,2023-01-20 10:50:12.538897,132567000,0,0.04,0.01,-0.02,0,0,277,27,369,-2,19,-30,0,0,0
7485,2023-01-20 10:50:12.638896,132667000,0,0.04,0.01,-0.02,0,0,277,27,369,-3,18,-30,0,0,0
7517,2023-01-20 10:50:12.738907,132767000,0,0.04,0.01,-0.02,0,0,277,27,369,-2,18,-30,0,0,0
7551,2023-01-20 10:50:12.838894,132867010,0,0.04,0.01,-0.02,0,0,277,27,369,-2,19,-30,0,0,0
7581,2023-01-20 10:50:12.938811,132967000,0,0.04,0.01,-0.02,0,0,277,27,369,-2,19,-30,0,0,0
7615,2023-01-20 10:50:13.038794,133066999,0,0.04,0.01,-0.02,0,0,277,27,369,-2,19,-30,0,0,0
7645,2023-01-20 10:50:13.138870,133167001,0,0.04,0.01,-0.02,0,0,277,27,369,-2,19,-30,0,0,0
7680,2023-01-20 10:50:13.238913,133267000,0,0.04,0.01,-0.02,0,0,277,27,369,-1,20,-30,0,0,0
7710,2023-01-20 10:50:13.338930,133367020,0,0.04,0.01,-0.02,0,0,277,27,369,-1,20,-30,0,0,0
7743,2023-01-20 10:50:13.438904,133466996,0,0.04,0.02,-0.02,0,0,277,27,369,-1,20,-30,0,0,0
7775,2023-01-20 10:50:13.538909,133567000,0,0.04,0.02,-0.01,0,0,277,27,369,-1,20,-30,0,0,0
7809,2023-01-20 10:50:13.638903,133666995,0,0.04,0.02,-0.01,0,0,277,27,369,-1,21,-30,0,0,0
7841,2023-01-20 10:50:13.738905,133766998,0,0.04,0.02,-0.01,0,0,277,27,369,-1,20,-30,0,0,0
7875,2023-01-20 10:50:13.838880,133867006,0,0.04,0.02,-0.01,0,0,276,27,369,-2,20,-30,0,0,0
7907,2023-01-20 10:50:13.938794,133967003,0,0.04,0.02,-0.01,0,0,276,27,369,-2,20,-30,0,0,0
7940,2023-01-20 10:50:14.038783,134067014,0,0.04,0.02,-0.01,0,0,276,27,369,-2,20,-30,0,0,0
7970,2023-01-20 10:50:14.138845,134167003,0,0.04,0.02,-0.01,0,0,276,27,369,-3,20,-30,0,0,0
8005,2023-01-20 10:50:14.238890,134267000,0,0.04,0.02,-0.01,0,0,276,27,369,-2,20,-30,0,0,0
8035,2023-01-20 10:50:14.338900,134367002,0,0.04,0.02,-0.01,0,0,276,27,369,-2,20,-30,0,0,0
8068,2023-01-20 10:50:14.438902,134467000,0,0.04,0.02,-0.01,0,0,276,27,370,-3,21,-30,0,0,0
8101,2023-01-20 10:50:14.538904,134567002,0,0.04,0.02,-0.01,0,0,276,27,370,-3,20,-30,0,0,0
8135,2023-01-20 10:50:14.638898,134666996,0,0.04,0.02,-0.01,0,0,276,27,371,-4,19,-30,0,0,0
8167,2023-01-20 10:50:14.738902,134767000,0,0.04,0.02,-0.01,0,0,276,27,371,-4,19,-31,0,0,0
8201,2023-01-20 10:50:14.838871,134867002,0,0.04,0.02,-0.01,0,0,276,27,371,-4,20,-31,0,0,0
8231,2023-01-20 10:50:14.938800,134967015,0,0.04,0.02,-0.01,0,0,275,27,372,-5,20,-31,0,0,0
8264,2023-01-20 10:50:15.038758,135066999,0,0.04,0.02,-0.01,0,0,275,27,372,-5,19,-31,0,0,0
8294,2023-01-20 10:50:15.138827,135167003,0,0.04,0.02,-0.01,0,0,275,27,372,-5,20,-31,0,0,0
8329,2023-01-20 10:50:15.238872,135267000,0,0.04,0.02,-0.01,0,0,275,27,373,-6,19,-32,0,0,0
8359,2023-01-20 10:50:15.338903,135367011,0,0.04,0.02,-0.01,0,0,275,27,373,-6,19,-32,0,0,0
8392,2023-01-20 10:50:15.438903,135467000,0,0.04,0.02,0,0,0,275,26,373,-6,19,-32,0,0,0
8424,2023-01-20 10:50:15.538903,135567003,0,0.04,0.03,0,0,0,274,26,373,-6,20,-32,0,0,0
8458,2023-01-20 10:50:15.638904,135667005,0,0.03,0.03,0,0,0,274,26,373,-6,19,-32,0,0,0
8490,2023-01-20 10:50:15.738904,135767003,0,0.03,0.03,0,0,0,274,26,373,-7,19,-32,0,0,0
8524,2023-01-20 10:50:15.838910,135867019,0,0.03,0.03,0,0,0,274,26,373,-7,19,-32,0,0,0
8554,2023-01-20 10:50:15.938862,135967002,0,0.03,0.03,0,0,0,274,26,373,-7,20,-32,0,0,0
8587,2023-01-20 10:50:16.038868,136067015,0,0.03,0.03,0,0,0,274,26,373,-7,19,-32,0,0,0
8617,2023-01-20 10:50:16.138900,136167016,0,0.03,0.03,0,0,0,274,26,373,-7,19,-31,0,0,0
8652,2023-01-20 10:50:16.238878,136266996,0,0.03,0.02,0,0,0,274,26,373,-7,19,-32,0,0,0
8682,2023-01-20 10:50:16.338825,136366998,0,0.03,0.02,0,0,0,273,26,373,-7,20,-32,0,0,0
8715,2023-01-20 10:50:16.438816,136466999,0,0.03,0.02,0,0,0,272,26,373,-8,21,-31,0,0,0
8747,2023-01-20 10:50:16.538872,136566998,0,0.03,0.02,0,0,0,270,26,373,-9,22,-31,0,0,0
8781,2023-01-20 10:50:16.638904,136666995,0,0.03,0.02,0,0,0,269,26,373,-10,23,-31,0,0,0
8813,2023-01-20 10:50:16.738914,136767007,0,0.03,0.02,0,0,0,267,26,373,-12,24,-31,0,0,0
8847,2023-01-20 10:50:16.838906,136867010,0,0.03,0.02,0,0,0,266,26,373,-13,23,-31,0,0,0
8877,2023-01-20 10:50:16.938875,136967003,0,0.03,0.02,0,0,0,265,26,373,-14,25,-31,0,0,0
8910,2023-01-20 10:50:17.038871,137067002,0,0.03,0.02,0,0,0,264,26,372,-15,26,-30,0,0,0
8940,2023-01-20 10:50:17.138909,137167011,0,0.03,0.02,0,0,0,262,25,372,-16,27,-30,0,0,0
8975,2023-01-20 10:50:17.238929,137267017,0,0.03,0.02,0,0,0,260,25,372,-17,29,-30,0,0,0
9005,2023-01-20 10:50:17.338923,137367020,0,0.03,0.02,0,0,0,258,25,372,-17,32,-29,0,0,0
9038,2023-01-20 10:50:17.438910,137467008,0,0.02,0.02,0,0,0,258,25,372,-18,31,-29,0,0,0
9070,2023-01-20 10:50:17.538911,137566998,0,0.02,0.02,0,0,0,256,25,371,-19,33,-29,0,0,0
9104,2023-01-20 10:50:17.638915,137666995,0,0.02,0.02,0,0,0,255,25,371,-20,34,-29,0,0,0
9136,2023-01-20 10:50:17.738930,137767012,0,0.02,0.02,0,0,0,254,25,371,-20,35,-29,0,0,0
9170,2023-01-20 10:50:17.835450,137866999,0,0.02,0.02,0,0,0,253,25,371,-20,37,-29,0,0,0
9200,2023-01-20 10:50:17.926548,137967004,0,0.02,0.02,0,0,0,253,25,371,-20,38,-29,0,0,0
9233,2023-01-20 10:50:18.021482,138067027,0,0.01,0.02,0,0,0,253,25,371,-20,39,-29,0,0,0
9264,2023-01-20 10:50:18.132253,138167002,0,0.01,0.02,0,0,0,253,25,371,-19,39,-29,0,0,0
9299,2023-01-20 10:50:18.238871,138267001,0,0.01,0.02,0,0,0,253,25,371,-19,40,-29,0,0,0
9329,2023-01-20 10:50:18.338922,138367012,0,0.01,0.02,0,0,0,253,25,371,-19,40,-29,0,0,0
9362,2023-01-20 10:50:18.435470,138466999,0,0,0.02,0,0,0,252,25,371,-19,41,-28,0,0,0
9394,2023-01-20 10:50:18.526576,138567002,0,0,0.02,0,0,0,252,25,371,-19,41,-28,0,0,0
9428,2023-01-20 10:50:18.619396,138667000,0,0,0.02,0,0,0,251,25,371,-19,42,-28,0,0,0
9460,2023-01-20 10:50:18.719379,138767017,0,0,0.02,0,0,0,251,25,372,-19,42,-28,0,0,0
9494,2023-01-20 10:50:18.819326,138866998,0,0,0.02,0,0,0,250,25,372,-20,43,-28,0,0,0
9526,2023-01-20 10:50:18.919290,138966998,0,0,0.02,0,0,0,250,25,372,-20,43,-28,0,0,0
9559,2023-01-20 10:50:19.019273,139067003,0,0,0.02,0,0,0,249,25,372,-20,43,-28,0,0,0
9589,2023-01-20 10:50:19.119303,139166998,0,0,0.02,0,0,0,249,25,372,-20,44,-28,0,0,0
9624,2023-01-20 10:50:19.219324,139266995,0,-0.01,0.02,0,0,0,249,25,372,-20,45,-28,0,0,0
9654,2023-01-20 10:50:19.319306,139367002,0,-0.01,0.02,0,0,0,249,25,372,-20,45,-28,0,0,0
9687,2023-01-20 10:50:19.419272,139466999,0,-0.01,0.02,0,0,0,249,25,372,-20,45,-28,0,0,0
9719,2023-01-20 10:50:19.519240,139567020,0,-0.01,0.02,0,0,0,248,25,372,-20,46,-28,0,0,0
9753,2023-01-20 10:50:19.619174,139666998,0,-0.02,0.02,0,0,0,248,25,372,-20,46,-28,0,0,0
9785,2023-01-20 10:50:19.719173,139766999,0,-0.02,0.02,0,0,0,248,25,372,-20,46,-28,0,0,0
9819,2023-01-20 10:50:19.819166,139866997,0,-0.02,0.02,0,0,0,248,25,372,-20,46,-28,0,0,0
9849,2023-01-20 10:50:19.919157,139967005,0,-0.02,0.02,0,0,0,248,25,372,-20,46,-28,0,0,0
9882,2023-01-20 10:50:20.019142,140067002,0,-0.02,0.01,0,0,0,247,25,373,-20,46,-28,0,0,0
9912,2023-01-20 10:50:20.119149,140166999,0,-0.02,0.01,0,0,0,247,25,373,-20,46,-28,0,0,0
9947,2023-01-20 10:50:20.219164,140266994,0,-0.03,0.01,0,0,0,247,25,373,-21,46,-28,0,0,0
9980,2023-01-20 10:50:20.319240,140367006,0,-0.03,0.01,0,0,0,247,25,373,-21,46,-28,0,0,0
10013,2023-01-20 10:50:20.419280,140466995,0,-0.03,0.01,0,0,0,247,25,373,-20,47,-28,0,0,0
10045,2023-01-20 10:50:20.519280,140566999,0,-0.03,0.01,0,0,0,247,25,373,-20,47,-28,0,0,0
10079,2023-01-20 10:50:20.619284,140667000,0,-0.03,0.01,0.01,0,0,246,25,373,-21,47,-28,0,0,0
10111,2023-01-20 10:50:20.719325,140767003,0,-0.03,0.01,0.01,0,0,246,25,373,-21,47,-28,0,0,0
10145,2023-01-20 10:50:20.819329,140866999,0,-0.03,0.01,0.01,0,0,246,25,373,-21,47,-28,0,0,0
10175,2023-01-20 10:50:20.919219,140967008,0,-0.03,0.01,0.01,0,0,246,25,373,-21,47,-28,0,0,0
10208,2023-01-20 10:50:21.019128,141067002,0,-0.04,0.01,0.01,0,0,246,25,373,-21,47,-28,0,0,0
10238,2023-01-20 10:50:21.119177,141166996,0,-0.04,0.01,0.01,0,0,246,25,373,-21,47,-28,0,0,0
10273,2023-01-20 10:50:21.219234,141267013,0,-0.04,0.01,0.01,0,0,246,24,373,-21,47,-28,0,0,0
10303,2023-01-20 10:50:21.319208,141367011,0,-0.04,0.01,0.01,0,0,245,24,373,-21,47,-28,0,0,0
10336,2023-01-20 10:50:21.419179,141466995,0,-0.04,0.01,0.01,0,0,245,24,373,-21,47,-28,0,0,0
10368,2023-01-20 10:50:21.519221,141567001,0,-0.04,0.01,0.01,0,0,245,24,373,-21,47,-28,0,0,0
10402,2023-01-20 10:50:21.619237,141667000,0,-0.05,0.01,0.01,0,0,245,24,373,-21,48,-28,0,0,0
10434,2023-01-20 10:50:21.719181,141767005,0,-0.05,0.01,0.01,0,0,245,24,373,-21,48,-28,0,0,0
10468,2023-01-20 10:50:21.819121,141866998,0,-0.05,0,0.01,0,0,245,24,373,-21,48,-28,0,0,0
10498,2023-01-20 10:50:21.919116,141967006,0,-0.05,0,0.01,0,0,245,24,373,-22,48,-28,0,0,0
10531,2023-01-20 10:50:22.019107,142066998,0,-0.05,0.01,0.01,0,0,244,24,373,-22,48,-28,0,0,0
10561,2023-01-20 10:50:22.119158,142166999,0,-0.05,0.01,0.01,0,0,244,24,373,-22,48,-28,0,0,0
10596,2023-01-20 10:50:22.219192,142266999,0,-0.05,0.01,0.01,0,0,244,24,373,-22,49,-28,0,0,0
10626,2023-01-20 10:50:22.319180,142367022,0,-0.05,0.01,0.01,0,0,244,24,373,-22,49,-28,0,0,0
10659,2023-01-20 10:50:22.419134,142466995,0,-0.05,0.01,0.01,0,0,244,24,372,-22,49,-28,0,0,0
10691,2023-01-20 10:50:22.519187,142567002,0,-0.05,0.01,0.01,0,0,243,24,372,-22,49,-28,0,0,0
10725,2023-01-20 10:50:22.619219,142666999,0,-0.05,0,0.01,0,0,243,24,372,-23,49,-28,0,0,0
10757,2023-01-20 10:50:22.719202,142766999,0,-0.05,0,0.01,0,0,243,24,372,-23,49,-28,0,0,0
10791,2023-01-20 10:50:22.819185,142867002,0,-0.06,0,0.01,0,0,243,24,371,-23,49,-27,0,0,0
10821,2023-01-20 10:50:22.919154,142967003,0,-0.06,0,0.01,0,0,242,24,369,-24,49,-25,0,0,0
10854,2023-01-20 10:50:23.019150,143067014,0,-0.06,0,0.01,0,0,242,24,369,-24,49,-25,0,0,0
10884,2023-01-20 10:50:23.119206,143167019,0,-0.06,0,0.01,0,0,242,24,368,-24,49,-24,0,0,0
10920,2023-01-20 10:50:23.219222,143266999,0,-0.06,0,0.01,0,0,242,24,367,-24,49,-23,0,0,0
10950,2023-01-20 10:50:23.319196,143367002,0,-0.06,0,0.01,0,0,242,24,366,-25,49,-22,0,0,0
10983,2023-01-20 10:50:23.419168,143466995,0,-0.06,0,0.01,0,0,241,24,365,-25,49,-21,0,0,0
11015,2023-01-20 10:50:23.519189,143567002,0,-0.06,0,0.01,0,0,241,24,364,-25,49,-21,0,0,0
11049,2023-01-20 10:50:23.619204,143667008,0,-0.06,0,0.01,0,0,241,24,363,-26,49,-20,0,0,0
11081,2023-01-20 10:50:23.719177,143766995,0,-0.06,0,0.01,0,0,241,24,363,-26,49,-20,0,0,0
11115,2023-01-20 10:50:23.819170,143867002,0,-0.06,0,0.01,0,0,241,25,363,-26,49,-20,0,0,0
11148,2023-01-20 10:50:23.919178,143967027,0,-0.06,0,0.01,0,0,240,25,363,-26,49,-20,0,0,0
11181,2023-01-20 10:50:24.019161,144067011,0,-0.06,0,0.01,0,0,240,25,362,-26,50,-19,0,0,0
11211,2023-01-20 10:50:24.119210,144166999,0,-0.06,0,0.01,0,0,240,25,361,-27,50,-19,0,0,0
11246,2023-01-20 10:50:24.219257,144267008,0,-0.05,0,0.01,0,0,240,25,362,-27,49,-19,0,0,0
11276,2023-01-20 10:50:24.319185,144366998,0,-0.05,0,0.02,0,0,240,25,361,-27,49,-19,0,0,0
11309,2023-01-20 10:50:24.419144,144466995,0,-0.05,0,0.02,0,0,240,25,362,-27,50,-20,0,0,0
11342,2023-01-20 10:50:24.519226,144567011,0,-0.05,0,0.02,0,0,240,25,361,-27,50,-19,0,0,0
11377,2023-01-20 10:50:24.619247,144666995,0,-0.05,0,0.02,0,0,240,24,361,-27,50,-19,0,0,0
11409,2023-01-20 10:50:24.719166,144766995,0,-0.05,0,0.02,0,0,240,24,361,-27,50,-20,0,0,0
11443,2023-01-20 10:50:24.819116,144867011,0,-0.05,0,0.02,0,0,240,25,362,-27,50,-21,0,0,0
11474,2023-01-20 10:50:24.919108,144967002,0,-0.05,0,0.02,0,0,240,25,363,-26,50,-22,0,0,0
11507,2023-01-20 10:50:25.019109,145066998,0,-0.05,0,0.02,0,0,240,24,363,-26,50,-22,0,0,0
11537,2023-01-20 10:50:25.119153,145167012,0,-0.05,0,0.02,0,0,240,25,364,-26,50,-23,0,0,0
11573,2023-01-20 10:50:25.219168,145267005,0,-0.05,0,0.02,0,0,241,25,364,-26,50,-23,0,0,0
11603,2023-01-20 10:50:25.319158,145367001,0,-0.05,0,0.02,0,0,241,25,363,-26,50,-23,0,0,0
11636,2023-01-20 10:50:25.419162,145467007,0,-0.04,-0.01,0.02,0,0,242,25,362,-25,50,-22,0,0,0
11668,2023-01-20 10:50:25.519176,145567008,0,-0.04,-0.01,0.02,0,0,243,25,359,-25,50,-19,0,0,0
11702,2023-01-20 10:50:25.619174,145666997,0,-0.04,-0.01,0.02,0,0,243,25,356,-24,50,-16,0,0,0
11734,2023-01-20 10:50:25.719171,145767007,0,-0.04,-0.01,0.02,0,0,244,25,353,-24,50,-13,0,0,0
11767,2023-01-20 10:50:25.819156,145867007,0,-0.04,-0.01,0.02,0,0,244,25,352,-23,50,-11,0,0,0
11799,2023-01-20 10:50:25.919123,145966998,0,-0.04,-0.01,0.02,0,0,244,25,352,-23,50,-10,0,0,0
11832,2023-01-20 10:50:26.019112,146066999,0,-0.04,-0.01,0.02,0,0,244,25,352,-23,50,-10,0,0,0
11862,2023-01-20 10:50:26.119153,146167002,0,-0.04,-0.01,0.02,0,0,244,25,352,-23,50,-11,0,0,0
11897,2023-01-20 10:50:26.219173,146266999,0,-0.04,-0.01,0.02,0,0,244,25,352,-23,50,-11,0,0,0
11927,2023-01-20 10:50:26.319138,146367000,0,-0.04,-0.01,0.02,0,0,244,25,352,-23,50,-10,0,0,0
11960,2023-01-20 10:50:26.419113,146466998,0,-0.04,-0.01,0.02,0,0,244,25,353,-23,50,-12,0,0,0
11992,2023-01-20 10:50:26.519163,146567018,0,-0.04,-0.01,0.02,0,0,244,25,354,-23,50,-12,0,0,0
12026,2023-01-20 10:50:26.619179,146667011,0,-0.04,-0.01,0.02,0,0,244,25,355,-24,50,-13,0,0,0
12058,2023-01-20 10:50:26.719165,146767002,0,-0.04,-0.01,0.02,0,0,243,25,356,-24,50,-14,0,0,0
12091,2023-01-20 10:50:26.819160,146867006,0,-0.04,-0.01,0.02,0,0,243,25,357,-24,50,-15,0,0,0
12122,2023-01-20 10:50:26.919128,146966998,0,-0.04,-0.01,0.02,0,0,243,25,358,-25,50,-17,0,0,0
12155,2023-01-20 10:50:27.019115,147067003,0,-0.04,-0.01,0.02,0,0,242,25,359,-25,50,-18,0,0,0
12185,2023-01-20 10:50:27.119123,147167002,0,-0.04,-0.01,0.02,0,0,242,25,360,-25,50,-18,0,0,0
12220,2023-01-20 10:50:27.219127,147266995,0,-0.04,-0.01,0.02,0,0,242,25,360,-26,50,-18,0,0,0
12250,2023-01-20 10:50:27.319146,147367000,0,-0.04,-0.01,0.02,0,0,241,25,361,-26,50,-19,0,0,0
12283,2023-01-20 10:50:27.417458,147467020,0,-0.04,-0.01,0.02,0,0,241,25,361,-26,50,-19,0,0,0
12315,2023-01-20 10:50:27.508476,147567008,0,-0.04,-0.01,0.02,0,0,241,25,361,-26,50,-19,0,0,0
12349,2023-01-20 10:50:27.599494,147666995,0,-0.04,-0.01,0.02,0,0,240,25,362,-26,50,-20,0,0,0
12381,2023-01-20 10:50:27.699444,147767002,0,-0.05,-0.01,0.02,0,0,240,25,363,-27,50,-21,0,0,0
12414,2023-01-20 10:50:27.799435,147867001,0,-0.05,-0.01,0.02,0,0,240,25,363,-27,50,-21,0,0,0
12446,2023-01-20 10:50:27.899368,147966998,0,-0.05,-0.01,0.02,0,0,240,25,364,-27,50,-22,0,0,0
12479,2023-01-20 10:50:27.999305,148066999,0,-0.05,-0.01,0.02,0,0,239,25,364,-27,50,-22,0,0,0
12509,2023-01-20 10:50:28.099333,148167002,0,-0.05,-0.01,0.02,0,0,239,25,364,-27,50,-22,0,0,0
12544,2023-01-20 10:50:28.199356,148267000,0,-0.05,-0.01,0.02,0,0,239,25,365,-28,50,-23,0,0,0
12575,2023-01-20 10:50:28.299409,148367028,0,-0.05,-0.01,0.02,0,0,239,25,365,-28,50,-23,0,0,0
12608,2023-01-20 10:50:28.399425,148467019,0,-0.05,-0.01,0.02,0,0,239,25,366,-28,50,-23,0,0,0
12640,2023-01-20 10:50:28.510302,148566998,0,-0.05,-0.01,0.02,0,0,238,25,366,-28,50,-24,0,0,0
12674,2023-01-20 10:50:28.617436,148666995,0,-0.05,-0.01,0.02,0,0,238,25,366,-28,50,-24,0,0,0
12706,2023-01-20 10:50:28.708443,148767002,0,-0.05,-0.01,0.02,0,0,238,25,367,-28,51,-24,0,0,0
12739,2023-01-20 10:50:28.799439,148866998,0,-0.05,-0.01,0.02,0,0,238,25,367,-28,51,-24,0,0,0
12772,2023-01-20 10:50:28.899272,148966999,0,-0.05,-0.01,0.02,0,0,238,25,367,-28,51,-25,0,0,0
12805,2023-01-20 10:50:28.999158,149066999,0,-0.05,-0.01,0.02,0,0,238,25,367,-28,51,-25,0,0,0
12835,2023-01-20 10:50:29.099230,149167018,0,-0.05,-0.01,0.02,0,0,238,26,368,-29,51,-25,0,0,0
12871,2023-01-20 10:50:29.199267,149267001,0,-0.05,-0.01,0.02,0,0,238,26,368,-29,51,-25,0,0,0
12901,2023-01-20 10:50:29.299217,149367015,0,-0.05,-0.01,0.02,0,0,237,25,368,-29,51,-26,0,0,0
12934,2023-01-20 10:50:29.399160,149467023,0,-0.05,-0.01,0.02,0,0,237,25,368,-29,51,-26,0,0,0
12966,2023-01-20 10:50:29.499153,149566998,0,-0.05,-0.01,0.02,0,0,237,25,368,-29,51,-26,0,0,0
13000,2023-01-20 10:50:29.599173,149666998,0,-0.05,-0.01,0.02,0,0,237,25,369,-29,51,-26,0,0,0
13032,2023-01-20 10:50:29.699169,149767003,0,-0.05,-0.01,0.02,0,0,237,25,369,-29,51,-26,0,0,0
13065,2023-01-20 10:50:29.799155,149866998,0,-0.05,-0.01,0.02,0,0,237,25,369,-29,51,-26,0,0,0
13096,2023-01-20 10:50:29.899134,149966999,0,-0.05,-0.01,0.02,0,0,237,26,369,-29,51,-26,0,0,0
13129,2023-01-20 10:50:29.999113,150067001,0,-0.05,-0.01,0.02,0,0,237,26,369,-29,51,-26,0,0,0
13159,2023-01-20 10:50:30.099144,150166998,0,-0.05,-0.01,0.02,0,0,237,26,369,-29,51,-26,0,0,0
13194,2023-01-20 10:50:30.199175,150266995,0,-0.05,-0.01,0.02,0,0,237,26,369,-29,51,-26,0,0,0
13224,2023-01-20 10:50:30.299201,150367020,0,-0.05,-0.01,0.02,0,0,237,25,369,-29,51,-27,0,0,0
13257,2023-01-20 10:50:30.399197,150467015,0,-0.05,-0.01,0.02,0,0,236,25,369,-29,51,-27,0,0,0
13289,2023-01-20 10:50:30.499176,150566999,0,-0.05,-0.01,0.02,0,0,236,25,369,-29,51,-27,0,0,0
13323,2023-01-20 10:50:30.599179,150667008,0,-0.05,-0.01,0.02,0,0,236,25,369,-29,51,-27,0,0,0
13356,2023-01-20 10:50:30.699171,150767002,0,-0.05,-0.01,0.02,0,0,236,26,370,-30,51,-27,0,0,0
13389,2023-01-20 10:50:30.799165,150866998,0,-0.05,-0.01,0.02,0,0,236,26,370,-30,51,-27,0,0,0
13420,2023-01-20 10:50:30.899136,150967002,0,-0.05,-0.01,0.02,0,0,236,26,370,-30,51,-27,0,0,0
13453,2023-01-20 10:50:30.999107,151067007,0,-0.05,-0.01,0.02,0,0,236,26,370,-30,51,-27,0,0,0
13483,2023-01-20 10:50:31.099185,151166998,0,-0.05,-0.01,0.02,0,0,236,26,370,-30,51,-28,0,0,0
13518,2023-01-20 10:50:31.199270,151266995,0,-0.05,-0.01,0.02,0,0,236,26,370,-30,51,-28,0,0,0
13548,2023-01-20 10:50:31.299237,151367011,0,-0.05,-0.01,0.02,0,0,236,26,370,-30,51,-28,0,0,0
13581,2023-01-20 10:50:31.399178,151467001,0,-0.05,-0.01,0.02,0,0,236,26,370,-30,51,-28,0,0,0
13613,2023-01-20 10:50:31.499176,151567019,0,-0.05,-0.01,0.02,0,0,236,26,370,-30,52,-28,0,0,0
13646,2023-01-20 10:50:31.599145,151667008,0,-0.05,-0.01,0.02,0,0,236,26,370,-30,52,-28,0,0,0
13679,2023-01-20 10:50:31.699149,151766999,0,-0.05,-0.01,0.02,0,0,236,26,370,-30,52,-28,0,0,0
13712,2023-01-20 10:50:31.799161,151866998,0,-0.05,-0.01,0.02,0,0,236,26,370,-30,52,-28,0,0,0
13744,2023-01-20 10:50:31.899148,151967008,0,-0.05,-0.01,0.02,0,0,236,26,370,-30,52,-28,0,0,0
13777,2023-01-20 10:50:31.999119,152067002,0,-0.05,-0.01,0.02,0,0,236,26,370,-30,52,-28,0,0,0
13807,2023-01-20 10:50:32.099144,152167000,0,-0.05,-0.01,0.02,0,0,236,26,370,-29,52,-28,0,0,0
13842,2023-01-20 10:50:32.199179,152267008,0,-0.05,-0.01,0.02,0,0,236,26,370,-29,52,-28,0,0,0
13872,2023-01-20 10:50:32.299180,152367002,0,-0.05,-0.01,0.02,0,0,237,26,370,-29,52,-28,0,0,0
13905,2023-01-20 10:50:32.399195,152467011,0,-0.05,-0.01,0.02,0,0,237,26,370,-29,52,-29,0,0,0
13937,2023-01-20 10:50:32.499164,152567005,0,-0.05,-0.01,0.02,0,0,237,26,370,-29,52,-28,0,0,0
13970,2023-01-20 10:50:32.599133,152666999,0,-0.05,-0.01,0.02,0,0,237,26,370,-29,52,-28,0,0,0
14003,2023-01-20 10:50:32.699142,152766995,0,-0.04,-0.01,0.02,0,0,237,26,370,-29,52,-28,0,0,0
14036,2023-01-20 10:50:32.799167,152867006,0,-0.04,-0.01,0.02,0,0,237,26,370,-29,52,-28,0,0,0
14067,2023-01-20 10:50:32.899139,152966999,0,-0.04,-0.01,0.02,0,0,237,26,370,-29,52,-28,0,0,0
14100,2023-01-20 10:50:32.999121,153067002,0,-0.04,-0.01,0.02,0,0,237,26,370,-29,52,-28,0,0,0
14130,2023-01-20 10:50:33.099151,153167004,0,-0.04,-0.01,0.02,0,0,237,26,370,-29,52,-28,0,0,0
14165,2023-01-20 10:50:33.199174,153266999,0,-0.04,-0.01,0.02,0,0,237,26,370,-29,52,-28,0,0,0
14195,2023-01-20 10:50:33.299181,153367002,0,-0.04,-0.01,0.02,0,0,237,26,369,-29,52,-28,0,0,0
14229,2023-01-20 10:50:33.399187,153467004,0,-0.04,-0.01,0.02,0,0,237,26,369,-29,52,-28,0,0,0
14262,2023-01-20 10:50:33.499185,153567006,0,-0.04,-0.01,0.03,0,0,237,26,369,-29,52,-28,0,0,0
14296,2023-01-20 10:50:33.599173,153666999,0,-0.04,-0.01,0.03,0,0,237,26,369,-29,52,-28,0,0,0
14329,2023-01-20 10:50:33.699172,153767004,0,-0.04,-0.01,0.03,0,0,237,26,369,-29,52,-28,0,0,0
14362,2023-01-20 10:50:33.799159,153866998,0,-0.04,-0.01,0.03,0,0,237,26,369,-29,52,-28,0,0,0
14395,2023-01-20 10:50:33.899140,153967005,0,-0.04,-0.02,0.03,0,0,237,26,369,-28,52,-28,0,0,0
14428,2023-01-20 10:50:33.999115,154067007,0,-0.04,-0.02,0.03,0,0,237,26,369,-28,52,-28,0,0,0
14458,2023-01-20 10:50:34.099117,154166995,0,-0.04,-0.02,0.03,0,0,238,26,369,-28,52,-28,0,0,0
14493,2023-01-20 10:50:34.199140,154267004,0,-0.04,-0.02,0.03,0,0,238,26,369,-28,52,-28,0,0,0
14523,2023-01-20 10:50:34.299169,154367009,0,-0.04,-0.02,0.03,0,0,238,26,369,-28,52,-28,0,0,0
14556,2023-01-20 10:50:34.399179,154466995,0,-0.04,-0.02,0.03,0,0,238,26,369,-28,52,-28,0,0,0
14589,2023-01-20 10:50:34.499219,154566999,0,-0.04,-0.02,0.03,0,0,238,26,368,-28,52,-28,0,0,0
14621,2023-01-20 10:50:34.599256,154666999,0,-0.04,-0.02,0.03,0,0,238,26,369,-28,52,-28,0,0,0
14655,2023-01-20 10:50:34.699203,154766995,0,-0.04,-0.02,0.03,0,0,238,26,368,-28,52,-28,0,0,0
14688,2023-01-20 10:50:34.799161,154867002,0,-0.04,-0.02,0.03,0,0,238,26,368,-28,52,-28,0,0,0
14721,2023-01-20 10:50:34.899132,154967006,0,-0.04,-0.02,0.03,0,0,238,26,368,-28,52,-28,0,0,0
14754,2023-01-20 10:50:34.999091,155066998,0,-0.04,-0.02,0.03,0,0,238,26,368,-28,52,-28,0,0,0
14784,2023-01-20 10:50:35.099185,155167007,0,-0.04,-0.02,0.03,0,0,238,26,368,-28,52,-28,0,0,0
14819,2023-01-20 10:50:35.199262,155266999,0,-0.04,-0.02,0.03,0,0,238,26,368,-28,52,-28,0,0,0
14849,2023-01-20 10:50:35.299260,155366998,0,-0.04,-0.02,0.03,0,0,238,26,368,-28,52,-27,0,0,0
14882,2023-01-20 10:50:35.399254,155466995,0,-0.04,-0.02,0.03,0,0,238,26,368,-28,52,-27,0,0,0
14914,2023-01-20 10:50:35.499281,155567021,0,-0.05,-0.02,0.03,0,0,238,26,368,-28,52,-27,0,0,0
14947,2023-01-20 10:50:35.599270,155667009,0,-0.04,-0.02,0.03,0,0,238,26,368,-28,52,-27,0,0,0
14980,2023-01-20 10:50:35.699236,155766995,0,-0.04,-0.02,0.03,0,0,238,26,368,-28,52,-27,0,0,0
15013,2023-01-20 10:50:35.799222,155867002,0,-0.04,-0.02,0.03,0,0,238,26,368,-28,52,-27,0,0,0
15044,2023-01-20 10:50:35.899178,155966999,0,-0.04,-0.02,0.03,0,0,238,26,367,-28,52,-27,0,0,0
15077,2023-01-20 10:50:35.999136,156066998,0,-0.04,-0.02,0.03,0,0,238,26,368,-28,52,-27,0,0,0
15107,2023-01-20 10:50:36.099195,156167000,0,-0.05,-0.02,0.03,0,0,238,26,367,-28,52,-27,0,0,0
15142,2023-01-20 10:50:36.199253,156266999,0,-0.05,-0.02,0.03,0,0,238,26,368,-28,52,-27,0,0,0
15172,2023-01-20 10:50:36.299216,156367010,0,-0.05,-0.02,0.03,0,0,238,26,368,-28,52,-27,0,0,0
15205,2023-01-20 10:50:36.399158,156467000,0,-0.05,-0.02,0.03,0,0,238,26,367,-28,52,-27,0,0,0
15237,2023-01-20 10:50:36.499228,156567015,0,-0.05,-0.02,0.03,0,0,238,26,367,-28,52,-27,0,0,0
15270,2023-01-20 10:50:36.599272,156667003,0,-0.05,-0.02,0.03,0,0,238,26,367,-28,52,-27,0,0,0
15303,2023-01-20 10:50:36.699269,156766995,0,-0.05,-0.02,0.03,0,0,238,26,367,-28,52,-27,0,0,0
15336,2023-01-20 10:50:36.799283,156867005,0,-0.05,-0.03,0.03,0,0,238,26,367,-28,52,-27,0,0,0
15367,2023-01-20 10:50:36.899200,156967014,0,-0.05,-0.03,0.03,0,0,238,26,367,-28,52,-27,0,0,0
15400,2023-01-20 10:50:36.999097,157067004,0,-0.05,-0.03,0.03,0,0,238,26,366,-28,52,-26,0,0,0
15430,2023-01-20 10:50:37.099170,157166999,0,-0.05,-0.03,0.03,0,0,238,26,366,-28,52,-26,0,0,0
15465,2023-01-20 10:50:37.199260,157267008,0,-0.05,-0.03,0.03,0,0,238,26,366,-28,52,-27,0,0,0
15495,2023-01-20 10:50:37.299253,157366998,0,-0.05,-0.03,0.03,0,0,238,26,366,-28,52,-27,0,0,0
15528,2023-01-20 10:50:37.399272,157467015,0,-0.05,-0.03,0.03,0,0,238,26,366,-28,52,-26,0,0,0
15560,2023-01-20 10:50:37.499281,157567009,0,-0.05,-0.03,0.03,0,0,238,26,366,-28,52,-26,0,0,0
15593,2023-01-20 10:50:37.599283,157666995,0,-0.05,-0.03,0.03,0,0,238,26,366,-28,52,-26,0,0,0
15626,2023-01-20 10:50:37.699278,157767005,0,-0.05,-0.03,0.03,0,0,238,26,366,-28,52,-26,0,0,0
15659,2023-01-20 10:50:37.799283,157867025,0,-0.05,-0.03,0.03,0,0,238,26,365,-28,52,-26,0,0,0
15691,2023-01-20 10:50:37.899210,157966995,0,-0.05,-0.03,0.03,0,0,238,26,365,-28,52,-25,0,0,0
15724,2023-01-20 10:50:37.999179,158067007,0,-0.05,-0.03,0.03,0,0,238,26,365,-28,52,-25,0,0,0
15754,2023-01-20 10:50:38.090253,158166998,0,-0.05,-0.03,0.03,0,0,238,26,365,-28,52,-26,0,0,0
15787,2023-01-20 10:50:38.181271,158267009,0,-0.05,-0.03,0.03,0,0,238,26,364,-28,52,-25,0,0,0
15819,2023-01-20 10:50:38.279411,158366998,0,-0.05,-0.03,0.03,0,0,239,26,364,-27,52,-25,0,0,0
15850,2023-01-20 10:50:38.379427,158467012,0,-0.05,-0.03,0.03,0,0,239,26,362,-28,52,-23,0,0,0
15885,2023-01-20 10:50:38.479405,158567015,0,-0.05,-0.03,0.03,0,0,239,27,362,-27,52,-23,0,0,0
15917,2023-01-20 10:50:38.579366,158667008,0,-0.05,-0.03,0.03,0,0,239,27,362,-27,52,-22,0,0,0
15952,2023-01-20 10:50:38.679347,158766999,0,-0.05,-0.04,0.03,0,0,239,27,361,-27,52,-22,0,0,0
15983,2023-01-20 10:50:38.779363,158867020,0,-0.05,-0.04,0.03,0,0,239,27,360,-27,52,-21,0,0,0
16018,2023-01-20 10:50:38.888057,158967001,0,-0.05,-0.04,0.03,0,0,239,27,360,-27,52,-21,0,0,0
16051,2023-01-20 10:50:38.999037,159066999,0,-0.05,-0.04,0.03,0,0,239,27,359,-27,52,-20,0,0,0
16081,2023-01-20 10:50:39.090212,159166999,0,-0.05,-0.04,0.03,0,0,239,27,358,-28,52,-19,0,0,0
16115,2023-01-20 10:50:39.181221,159267007,0,-0.05,-0.04,0.04,0,0,239,27,357,-28,52,-18,0,0,0
16147,2023-01-20 10:50:39.279324,159366995,0,-0.05,-0.04,0.04,0,0,239,27,357,-28,52,-18,0,0,0
16178,2023-01-20 10:50:39.379302,159467008,0,-0.05,-0.04,0.04,0,0,239,27,356,-28,52,-17,0,0,0
16212,2023-01-20 10:50:39.479268,159566995,0,-0.05,-0.04,0.04,0,0,239,27,356,-28,52,-17,0,0,0
16243,2023-01-20 10:50:39.579274,159667017,0,-0.05,-0.04,0.04,0,0,239,27,356,-28,52,-18,0,0,0
16278,2023-01-20 10:50:39.679230,159767022,0,-0.05,-0.04,0.04,0,0,239,27,356,-28,52,-17,0,0,0
16309,2023-01-20 10:50:39.779173,159867023,0,-0.05,-0.04,0.04,0,0,239,27,356,-28,52,-18,0,0,0
16343,2023-01-20 10:50:39.879137,159966995,0,-0.05,-0.04,0.04,0,0,239,27,356,-28,52,-17,0,0,0
16374,2023-01-20 10:50:39.979149,160067002,0,-0.05,-0.04,0.04,0,0,239,27,356,-28,52,-17,0,0,0
16406,2023-01-20 10:50:40.079200,160167008,0,-0.05,-0.04,0.04,0,0,239,27,356,-28,52,-17,0,0,0
16440,2023-01-20 10:50:40.179258,160267011,0,-0.05,-0.04,0.04,0,0,239,27,356,-28,52,-17,0,0,0
16472,2023-01-20 10:50:40.279218,160367001,0,-0.05,-0.04,0.04,0,0,239,27,356,-28,53,-17,0,0,0
16503,2023-01-20 10:50:40.379174,160467008,0,-0.05,-0.04,0.04,0,0,239,27,356,-28,53,-17,0,0,0
16537,2023-01-20 10:50:40.479160,160566995,0,-0.05,-0.04,0.04,0,0,239,27,356,-28,53,-17,0,0,0
16569,2023-01-20 10:50:40.579205,160667027,0,-0.05,-0.04,0.04,0,0,239,27,356,-28,53,-18,0,0,0
16604,2023-01-20 10:50:40.679203,160767008,0,-0.05,-0.05,0.04,0,0,239,27,356,-28,53,-18,0,0,0
16635,2023-01-20 10:50:40.779212,160866999,0,-0.05,-0.05,0.04,0,0,239,27,356,-28,53,-18,0,0,0
16669,2023-01-20 10:50:40.879178,160966995,0,-0.05,-0.05,0.04,0,0,239,27,356,-28,53,-18,0,0,0
16700,2023-01-20 10:50:40.979155,161067015,0,-0.05,-0.05,0.04,0,0,239,27,357,-27,53,-19,0,0,0
16732,2023-01-20 10:50:41.079172,161166995,0,-0.05,-0.05,0.04,0,0,239,27,357,-27,53,-19,0,0,0
16766,2023-01-20 10:50:41.179231,161266995,0,-0.05,-0.05,0.04,0,0,239,27,357,-27,53,-20,0,0,0
16798,2023-01-20 10:50:41.279279,161367026,0,-0.05,-0.05,0.04,0,0,239,27,358,-27,53,-20,0,0,0
16829,2023-01-20 10:50:41.379275,161467015,0,-0.05,-0.05,0.04,0,0,239,27,358,-27,53,-20,0,0,0
16863,2023-01-20 10:50:41.479223,161566995,0,-0.05,-0.05,0.04,0,0,239,27,358,-27,53,-21,0,0,0
16895,2023-01-20 10:50:41.579227,161667041,0,-0.04,-0.05,0.04,0,0,239,27,359,-27,53,-21,0,0,0
16930,2023-01-20 10:50:41.679212,161767004,0,-0.04,-0.05,0.04,0,0,239,27,359,-27,52,-22,0,0,0
16961,2023-01-20 10:50:41.779246,161866998,0,-0.04,-0.05,0.04,0,0,239,27,360,-27,52,-22,0,0,0
16995,2023-01-20 10:50:41.879214,161966999,0,-0.04,-0.05,0.04,0,0,239,27,360,-27,52,-23,0,0,0
17026,2023-01-20 10:50:41.979162,162066999,0,-0.04,-0.05,0.04,0,0,240,27,361,-27,52,-23,0,0,0
17058,2023-01-20 10:50:42.079186,162166995,0,-0.04,-0.05,0.04,0,0,240,27,361,-27,52,-23,0,0,0
17092,2023-01-20 10:50:42.179251,162267011,0,-0.04,-0.05,0.04,0,0,240,27,361,-27,52,-24,0,0,0
17124,2023-01-20 10:50:42.279223,162367011,0,-0.04,-0.05,0.04,0,0,240,27,362,-27,52,-24,0,0,0
17155,2023-01-20 10:50:42.379158,162466995,0,-0.04,-0.05,0.04,0,0,240,27,362,-27,52,-25,0,0,0
17189,2023-01-20 10:50:42.479172,162567007,0,-0.04,-0.05,0.04,0,0,240,27,363,-27,52,-25,0,0,0
17221,2023-01-20 10:50:42.579208,162667029,0,-0.04,-0.05,0.04,0,0,240,27,363,-27,52,-26,0,0,0
17256,2023-01-20 10:50:42.679179,162766999,0,-0.04,-0.05,0.04,0,0,240,27,363,-27,52,-26,0,0,0
17287,2023-01-20 10:50:42.779176,162866998,0,-0.04,-0.05,0.04,0,0,240,27,364,-27,52,-26,0,0,0
17321,2023-01-20 10:50:42.879147,162967000,0,-0.04,-0.05,0.04,0,0,240,27,364,-27,52,-26,0,0,0
17352,2023-01-20 10:50:42.979109,163066999,0,-0.04,-0.05,0.04,0,0,240,27,364,-27,52,-27,0,0,0
17384,2023-01-20 10:50:43.079159,163166995,0,-0.04,-0.05,0.04,0,0,240,27,365,-27,52,-27,0,0,0
17418,2023-01-20 10:50:43.179242,163267000,0,-0.04,-0.05,0.04,0,0,240,27,365,-27,52,-27,0,0,0
17450,2023-01-20 10:50:43.279275,163367017,0,-0.04,-0.05,0.04,0,0,240,27,365,-26,52,-27,0,0,0
17481,2023-01-20 10:50:43.379253,163466994,0,-0.04,-0.05,0.04,0,0,240,27,365,-26,52,-27,0,0,0
17515,2023-01-20 10:50:43.479235,163567011,0,-0.04,-0.05,0.04,0,0,240,27,365,-26,52,-27,0,0,0
17548,2023-01-20 10:50:43.579216,163667036,0,-0.04,-0.05,0.04,0,0,240,27,365,-26,52,-27,0,0,0
17583,2023-01-20 10:50:43.679169,163766995,0,-0.04,-0.05,0.04,0,0,240,27,365,-26,52,-27,0,0,0
17614,2023-01-20 10:50:43.779175,163866998,0,-0.04,-0.05,0.04,0,0,240,27,365,-26,52,-27,0,0,0
17650,2023-01-20 10:50:43.879163,163966999,0,-0.04,-0.05,0.04,0,0,240,27,364,-26,52,-26,0,0,0
17681,2023-01-20 10:50:43.979146,164066999,0,-0.04,-0.05,0.04,0,0,240,27,364,-26,52,-26,0,0,0
17713,2023-01-20 10:50:44.079194,164167007,0,-0.04,-0.05,0.04,0,0,240,27,364,-26,52,-26,0,0,0
17747,2023-01-20 10:50:44.179247,164267005,0,-0.04,-0.05,0.04,0,0,240,27,364,-26,52,-26,0,0,0
17779,2023-01-20 10:50:44.279254,164367001,0,-0.04,-0.05,0.04,0,0,240,27,364,-26,52,-26,0,0,0
17810,2023-01-20 10:50:44.379247,164466995,0,-0.04,-0.05,0.04,0,0,240,27,364,-26,52,-26,0,0,0
17845,2023-01-20 10:50:44.479269,164567017,0,-0.04,-0.05,0.04,0,0,240,27,365,-26,52,-27,0,0,0
17877,2023-01-20 10:50:44.579269,164667018,0,-0.04,-0.05,0.04,0,0,240,27,365,-26,52,-27,0,0,0
17912,2023-01-20 10:50:44.679233,164766995,0,-0.04,-0.06,0.04,0,0,240,27,365,-26,52,-27,0,0,0
17943,2023-01-20 10:50:44.779219,164866998,0,-0.04,-0.06,0.04,0,0,240,27,365,-26,52,-27,0,0,0
17977,2023-01-20 10:50:44.879172,164966999,0,-0.04,-0.06,0.04,0,0,240,27,366,-26,52,-28,0,0,0
18008,2023-01-20 10:50:44.979116,165067000,0,-0.04,-0.06,0.04,0,0,240,27,366,-26,52,-28,0,0,0
18040,2023-01-20 10:50:45.079178,165167004,0,-0.04,-0.06,0.04,0,0,240,27,366,-26,52,-28,0,0,0
18074,2023-01-20 10:50:45.179261,165266999,0,-0.04,-0.06,0.04,0,0,240,27,366,-26,52,-28,0,0,0
18106,2023-01-20 10:50:45.279270,165367002,0,-0.04,-0.06,0.04,0,0,240,27,366,-26,52,-28,0,0,0
18137,2023-01-20 10:50:45.379257,165467004,0,-0.04,-0.06,0.04,0,0,240,27,366,-26,52,-28,0,0,0
18171,2023-01-20 10:50:45.479213,165566999,0,-0.04,-0.06,0.04,0,0,240,27,367,-26,52,-29,0,0,0
18203,2023-01-20 10:50:45.579194,165667026,0,-0.03,-0.06,0.04,0,0,240,27,366,-26,52,-29,0,0,0
18238,2023-01-20 10:50:45.679200,165767004,0,-0.03,-0.06,0.04,0,0,240,27,366,-26,52,-28,0,0,0
18269,2023-01-20 10:50:45.779261,165867018,0,-0.03,-0.06,0.04,0,0,240,27,366,-26,52,-28,0,0,0
18303,2023-01-20 10:50:45.879222,165967006,0,-0.03,-0.06,0.04,0,0,240,27,366,-26,52,-28,0,0,0
18334,2023-01-20 10:50:45.979174,166067004,0,-0.03,-0.06,0.04,0,0,240,27,365,-26,52,-28,0,0,0
18366,2023-01-20 10:50:46.079165,166166996,0,-0.03,-0.06,0.04,0,0,240,27,365,-27,52,-28,0,0,0
18400,2023-01-20 10:50:46.179181,166266999,0,-0.03,-0.06,0.04,0,0,240,27,365,-27,52,-28,0,0,0
18432,2023-01-20 10:50:46.279232,166367007,0,-0.03,-0.06,0.04,0,0,240,27,366,-27,52,-28,0,0,0
18463,2023-01-20 10:50:46.379271,166466995,0,-0.03,-0.06,0.04,0,0,240,27,366,-27,52,-28,0,0,0
18497,2023-01-20 10:50:46.479272,166566999,0,-0.03,-0.06,0.04,0,0,240,27,366,-27,52,-28,0,0,0
18529,2023-01-20 10:50:46.579286,166667030,0,-0.03,-0.06,0.04,0,0,240,27,365,-27,52,-28,0,0,0
18564,2023-01-20 10:50:46.679219,166766995,0,-0.03,-0.06,0.04,0,0,240,27,365,-27,52,-27,0,0,0
18595,2023-01-20 10:50:46.779190,166867003,0,-0.03,-0.06,0.04,0,0,240,27,365,-27,52,-27,0,0,0
18629,2023-01-20 10:50:46.872054,166967029,0,-0.03,-0.06,0.04,0,0,240,27,365,-27,52,-27,0,0,0
18660,2023-01-20 10:50:46.962998,167067002,0,-0.03,-0.06,0.04,0,0,240,27,365,-27,52,-27,0,0,0
18692,2023-01-20 10:50:47.059345,167167001,0,-0.03,-0.06,0.04,0,0,240,27,365,-27,52,-27,0,0,0
18726,2023-01-20 10:50:47.159389,167267008,0,-0.03,-0.06,0.04,0,0,240,27,365,-27,52,-27,0,0,0
18758,2023-01-20 10:50:47.259395,167366997,0,-0.02,-0.06,0.04,0,0,240,27,365,-27,52,-28,0,0,0
18789,2023-01-20 10:50:47.359400,167466999,0,-0.02,-0.06,0.04,0,0,240,27,365,-27,52,-28,0,0,0
18822,2023-01-20 10:50:47.459409,167567008,0,-0.02,-0.06,0.04,0,0,240,27,365,-27,52,-28,0,0,0
18854,2023-01-20 10:50:47.559395,167666997,0,-0.02,-0.06,0.04,0,0,240,27,365,-27,52,-28,0,0,0
18889,2023-01-20 10:50:47.659409,167766999,0,-0.02,-0.06,0.04,0,0,240,27,365,-27,52,-28,0,0,0
18920,2023-01-20 10:50:47.759433,167867002,0,-0.02,-0.06,0.04,0,0,240,27,365,-27,52,-28,0,0,0
18954,2023-01-20 10:50:47.859432,167967016,0,-0.02,-0.06,0.04,0,0,240,27,365,-27,52,-28,0,0,0
18985,2023-01-20 10:50:47.959370,168066994,0,-0.02,-0.06,0.04,0,0,240,27,365,-27,52,-28,0,0,0
19017,2023-01-20 10:50:48.059368,168167008,0,-0.02,-0.06,0.04,0,0,240,27,365,-27,52,-28,0,0,0
19051,2023-01-20 10:50:48.159359,168266999,0,-0.02,-0.06,0.04,0,0,240,27,365,-27,52,-28,0,0,0
19083,2023-01-20 10:50:48.259341,168367001,0,-0.02,-0.06,0.04,0,0,240,27,365,-27,52,-28,0,0,0
19114,2023-01-20 10:50:48.359307,168466999,0,-0.02,-0.06,0.04,0,0,240,27,365,-27,52,-28,0,0,0
19148,2023-01-20 10:50:48.459285,168566999,0,-0.02,-0.06,0.04,0,0,240,27,365,-27,52,-27,0,0,0
19180,2023-01-20 10:50:48.559275,168667002,0,-0.02,-0.06,0.04,0,0,240,27,365,-27,52,-27,0,0,0
19216,2023-01-20 10:50:48.659267,168767019,0,-0.03,-0.06,0.04,0,0,240,27,365,-27,52,-27,0,0,0
19247,2023-01-20 10:50:48.759220,168867006,0,-0.03,-0.06,0.04,0,0,240,27,365,-27,52,-27,0,0,0
19283,2023-01-20 10:50:48.859167,168966995,0,-0.03,-0.06,0.04,0,0,240,27,365,-27,52,-27,0,0,0
19314,2023-01-20 10:50:48.959124,169067000,0,-0.03,-0.06,0.04,0,0,240,27,364,-27,52,-27,0,0,0
19346,2023-01-20 10:50:49.059133,169167000,0,-0.03,-0.06,0.04,0,0,240,27,364,-27,52,-26,0,0,0
19380,2023-01-20 10:50:49.159182,169267001,0,-0.03,-0.06,0.04,0,0,240,27,364,-27,52,-26,0,0,0
19412,2023-01-20 10:50:49.259240,169367003,0,-0.03,-0.06,0.04,0,0,240,27,363,-27,52,-26,0,0,0
19443,2023-01-20 10:50:49.359296,169466999,0,-0.03,-0.06,0.04,0,0,240,27,363,-27,52,-25,0,0,0
19477,2023-01-20 10:50:49.459271,169566999,0,-0.03,-0.06,0.04,0,0,240,27,363,-27,52,-25,0,0,0
19509,2023-01-20 10:50:49.559187,169666997,0,-0.03,-0.06,0.04,0,0,240,27,362,-27,52,-25,0,0,0
19544,2023-01-20 10:50:49.659186,169766999,0,-0.03,-0.06,0.04,0,0,240,27,362,-27,52,-24,0,0,0
19575,2023-01-20 10:50:49.759239,169867002,0,-0.03,-0.06,0.04,0,0,240,27,362,-27,52,-24,0,0,0
19609,2023-01-20 10:50:49.859222,169966995,0,-0.03,-0.06,0.04,0,0,240,26,361,-27,52,-24,0,0,0
19640,2023-01-20 10:50:49.959192,170067016,0,-0.03,-0.06,0.04,0,0,240,26,361,-27,52,-24,0,0,0
19672,2023-01-20 10:50:50.059158,170167008,0,-0.03,-0.06,0.04,0,0,240,26,361,-27,52,-23,0,0,0
19748,2023-01-20 10:50:50.159136,170266994,0,-0.03,-0.06,0.04,0,0,240,26,361,-27,52,-23,0,0,0
19780,2023-01-20 10:50:50.259172,170367009,0,-0.03,-0.06,0.04,0,0,240,26,360,-27,52,-23,0,0,0
19811,2023-01-20 10:50:50.359215,170467008,0,-0.03,-0.06,0.04,0,0,240,26,360,-27,52,-23,0,0,0
19845,2023-01-20 10:50:50.459229,170566995,0,-0.03,-0.06,0.04,0,0,240,26,360,-27,52,-23,0,0,0
19877,2023-01-20 10:50:50.559247,170666995,0,-0.03,-0.06,0.04,0,0,240,26,360,-27,52,-23,0,0,0
19912,2023-01-20 10:50:50.659271,170767013,0,-0.03,-0.06,0.04,0,0,240,26,360,-27,52,-23,0,0,0
19943,2023-01-20 10:50:50.759258,170867002,0,-0.03,-0.06,0.04,0,0,240,26,360,-27,52,-23,0,0,0
19977,2023-01-20 10:50:50.859207,170966995,0,-0.03,-0.06,0.04,0,0,240,26,360,-27,53,-23,0,0,0
20008,2023-01-20 10:50:50.959148,171067008,0,-0.03,-0.06,0.04,0,0,240,26,360,-27,53,-23,0,0,0
20040,2023-01-20 10:50:51.059155,171167002,0,-0.03,-0.06,0.04,0,0,240,26,360,-27,53,-23,0,0,0
20074,2023-01-20 10:50:51.159229,171267003,0,-0.03,-0.06,0.04,0,0,240,26,360,-27,53,-23,0,0,0
20106,2023-01-20 10:50:51.259288,171367034,0,-0.03,-0.06,0.04,0,0,240,26,360,-27,53,-23,0,0,0
20137,2023-01-20 10:50:51.359250,171466999,0,-0.03,-0.06,0.04,0,0,240,26,360,-27,53,-23,0,0,0
20171,2023-01-20 10:50:51.459216,171566995,0,-0.02,-0.06,0.04,0,0,240,26,360,-27,53,-23,0,0,0
20203,2023-01-20 10:50:51.559181,171667007,0,-0.02,-0.06,0.04,0,0,240,26,359,-27,53,-23,0,0,0
20238,2023-01-20 10:50:51.659189,171767000,0,-0.02,-0.06,0.04,0,0,240,26,359,-27,53,-22,0,0,0
20269,2023-01-20 10:50:51.759246,171866998,0,-0.02,-0.06,0.04,0,0,240,26,359,-27,53,-22,0,0,0
20303,2023-01-20 10:50:51.859252,171967019,0,-0.02,-0.06,0.04,0,0,240,26,359,-27,53,-22,0,0,0
20334,2023-01-20 10:50:51.959167,172066999,0,-0.02,-0.06,0.04,0,0,240,26,359,-27,53,-22,0,0,0
20366,2023-01-20 10:50:52.059134,172166995,0,-0.02,-0.06,0.05,0,0,240,26,358,-27,53,-22,0,0,0
20400,2023-01-20 10:50:52.159141,172267004,0,-0.02,-0.06,0.05,0,0,240,26,358,-27,53,-22,0,0,0
20432,2023-01-20 10:50:52.259163,172367001,0,-0.02,-0.06,0.05,0,0,240,26,358,-27,53,-21,0,0,0
20463,2023-01-20 10:50:52.359204,172466999,0,-0.02,-0.06,0.05,0,0,240,26,358,-27,53,-21,0,0,0
20497,2023-01-20 10:50:52.459237,172567004,0,-0.02,-0.06,0.05,0,0,240,26,358,-27,53,-21,0,0,0
20529,2023-01-20 10:50:52.559254,172667004,0,-0.02,-0.06,0.05,0,0,240,26,358,-27,53,-21,0,0,0
20564,2023-01-20 10:50:52.659223,172766998,0,-0.02,-0.06,0.05,0,0,240,26,358,-27,53,-21,0,0,0
20595,2023-01-20 10:50:52.759192,172867022,0,-0.02,-0.06,0.05,0,0,240,26,358,-27,53,-21,0,0,0
20629,2023-01-20 10:50:52.859144,172966997,0,-0.02,-0.06,0.05,0,0,240,26,358,-27,53,-21,0,0,0
20660,2023-01-20 10:50:52.959144,173066999,0,-0.02,-0.06,0.05,0,0,240,26,358,-27,53,-21,0,0,0
20692,2023-01-20 10:50:53.059171,173167004,0,-0.02,-0.06,0.05,0,0,240,26,358,-27,53,-22,0,0,0
20726,2023-01-20 10:50:53.159202,173266995,0,-0.02,-0.06,0.05,0,0,240,26,358,-27,53,-22,0,0,0
20758,2023-01-20 10:50:53.259234,173367003,0,-0.02,-0.06,0.05,0,0,240,26,358,-27,53,-22,0,0,0
20789,2023-01-20 10:50:53.359254,173467009,0,-0.02,-0.06,0.05,0,0,240,26,358,-27,53,-22,0,0,0
20823,2023-01-20 10:50:53.459215,173566994,0,-0.02,-0.06,0.05,0,0,240,26,358,-27,53,-22,0,0,0
20855,2023-01-20 10:50:53.559175,173667002,0,-0.02,-0.06,0.05,0,0,240,26,358,-27,53,-22,0,0,0
20890,2023-01-20 10:50:53.659195,173767005,0,-0.02,-0.06,0.04,0,0,240,26,358,-27,53,-22,0,0,0
20922,2023-01-20 10:50:53.759252,173866998,0,-0.02,-0.06,0.04,0,0,240,26,358,-27,53,-22,0,0,0
20958,2023-01-20 10:50:53.859258,173967018,0,-0.02,-0.06,0.04,0,0,240,26,358,-27,53,-21,0,0,0
20989,2023-01-20 10:50:53.959172,174066999,0,-0.02,-0.06,0.04,0,0,240,26,357,-27,53,-21,0,0,0
21021,2023-01-20 10:50:54.053754,174166995,0,-0.02,-0.06,0.04,0,0,240,26,357,-27,53,-21,0,0,0
21055,2023-01-20 10:50:54.144651,174266999,0,-0.02,-0.06,0.04,0,0,240,26,357,-27,53,-21,0,0,0
21087,2023-01-20 10:50:54.243493,174367005,0,-0.02,-0.06,0.04,0,0,240,26,357,-27,53,-21,0,0,0
21118,2023-01-20 10:50:54.354686,174466995,0,-0.02,-0.06,0.04,0,0,240,26,357,-27,53,-21,0,0,0
21153,2023-01-20 10:50:54.459241,174566995,0,-0.02,-0.06,0.04,0,0,240,26,357,-27,53,-21,0,0,0
21185,2023-01-20 10:50:54.559233,174667005,0,-0.02,-0.06,0.04,0,0,240,26,357,-27,53,-21,0,0,0
21220,2023-01-20 10:50:54.659195,174766995,0,-0.02,-0.05,0.04,0,0,240,26,357,-27,53,-21,0,0,0
21251,2023-01-20 10:50:54.759189,174867023,0,-0.02,-0.05,0.04,0,0,240,26,357,-27,53,-21,0,0,0
21285,2023-01-20 10:50:54.859146,174966999,0,-0.03,-0.05,0.04,0,0,240,26,357,-27,53,-21,0,0,0
21316,2023-01-20 10:50:54.959137,175066999,0,-0.03,-0.05,0.04,0,0,240,26,357,-27,53,-21,0,0,0
21348,2023-01-20 10:50:55.059165,175167004,0,-0.03,-0.05,0.04,0,0,240,26,357,-27,53,-21,0,0,0
21382,2023-01-20 10:50:55.159206,175267000,0,-0.03,-0.05,0.04,0,0,240,26,357,-27,53,-21,0,0,0
21414,2023-01-20 10:50:55.259197,175367002,0,-0.03,-0.05,0.04,0,0,240,26,357,-27,53,-21,0,0,0
21445,2023-01-20 10:50:55.359149,175467004,0,-0.03,-0.05,0.04,0,0,240,26,357,-27,53,-21,0,0,0
21479,2023-01-20 10:50:55.459161,175567000,0,-0.03,-0.05,0.04,0,0,240,26,357,-27,53,-21,0,0,0
21511,2023-01-20 10:50:55.559224,175667001,0,-0.03,-0.05,0.04,0,0,240,26,357,-27,53,-21,0,0,0
21546,2023-01-20 10:50:55.659256,175767004,0,-0.03,-0.05,0.04,0,0,240,26,357,-27,53,-21,0,0,0
21577,2023-01-20 10:50:55.759271,175867014,0,-0.03,-0.05,0.04,0,0,240,26,356,-27,53,-21,0,0,0
21611,2023-01-20 10:50:55.859241,175967015,0,-0.03,-0.05,0.04,0,0,240,26,356,-27,53,-21,0,0,0
21642,2023-01-20 10:50:55.959175,176067004,0,-0.03,-0.05,0.04,0,0,240,26,357,-27,53,-21,0,0,0
21674,2023-01-20 10:50:56.059136,176166995,0,-0.03,-0.05,0.04,0,0,240,26,357,-27,53,-21,0,0,0
21708,2023-01-20 10:50:56.159129,176266999,0,-0.03,-0.05,0.04,0,0,240,26,357,-27,53,-22,0,0,0
21740,2023-01-20 10:50:56.253758,176367011,0,-0.03,-0.06,0.04,0,0,240,26,357,-27,53,-22,0,0,0
21771,2023-01-20 10:50:56.344649,176466995,0,-0.02,-0.06,0.04,0,0,240,26,357,-27,53,-21,0,0,0
21805,2023-01-20 10:50:56.439108,176566999,0,-0.02,-0.06,0.04,0,0,240,26,357,-27,53,-21,0,0,0
21837,2023-01-20 10:50:56.539099,176667009,0,-0.02,-0.06,0.04,0,0,240,26,357,-27,53,-21,0,0,0
21872,2023-01-20 10:50:56.639074,176766995,0,-0.02,-0.06,0.04,0,0,240,26,356,-28,53,-21,0,0,0
21903,2023-01-20 10:50:56.739097,176867017,0,-0.02,-0.06,0.04,0,0,240,26,356,-28,53,-21,0,0,0
21937,2023-01-20 10:50:56.839062,176966999,0,-0.02,-0.06,0.04,0,0,240,26,357,-28,53,-21,0,0,0
21968,2023-01-20 10:50:56.939011,177066995,0,-0.02,-0.06,0.04,0,0,240,26,357,-28,53,-22,0,0,0
22000,2023-01-20 10:50:57.043371,177166995,0,-0.02,-0.06,0.04,0,0,240,26,357,-28,53,-22,0,0,0
22034,2023-01-20 10:50:57.154631,177266999,0,-0.02,-0.06,0.04,0,0,240,26,357,-28,52,-22,0,0,0
22066,2023-01-20 10:50:57.253800,177366998,0,-0.02,-0.06,0.04,0,0,240,26,357,-28,52,-22,0,0,0
22096,2023-01-20 10:50:57.344651,177467000,0,-0.02,-0.06,0.04,0,0,240,26,357,-28,52,-22,0,0,0
22130,2023-01-20 10:50:57.439062,177566999,0,-0.02,-0.06,0.04,0,0,240,26,357,-28,52,-22,0,0,0
22162,2023-01-20 10:50:57.539034,177667002,0,-0.02,-0.06,0.04,0,0,240,26,357,-28,52,-22,0,0,0
22197,2023-01-20 10:50:57.639015,177766995,0,-0.02,-0.06,0.04,0,0,240,26,357,-28,52,-22,0,0,0
22228,2023-01-20 10:50:57.739064,177867026,0,-0.02,-0.06,0.04,0,0,240,26,357,-28,52,-22,0,0,0
22262,2023-01-20 10:50:57.839037,177967015,0,-0.02,-0.06,0.04,0,0,240,26,357,-28,52,-22,0,0,0
22293,2023-01-20 10:50:57.938953,178066999,0,-0.02,-0.06,0.04,0,0,240,26,357,-28,52,-22,0,0,0
22325,2023-01-20 10:50:58.038917,178166999,0,-0.02,-0.06,0.04,0,0,240,26,357,-28,52,-22,0,0,0
22359,2023-01-20 10:50:58.138928,178266999,0,-0.02,-0.06,0.04,0,0,240,26,358,-28,52,-22,0,0,0
22391,2023-01-20 10:50:58.238946,178367013,0,-0.02,-0.06,0.04,0,0,240,26,357,-28,52,-22,0,0,0
22422,2023-01-20 10:50:58.338920,178466996,0,-0.02,-0.06,0.04,0,0,240,26,357,-28,52,-22,0,0,0
22456,2023-01-20 10:50:58.438931,178567000,0,-0.02,-0.06,0.04,0,0,240,26,357,-28,52,-22,0,0,0
22488,2023-01-20 10:50:58.538968,178667006,0,-0.02,-0.06,0.04,0,0,240,26,357,-28,52,-22,0,0,0
22523,2023-01-20 10:50:58.638973,178766995,0,-0.02,-0.06,0.04,0,0,240,26,357,-28,52,-22,0,0,0
22554,2023-01-20 10:50:58.738973,178867002,0,-0.02,-0.06,0.04,0,0,241,26,357,-28,52,-23,0,0,0
22589,2023-01-20 10:50:58.838955,178967008,0,-0.02,-0.06,0.04,0,0,241,26,357,-28,52,-23,0,0,0
22622,2023-01-20 10:50:58.938893,179066995,0,-0.02,-0.06,0.04,0,0,241,26,357,-28,52,-23,0,0,0
22654,2023-01-20 10:50:59.038879,179166999,0,-0.02,-0.06,0.04,0,0,241,26,357,-28,52,-23,0,0,0
22688,2023-01-20 10:50:59.138922,179267008,0,-0.02,-0.06,0.04,0,0,241,26,357,-28,52,-23,0,0,0
22720,2023-01-20 10:50:59.238937,179367003,0,-0.02,-0.06,0.04,0,0,241,26,357,-28,52,-23,0,0,0
22751,2023-01-20 10:50:59.338954,179467023,0,-0.02,-0.06,0.04,0,0,241,26,357,-28,52,-23,0,0,0
22785,2023-01-20 10:50:59.438929,179567009,0,-0.02,-0.06,0.04,0,0,241,26,357,-28,52,-23,0,0,0
22817,2023-01-20 10:50:59.538900,179667003,0,-0.02,-0.06,0.04,0,0,241,26,357,-28,52,-23,0,0,0
22852,2023-01-20 10:50:59.638906,179767002,0,-0.02,-0.06,0.04,0,0,241,26,357,-28,52,-23,0,0,0
22883,2023-01-20 10:50:59.738970,179867011,0,-0.02,-0.06,0.04,0,0,241,26,357,-28,52,-23,0,0,0
22917,2023-01-20 10:50:59.838967,179966995,0,-0.02,-0.06,0.04,0,0,241,26,357,-28,52,-23,0,0,0
22948,2023-01-20 10:50:59.938916,180066995,0,-0.02,-0.06,0.04,0,0,241,26,357,-28,52,-23,0,0,0
22980,2023-01-20 10:51:00.038895,180167008,0,-0.02,-0.06,0.04,0,0,241,26,357,-28,52,-23,0,0,0
23014,2023-01-20 10:51:00.138873,180266995,0,-0.02,-0.06,0.04,0,0,241,26,357,-28,52,-23,0,0,0
23046,2023-01-20 10:51:00.238886,180367001,0,-0.02,-0.06,0.04,0,0,241,26,357,-28,52,-23,0,0,0
23077,2023-01-20 10:51:00.338941,180467024,0,-0.02,-0.06,0.04,0,0,241,26,357,-28,52,-23,0,0,0
23111,2023-01-20 10:51:00.438944,180567015,0,-0.02,-0.06,0.04,0,0,241,26,357,-28,52,-23,0,0,0
23143,2023-01-20 10:51:00.538910,180666998,0,-0.02,-0.06,0.04,0,0,241,26,357,-28,52,-23,0,0,0
23178,2023-01-20 10:51:00.638912,180767009,0,-0.02,-0.06,0.04,0,0,241,26,357,-28,52,-23,0,0,0
23209,2023-01-20 10:51:00.738911,180867002,0,-0.02,-0.06,0.04,0,0,241,26,357,-28,52,-23,0,0,0
23243,2023-01-20 10:51:00.838909,180967000,0,-0.02,-0.06,0.04,0,0,241,26,357,-28,52,-23,0,0,0
23274,2023-01-20 10:51:00.938906,181067008,0,-0.02,-0.06,0.04,0,0,241,26,357,-28,52,-23,0,0,0
23306,2023-01-20 10:51:01.038899,181166999,0,-0.02,-0.06,0.04,0,0,241,26,357,-28,52,-23,0,0,0
23340,2023-01-20 10:51:01.138923,181267001,0,-0.02,-0.06,0.04,0,0,241,26,357,-28,52,-23,0,0,0
23372,2023-01-20 10:51:01.238940,181367007,0,-0.02,-0.06,0.04,0,0,241,26,357,-28,52,-23,0,0,0
23403,2023-01-20 10:51:01.338926,181467000,0,-0.02,-0.06,0.04,0,0,241,26,357,-28,52,-23,0,0,0
23437,2023-01-20 10:51:01.438919,181566995,0,-0.02,-0.06,0.04,0,0,241,26,357,-28,53,-23,0,0,0
23469,2023-01-20 10:51:01.538930,181667003,0,-0.02,-0.06,0.05,0,0,241,26,357,-28,53,-23,0,0,0
23504,2023-01-20 10:51:01.638944,181767015,0,-0.01,-0.06,0.05,0,0,241,26,357,-28,53,-23,0,0,0
