LineNo,UTC_Approx,TimeUS,C,IVN,IVE,IVD,IPN,IPE,IPD,IMX,IMY,IMZ,IYAW,IVT,RErr,ErSc
369,2023-01-20 10:49:56.258497,116247435,0,-0.07,0.02,0.22,0.06,0.06,-0.15,0,0,0,1.14,0,0,0.003091912
959,2023-01-20 10:49:56.349466,116347450,0,-0.07,0.02,0.22,0.06,0.06,-0.17,0,0,0,1.08,0,0,0.003091912
1117,2023-01-20 10:49:56.451414,116453964,0,-0.04,-0.04,0.18,0.07,0.05,-0.16,0,0,0,0.86,0,0,0.002022645
1336,2023-01-20 10:49:56.564043,116565584,0,-0.04,-0.04,0.18,0.07,0.05,-0.17,0,0,0,0.95,0,0,0.002022645
1554,2023-01-20 10:49:56.664880,116666343,0,-0.01,0.05,0.27,0.07,0.04,-0.16,0,0,0,1.17,0,0,0.004204738
1876,2023-01-20 10:49:56.764500,116766338,0,-0.01,0.05,0.27,0.07,0.04,-0.22,0,0,0,1.36,0,0,0.004204738
1921,2023-01-20 10:49:56.864372,116866343,0,-0.15,0.05,0.22,0.08,0.04,-0.2,0,0,0,1.16,0,0,0.003829068
1969,2023-01-20 10:49:56.964368,116966340,0,-0.15,0.05,0.22,0.08,0.04,-0.2,0,0,0,0.91,0,0,0.003829068
2019,2023-01-20 10:49:57.064380,117066339,0,-0.14,-0.04,0.28,0.08,0.04,-0.25,0,0,0,1.22,0,0,0.005075364
2063,2023-01-20 10:49:57.164406,117166344,0,-0.14,-0.04,0.28,0.08,0.04,-0.22,0,0,0,1.04,0,0,0.005075364
2115,2023-01-20 10:49:57.271510,117266340,0,-0.14,-0.14,0.12,0.08,0.03,-0.24,0,0,0,1.35,0,0,0.002612036
2174,2023-01-20 10:49:57.382565,117366367,0,-0.14,-0.14,0.12,0.08,0.03,-0.25,0,0,0,1.17,0,0,0.002612036
2230,2023-01-20 10:49:57.476613,117466341,0,-0.14,0,0.24,0.08,0.01,-0.26,0,0,0,1.23,0,0,0.003643319
2289,2023-01-20 10:49:57.567525,117566339,0,-0.14,0,0.24,0.08,0.01,-0.23,0,0,0,1.5,0,0,0.003643319
2343,2023-01-20 10:49:57.664269,117666343,0,-0.09,-0.01,0.24,0.09,0,-0.27,0,0,0,1.47,0,0,0.002842852
2402,2023-01-20 10:49:57.764245,117766341,0,-0.09,-0.01,0.24,0.09,0,-0.26,0,0,0,0.99,0,0,0.002842852
2446,2023-01-20 10:49:57.864220,117866343,0,-0.04,0.03,0.24,0.09,-0.01,-0.27,0,0,0,1.36,0,0,0.002562246
2491,2023-01-20 10:49:57.964187,117966340,0,-0.04,0.03,0.24,0.09,-0.01,-0.27,0,0,0,1.13,0,0,0.002562246
2530,2023-01-20 10:49:58.064248,118066359,0,-0.03,-0.02,0.1,0.11,-0.01,-0.29,0,0,0,1.19,0,0,0.0004940945
2570,2023-01-20 10:49:58.164315,118166343,0,-0.03,-0.02,0.1,0.11,-0.01,-0.29,0,0,0,1.2,0,0,0.0004940945
2612,2023-01-20 10:49:58.264328,118266346,0,-0.11,-0.02,0.25,0.13,-0.01,-0.32,0,0,0,1.35,0,0,0.003197339
2652,2023-01-20 10:49:58.364299,118366348,0,-0.11,-0.02,0.25,0.13,-0.01,-0.31,0,0,0,1.31,0,0,0.003197339
2691,2023-01-20 10:49:58.464282,118466343,0,0.05,0.09,0.18,0.11,0,-0.32,0,0,0,2.01,0,0,0.001946499
2732,2023-01-20 10:49:58.564280,118566343,0,0.05,0.09,0.18,0.11,0,-0.34,0,0,0,1.65,0,0,0.001946499
2772,2023-01-20 10:49:58.664277,118666358,0,-0.1,-0.1,0.16,0.13,0,-0.38,0,0,0,1.13,0,0,0.001899409
2813,2023-01-20 10:49:58.764239,118766347,0,-0.1,-0.1,0.16,0.13,0,-0.33,0,0,0,1.13,0,0,0.001899409
2857,2023-01-20 10:49:58.864246,118866362,0,0.05,-0.06,0.08,0.12,0,-0.34,0,0,0,1.51,0,0,0.0006082674
2896,2023-01-20 10:49:58.964232,118966347,0,0.05,-0.06,0.08,0.12,0,-0.35,0,0,0,1.3,0,0,0.0006082674
2935,2023-01-20 10:49:59.064260,119066357,0,-0.07,-0.08,0.2,0.15,-0.01,-0.36,0,0,0,1.14,0,0,0.002240976
2974,2023-01-20 10:49:59.164279,119166350,0,-0.07,-0.08,0.2,0.15,-0.01,-0.38,0,0,0,0.88,0,0,0.002240976
3015,2023-01-20 10:49:59.264288,119266350,0,-0.1,0.16,0.13,0.15,-0.03,-0.4,0,0,0,1.23,0,0,0.002211229
3054,2023-01-20 10:49:59.364301,119366364,0,-0.1,0.16,0.13,0.15,-0.03,-0.45,0,0,0,1.27,0,0,0.002211229
3094,2023-01-20 10:49:59.464283,119466350,0,-0.02,-0.04,0.14,0.13,-0.03,-0.46,0,0,0,0.91,0,0,0.00104046
3135,2023-01-20 10:49:59.564294,119566365,0,-0.02,-0.04,0.14,0.13,-0.03,-0.5,0,0,0,1.2,0,0,0.00104046
3174,2023-01-20 10:49:59.664291,119666375,0,0.01,-0.02,0.18,0.13,-0.05,-0.5,0,0,0,1.68,0,0,0.001430336
3215,2023-01-20 10:49:59.764251,119766353,0,0.01,-0.02,0.18,0.13,-0.05,-0.5,0,0,0,0.75,0,0,0.001430336
3254,2023-01-20 10:49:59.864240,119866352,0,0.05,-0.17,0.02,0.1,-0.04,-0.5,0,0,0,-0.05,0,0,0.001449734
3293,2023-01-20 10:49:59.964237,119966354,0,0.05,-0.17,0.02,0.1,-0.04,-0.5,0,0,0,1.34,0,0,0.001449734
3332,2023-01-20 10:50:00.064254,120066356,0,-0.07,-0.03,0,0.12,-0.07,-0.5,0,0,0,0.85,0,0,0.0006294846
3372,2023-01-20 10:50:00.164280,120166355,0,-0.07,-0.03,0,0.12,-0.07,-0.46,0,0,0,1.17,0,0,0.0005386944
3413,2023-01-20 10:50:00.264293,120266363,0,0.09,-0.05,0.02,0.11,-0.06,-0.48,0,0,0,1.7,0,0,0.000576249
3452,2023-01-20 10:50:00.364270,120366348,0,0.09,-0.05,0.02,0.11,-0.06,-0.41,0,0,0,0.55,0,0,0.000545954
3492,2023-01-20 10:50:00.464283,120466359,0,0.08,0,0.05,0.12,-0.06,-0.43,0,0,0,0.63,0,0,0.0005162767
3532,2023-01-20 10:50:00.564280,120566349,0,0.08,0,0.05,0.12,-0.06,-0.43,0,0,0,1.33,0,0,0.0005162767
3573,2023-01-20 10:50:00.664271,120666346,0,0.05,0,0.09,0.12,-0.07,-0.38,0,0,0,0.58,0,0,0.000535349
3614,2023-01-20 10:50:00.764268,120766355,0,0.05,0,0.09,0.12,-0.07,-0.4,0,0,0,1.17,0,0,0.000535349
3655,2023-01-20 10:50:00.864250,120866353,0,0.09,-0.11,0.01,0.12,-0.07,-0.47,0,0,0,1.24,0,0,0.001070024
3692,2023-01-20 10:50:00.964226,120966347,0,0.09,-0.11,0.01,0.12,-0.07,-0.43,0,0,0,0.18,0,0,0.001070024
3724,2023-01-20 10:50:01.064251,121066375,0,0.02,0.07,0.11,0.13,-0.1,-0.44,0,0,0,0.97,0,0,0.0008878394
3755,2023-01-20 10:50:01.164248,121166365,0,0.02,0.07,0.11,0.13,-0.1,-0.5,0,0,0,0.96,0,0,0.0008878394
3789,2023-01-20 10:50:01.264210,121266360,0,-0.07,-0.01,0.08,0.15,-0.1,-0.5,0,0,0,0.86,0,0,0.0006806415
3820,2023-01-20 10:50:01.364148,121366352,0,-0.07,-0.01,0.08,0.15,-0.1,-0.5,0,0,0,1.57,0,0,0.0006806415
3852,2023-01-20 10:50:01.464163,121466353,0,-0.13,0.03,0.17,0.15,-0.1,-0.5,0,0,0,1.31,0,0,0.00233657
3885,2023-01-20 10:50:01.564214,121566352,0,-0.13,0.03,0.17,0.15,-0.1,-0.5,0,0,0,2.17,0,0,0.00233657
3918,2023-01-20 10:50:01.664229,121666348,0,0.09,0.06,0.25,0.12,-0.11,-0.5,0,0,0,1.51,0,0,0.003657853
3951,2023-01-20 10:50:01.764239,121766356,0,0.09,0.06,0.25,0.12,-0.11,-0.5,0,0,0,3.37,0,0,0.003657853
3984,2023-01-20 10:50:01.864187,121866351,0,0.09,-0.09,0.11,0.13,-0.09,-0.5,0,0,0,4.52,0,0,0.008090186
4016,2023-01-20 10:50:01.964107,121966347,0,0.09,-0.09,0.11,0.13,-0.09,-0.5,0,0,0,1.06,0,0,0.00614259
4048,2023-01-20 10:50:02.064130,122066355,0,-0.06,0.02,-0.04,0.16,-0.12,-0.5,0,0,0,2.63,0,0,0.01449909
4079,2023-01-20 10:50:02.164194,122166353,0,-0.06,0.02,-0.04,0.16,-0.12,-0.5,0,0,0,3.37,0,0,0.01021284
4113,2023-01-20 10:50:02.264211,122266347,0,0.01,-0.23,0.01,0.14,-0.08,-0.5,0,0,0,1.61,0,0,0.004510749
4144,2023-01-20 10:50:02.364215,122366353,0,0.01,-0.23,0.01,0.14,-0.08,-0.32,0,0,0,2.55,0,0,0.002785853
4176,2023-01-20 10:50:02.463957,122466351,0,0.01,0.06,0.17,0.17,-0.13,-0.2,0,0,0,4.9,0,0,0.001796306
4209,2023-01-20 10:50:02.563582,122566374,0,0.01,0.06,0.17,0.17,-0.13,-0.23,0,0,0,2.27,0,0,0.001796306
4243,2023-01-20 10:50:02.663437,122666351,0,0.03,0.12,0.32,0.16,-0.12,-0.13,0,0,0,2.25,0,0,0.005984979
4275,2023-01-20 10:50:02.763489,122766365,0,0.03,0.12,0.32,0.16,-0.12,-0.24,0,0,0,2.64,0,0,0.005984979
4309,2023-01-20 10:50:02.863453,122866332,0,-0.07,-0.31,0.95,0.14,-0.08,-0.16,0,0,0,1.11,0,0,0.0498412
4340,2023-01-20 10:50:02.963446,122966350,0,-0.07,-0.31,0.95,0.14,-0.08,-0.29,0,0,0,1.17,0,0,0.0498412
4373,2023-01-20 10:50:03.063464,123066378,0,0.57,-0.3,0.91,0.12,-0.1,-0.2,0,0,0,3.04,0,0,0.06256755
4403,2023-01-20 10:50:03.163459,123166375,0,0.57,-0.3,0.91,0.12,-0.1,-0.25,0,0,0,3.65,0,0,0.06256755
4438,2023-01-20 10:50:03.263447,123266360,0,0.07,-0.46,1.13,0.14,-0.08,-0.24,0,0,0,2.62,0,0,0.07654101
4468,2023-01-20 10:50:03.363447,123366355,0,0.07,-0.46,1.13,0.14,-0.08,-0.46,0,0,0,2.08,0,0,0.07654101
4501,2023-01-20 10:50:03.463467,123466364,0,0.27,-0.03,0.47,0.16,-0.13,-0.35,0,0,0,0.82,0,0,0.01551409
4533,2023-01-20 10:50:03.563463,123566347,0,0.27,-0.03,0.47,0.16,-0.13,-0.45,0,0,0,4.28,0,0,0.01551409
4567,2023-01-20 10:50:03.663474,123666355,0,0.2,0.1,0.25,0.18,-0.13,-0.29,0,0,0,3.09,0,0,0.00598702
4599,2023-01-20 10:50:03.763479,123766364,0,0.2,0.1,0.25,0.18,-0.13,-0.29,0,0,0,2.22,0,0,0.00598702
4633,2023-01-20 10:50:03.863665,123866353,0,0.05,0.32,0.53,0.18,-0.12,-0.22,0,0,0,3.29,0,0,0.02041467
4665,2023-01-20 10:50:03.963980,123966357,0,0.05,0.32,0.53,0.18,-0.12,-0.18,0,0,0,0.26,0,0,0.02041467
4698,2023-01-20 10:50:04.064140,124066362,0,-0.45,0.25,0.61,0.18,-0.1,-0.11,0,0,0,3.29,0,0,0.03339664
4728,2023-01-20 10:50:04.164192,124166346,0,-0.45,0.25,0.61,0.18,-0.1,-0.18,0,0,0,2.02,0,0,0.03339664
4763,2023-01-20 10:50:04.264233,124266366,0,-0.44,0.11,0.21,0.17,-0.08,-0.09,0,0,0,2.82,0,0,0.01319684
4793,2023-01-20 10:50:04.364227,124366364,0,-0.44,0.11,0.21,0.17,-0.08,-0.17,0,0,0,2.45,0,0,0.01319684
4826,2023-01-20 10:50:04.464185,124466350,0,-0.16,-0.08,0.08,0.16,-0.08,-0.14,0,0,0,3.22,0,0,0.002141786
4859,2023-01-20 10:50:04.564144,124566349,0,-0.16,-0.08,0.08,0.16,-0.08,-0.13,0,0,0,3.92,0,0,0.002141786
4893,2023-01-20 10:50:04.664165,124666357,0,-0.45,0.2,0.32,0.2,-0.1,-0.09,0,0,0,3.13,0,0,0.01847601
4925,2023-01-20 10:50:04.764212,124766361,0,-0.45,0.2,0.32,0.2,-0.1,0,0,0,0,2.92,0,0,0.01847601
4959,2023-01-20 10:50:04.864187,124866351,0,-0.05,0.35,0.62,0.19,-0.09,0,0,0,0,1.32,0,0,0.02727253
4989,2023-01-20 10:50:04.964149,124966361,0,-0.05,0.35,0.62,0.19,-0.09,0.04,0,0,0,3.81,0,0,0.02727253
5022,2023-01-20 10:50:05.064161,125066359,0,-0.04,-0.12,0.2,0.18,-0.07,-0.06,0,0,0,1.18,0,0,0.003195063
5052,2023-01-20 10:50:05.164199,125166348,0,-0.04,-0.12,0.2,0.18,-0.07,-0.05,0,0,0,0.96,0,0,0.003195063
5087,2023-01-20 10:50:05.264224,125266359,0,-0.01,-0.01,0.37,0.16,-0.08,0,0,0,0,1.78,0,0,0.007579636
5117,2023-01-20 10:50:05.364216,125366356,0,-0.01,-0.01,0.37,0.16,-0.08,0.07,0,0,0,1.44,0,0,0.007579636
5150,2023-01-20 10:50:05.464215,125466348,0,-0.18,-0.08,0.5,0.15,-0.09,0.04,0,0,0,2.59,0,0,0.01590934
5182,2023-01-20 10:50:05.564249,125566368,0,-0.18,-0.08,0.5,0.15,-0.09,0.02,0,0,0,3.51,0,0,0.01590934
5217,2023-01-20 10:50:05.664237,125666350,0,0,0.23,0.37,0.12,-0.12,0,0,0,0,1.49,0,0,0.01042582
5249,2023-01-20 10:50:05.764243,125766353,0,0,0.23,0.37,0.12,-0.12,0.02,0,0,0,1.01,0,0,0.01042582
5283,2023-01-20 10:50:05.858431,125866372,0,0.07,-0.18,0.01,0.17,-0.11,0.13,0,0,0,3.5,0,0,0.002277254
5313,2023-01-20 10:50:05.949344,125966358,0,0.07,-0.18,0.01,0.17,-0.11,0.22,0,0,0,2.35,0,0,0.002277254
5346,2023-01-20 10:50:06.044301,126066355,0,-0.3,0.17,0.47,0.19,-0.15,0.27,0,0,0,2.91,0,0,0.0188395
5376,2023-01-20 10:50:06.144339,126166357,0,-0.3,0.17,0.47,0.19,-0.15,0.29,0,0,0,1.43,0,0,0.0188395
5411,2023-01-20 10:50:06.243805,126266351,0,-0.24,0.18,0.3,0.14,-0.13,0.31,0,0,0,2.62,0,0,0.009958767
5443,2023-01-20 10:50:06.342574,126366355,0,-0.24,0.18,0.3,0.14,-0.13,0.42,0,0,0,0,0,0,0.009958767
5476,2023-01-20 10:50:06.441850,126466354,0,-0.44,0.04,0.31,0.14,-0.12,0.46,33,-18,46,0,0,0,0.01577643
5508,2023-01-20 10:50:06.541842,126566358,0,-0.44,0.04,0.31,0.14,-0.12,0.63,5,-12,29,0,0,0,0.01577643
5542,2023-01-20 10:50:06.641816,126666366,0,0.31,-0.25,0.29,0.1,-0.1,0.72,5,-10,30,0,0,0,0.0131285
5574,2023-01-20 10:50:06.741744,126766358,0,0.31,-0.25,0.29,0.1,-0.1,0.63,2,-16,14,0,0,0,0.0131285
5608,2023-01-20 10:50:06.841663,126866352,0,0.17,-0.03,0.26,0.08,-0.1,0.61,-6,-7,17,0,0,0,0.005299328
5638,2023-01-20 10:50:06.941588,126966367,0,0.17,-0.03,0.26,0.08,-0.1,0.64,-3,-1,9,0,0,0,0.005299328
5671,2023-01-20 10:50:07.041525,127066363,0,-0.04,-0.06,0.37,0.05,-0.07,0.68,-6,-5,3,0,0,0,0.007320264
5701,2023-01-20 10:50:07.141493,127166349,0,-0.04,-0.06,0.37,0.05,-0.07,0.68,7,2,-3,0,0,0,0.007320264
5736,2023-01-20 10:50:07.241509,127266350,0,-0.27,0.17,0.74,0,-0.07,0.78,9,5,-2,0,0,0,0.03164966
5766,2023-01-20 10:50:07.341577,127366355,0,-0.27,0.17,0.74,0,-0.07,0.84,9,-3,1,0,0,0,0.03164966
5799,2023-01-20 10:50:07.441568,127466345,0,-0.09,-0.1,0.42,0.03,-0.06,0.74,6,-7,-6,0,0,0,0.009255555
5831,2023-01-20 10:50:07.541490,127566353,0,-0.09,-0.1,0.42,0.03,-0.06,0.68,-2,-11,4,0,0,0,0.009255555
5865,2023-01-20 10:50:07.646106,127666349,0,0.15,-0.15,0.53,0.04,-0.08,0.62,11,-1,-1,0,0,0,0.01508826
5897,2023-01-20 10:50:07.757380,127766350,0,0.15,-0.15,0.53,0.04,-0.08,0.63,0,-13,2,0,0,0,0.01508826
5931,2023-01-20 10:50:07.856015,127866352,0,-0.15,-0.21,0.33,0.07,-0.1,0.69,17,-7,-1,0,0,0,0.008224883
5962,2023-01-20 10:50:07.946816,127966367,0,-0.15,-0.21,0.33,0.07,-0.1,0.81,7,-3,-2,0,0,0,0.008224883
5996,2023-01-20 10:50:08.041395,128066351,0,0.13,-0.03,0.41,0.03,-0.13,0.85,5,-5,2,0,0,0,0.008234074
6026,2023-01-20 10:50:08.141378,128166352,0,0.13,-0.03,0.41,0.03,-0.13,0.8,10,-1,1,0,0,0,0.008234074
6061,2023-01-20 10:50:08.241381,128266349,0,0.07,0.01,0.46,0.02,-0.12,0.77,12,4,0,0,0,0,0.009125611
6091,2023-01-20 10:50:08.341429,128366354,0,0.07,0.01,0.46,0.02,-0.12,0.81,17,-8,-5,0,0,0,0.009125611
6124,2023-01-20 10:50:08.441443,128466347,0,-0.19,-0.07,0.26,0.04,-0.12,0.75,9,-8,1,0,0,0,0.005439064
6156,2023-01-20 10:50:08.541451,128566361,0,-0.19,-0.07,0.26,0.04,-0.12,0.67,10,2,-3,0,0,0,0.004737046
6190,2023-01-20 10:50:08.641444,128666362,0,-0.41,-0.03,0.44,0.01,-0.1,0.74,10,-9,2,0,0,0,0.01525572
6222,2023-01-20 10:50:08.741436,128766362,0,-0.41,-0.03,0.44,0.01,-0.1,0.77,7,-6,-2,0,0,0,0.01525572
6256,2023-01-20 10:50:08.841466,128866356,0,-0.44,0.07,0.47,0.05,-0.13,0.82,10,-4,0,0,0,0,0.01770706
6289,2023-01-20 10:50:08.941560,128966352,0,-0.44,0.07,0.47,0.05,-0.13,0.83,15,-6,-6,0,0,0,0.01770706
6322,2023-01-20 10:50:09.041633,129066352,0,0.02,0.08,0.57,0.01,-0.12,0.87,5,-5,4,0,0,0,0.01407492
6352,2023-01-20 10:50:09.141672,129166352,0,0.02,0.08,0.57,0.01,-0.12,0.87,-2,-4,13,0,0,0,0.01407492
6387,2023-01-20 10:50:09.241616,129266349,0,0.13,0.08,0.26,0,-0.11,0.9,0,-3,2,0,0,0,0.007826497
6417,2023-01-20 10:50:09.341455,129366368,0,0.13,0.08,0.26,0,-0.11,0.99,9,-9,3,0,0,0,0.009634369
6450,2023-01-20 10:50:09.441128,129466653,0,0.06,-0.04,0.43,0.01,-0.09,0.96,1,-3,6,0,0,0,0.008885018
6482,2023-01-20 10:50:09.539901,129566645,0,0.06,-0.04,0.43,0.01,-0.09,1.1,-5,-2,10,0,0,0,0.01167392
6516,2023-01-20 10:50:09.639155,129666642,0,-0.27,-0.18,0.37,0.03,-0.09,1.15,-1,-3,17,0,0,0,0.01277837
6548,2023-01-20 10:50:09.739153,129766641,0,-0.27,-0.18,0.37,0.03,-0.09,1.13,-1,-4,8,0,0,0,0.01239456
6582,2023-01-20 10:50:09.839145,129866643,0,0.01,0.21,0.35,0.02,-0.12,1.2,-5,-2,22,0,0,0,0.01407687
6613,2023-01-20 10:50:09.939125,129966645,0,0.01,0.21,0.35,0.02,-0.12,1.19,0,0,14,0,0,0,0.01365546
6646,2023-01-20 10:50:10.039118,130066641,0,-0.09,-0.14,0.45,0.01,-0.09,1.22,-10,0,15,0,0,0,0.01457357
6676,2023-01-20 10:50:10.139156,130166654,0,-0.09,-0.14,0.45,0.01,-0.09,1.34,0,-2,14,0,0,0,0.01738503
6711,2023-01-20 10:50:10.239059,130266643,0,0.05,0.07,0.47,-0.01,-0.1,1.37,-2,-2,11,0,0,0,0.01821374
6741,2023-01-20 10:50:10.338820,130366663,0,0.05,0.07,0.47,-0.01,-0.1,1.36,-5,0,10,0,0,0,0.01786364
6774,2023-01-20 10:50:10.438985,130466996,0,-0.22,0.05,0.78,-0.07,-0.09,1.35,-13,-4,15,0,0,0,0.02795327
6806,2023-01-20 10:50:10.538961,130567000,0,-0.22,0.05,0.78,-0.07,-0.09,1.34,-2,-1,10,0,0,0,0.02795327
6840,2023-01-20 10:50:10.638947,130667009,0,-0.31,-0.07,0.55,-0.08,-0.06,1.25,4,1,5,0,0,0,0.01744524
6872,2023-01-20 10:50:10.738916,130766996,0,-0.31,-0.07,0.55,-0.08,-0.06,1.32,2,-5,7,0,0,0,0.01744524
6906,2023-01-20 10:50:10.838875,130867000,0,0.11,0.08,0.56,-0.08,-0.08,1.33,0,-2,0,0,0,0,0.01719402
6936,2023-01-20 10:50:10.938795,130967009,0,0.11,0.08,0.56,-0.08,-0.08,1.27,7,-3,2,0,0,0,0.015781
6969,2023-01-20 10:50:11.038765,131067000,0,0.2,0.2,0.56,-0.07,-0.09,1.27,3,-3,-7,0,0,0,0.01613292
6999,2023-01-20 10:50:11.138863,131167011,0,0.2,0.2,0.56,-0.07,-0.09,1.32,5,-2,-2,0,0,0,0.01693951
7035,2023-01-20 10:50:11.238911,131267009,0,-0.02,0.15,0.65,-0.09,-0.06,1.46,0,1,0,0,0,0,0.02063201
7065,2023-01-20 10:50:11.338917,131367022,0,-0.02,0.15,0.65,-0.09,-0.06,1.71,1,2,-2,0,0,0,0.02838218
7098,2023-01-20 10:50:11.438890,131466996,0,0.13,-0.02,0.66,-0.06,-0.04,1.62,-2,4,-4,0,0,0,0.02533202
7129,2023-01-20 10:50:11.538900,131567001,0,0.13,-0.02,0.66,-0.06,-0.04,1.5,-1,0,-1,0,0,0,0.02184083
7163,2023-01-20 10:50:11.638903,131667000,0,0.13,0.12,0.79,-0.11,-0.02,1.56,5,7,-1,0,0,0,0.02696159
7195,2023-01-20 10:50:11.738897,131766995,0,0.13,0.12,0.79,-0.11,-0.02,1.58,-8,-1,-1,0,0,0,0.02696159
7229,2023-01-20 10:50:11.838873,131867000,0,0.05,0.09,0.88,-0.12,-0.01,1.4,0,7,-1,0,0,0,0.03244661
7259,2023-01-20 10:50:11.938798,131967000,0,0.05,0.09,0.88,-0.12,-0.01,1.42,-11,4,2,0,0,0,0.03244661
7292,2023-01-20 10:50:12.038782,132066999,0,0.19,0.2,0.83,-0.1,-0.01,1.42,-12,2,6,0,0,0,0.03248515
7322,2023-01-20 10:50:12.138860,132166996,0,0.19,0.2,0.83,-0.1,-0.01,1.5,-9,0,6,0,0,0,0.03248515
7357,2023-01-20 10:50:12.238930,132267017,0,0.13,0.17,0.85,-0.13,0,1.52,-11,0,12,0,0,0,0.03299927
7387,2023-01-20 10:50:12.338937,132367028,0,0.13,0.17,0.85,-0.13,0,1.62,-8,0,4,0,0,0,0.03299927
7420,2023-01-20 10:50:12.438899,132466995,0,-0.01,0.11,0.75,-0.17,0.03,1.54,-8,0,10,0,0,0,0.02577064
7452,2023-01-20 10:50:12.538897,132567000,0,-0.01,0.11,0.75,-0.17,0.03,1.39,0,1,6,0,0,0,0.02577064
7486,2023-01-20 10:50:12.638896,132667000,0,0.14,-0.08,0.78,-0.16,0.06,1.35,-1,1,5,0,0,0,0.02869605
7518,2023-01-20 10:50:12.738907,132767000,0,0.14,-0.08,0.78,-0.16,0.06,1.3,-7,-1,8,0,0,0,0.02869605
7552,2023-01-20 10:50:12.838894,132867010,0,-0.19,0.12,0.74,-0.12,0.04,1.32,6,-2,-2,0,0,0,0.02758074
7582,2023-01-20 10:50:12.938811,132967000,0,-0.19,0.12,0.74,-0.12,0.04,1.56,2,2,10,0,0,0,0.02758074
7616,2023-01-20 10:50:13.038794,133066999,0,0.03,-0.06,0.64,-0.11,0.07,1.52,4,4,-2,0,0,0,0.02249746
7646,2023-01-20 10:50:13.138870,133167001,0,0.03,-0.06,0.64,-0.11,0.07,1.5,4,-2,3,0,0,0,0.02192637
7681,2023-01-20 10:50:13.238913,133267000,0,-0.14,0.25,0.71,-0.12,0.06,1.58,-2,0,4,0,0,0,0.02861002
7711,2023-01-20 10:50:13.338930,133367020,0,-0.14,0.25,0.71,-0.12,0.06,1.47,-8,-1,11,0,0,0,0.02861002
7744,2023-01-20 10:50:13.438904,133466996,0,0.09,0,0.76,-0.12,0.1,1.45,-6,-5,0,0,0,0,0.02860438
7776,2023-01-20 10:50:13.538909,133567000,0,0.09,0,0.76,-0.12,0.1,1.5,1,3,-2,0,0,0,0.02860438
7810,2023-01-20 10:50:13.638903,133666995,0,-0.16,-0.02,0.82,-0.08,0.13,1.02,-2,-1,-11,0,0,0,0.03509681
7842,2023-01-20 10:50:13.738905,133766998,0,-0.16,-0.02,0.82,-0.08,0.13,0.73,7,0,-12,0,0,0,0.03509681
7876,2023-01-20 10:50:13.838880,133867006,0,0,-0.31,0.77,-0.11,0.2,0.73,0,-6,-3,0,0,0,0.03466144
7908,2023-01-20 10:50:13.938794,133967003,0,0,-0.31,0.77,-0.11,0.2,0.83,0,-1,-9,0,0,0,0.03466144
7941,2023-01-20 10:50:14.038783,134067014,0,0.01,-0.08,0.73,-0.06,0.2,0.87,5,-2,-15,0,0,0,0.0276775
7971,2023-01-20 10:50:14.138845,134167003,0,0.01,-0.08,0.73,-0.06,0.2,0.58,-1,-3,-6,0,0,0,0.0276775
8006,2023-01-20 10:50:14.238890,134267000,0,-0.04,0.22,0.42,-0.08,0.23,0.81,-3,3,-9,0,0,0,0.01209083
8036,2023-01-20 10:50:14.338900,134367002,0,-0.04,0.22,0.42,-0.08,0.23,1.11,1,0,-14,0,0,0,0.01209083
8069,2023-01-20 10:50:14.438902,134467000,0,-0.08,-0.05,0.68,-0.05,0.25,1.18,12,-10,-14,0,0,0,0.02527718
8102,2023-01-20 10:50:14.538904,134567002,0,-0.08,-0.05,0.68,-0.05,0.25,1.21,16,-8,-7,0,0,0,0.02527718
8136,2023-01-20 10:50:14.638898,134666996,0,0.24,-0.31,0.58,-0.05,0.26,1.34,24,-7,-9,0,0,0,0.02585232
8168,2023-01-20 10:50:14.738902,134767000,0,0.24,-0.31,0.58,-0.05,0.26,1.3,13,-5,-7,0,0,0,0.02585232
8202,2023-01-20 10:50:14.838871,134867002,0,-0.2,0.15,0.51,-0.05,0.23,1.55,24,-4,-16,0,0,0,0.02324112
8232,2023-01-20 10:50:14.938800,134967015,0,-0.2,0.15,0.51,-0.05,0.23,1.31,7,-18,-6,0,0,0,0.01746735
8265,2023-01-20 10:50:15.038758,135066999,0,0,-0.22,0.69,-0.04,0.24,1.18,8,-8,-9,0,0,0,0.02814871
8295,2023-01-20 10:50:15.138827,135167003,0,0,-0.22,0.69,-0.04,0.24,1.44,7,-2,-11,0,0,0,0.02814871
8330,2023-01-20 10:50:15.238872,135267000,0,-0.03,-0.13,0.57,-0.05,0.22,1.29,12,3,-6,0,0,0,0.01888439
8360,2023-01-20 10:50:15.338903,135367011,0,-0.03,-0.13,0.57,-0.05,0.22,1.36,2,-2,2,0,0,0,0.01888439
8393,2023-01-20 10:50:15.438903,135467000,0,-0.17,-0.02,0.53,-0.03,0.2,1.47,3,-6,-17,0,0,0,0.02091432
8425,2023-01-20 10:50:15.538903,135567003,0,-0.17,-0.02,0.53,-0.03,0.2,1.5,3,-3,-7,0,0,0,0.0218768
8459,2023-01-20 10:50:15.638904,135667005,0,-0.05,-0.16,0.5,-0.01,0.17,1.51,2,0,-6,0,0,0,0.02224496
8491,2023-01-20 10:50:15.738904,135767003,0,-0.05,-0.16,0.5,-0.01,0.17,1.39,7,-3,-11,0,0,0,0.0187884
8525,2023-01-20 10:50:15.838910,135867019,0,0.05,-0.27,0.5,0.01,0.17,1.34,-1,0,5,0,0,0,0.01776749
8555,2023-01-20 10:50:15.938862,135967002,0,0.05,-0.27,0.5,0.01,0.17,1.41,-6,-2,-7,0,0,0,0.01935312
8588,2023-01-20 10:50:16.038868,136067015,0,0.26,-0.3,0.32,0.05,0.13,1.46,-2,-4,6,0,0,0,0.02063412
8618,2023-01-20 10:50:16.138900,136167016,0,0.26,-0.3,0.32,0.05,0.13,1.35,-4,6,-2,0,0,0,0.01775902
8653,2023-01-20 10:50:16.238878,136266996,0,0.52,-0.3,0,0.08,0.09,1.26,-1,-1,1,0,0,0,0.01986524
8683,2023-01-20 10:50:16.338825,136366998,0,0.52,-0.3,0,0.08,0.09,1.28,-1,-5,-4,0,0,0,0.01986524
8716,2023-01-20 10:50:16.438816,136466999,0,-0.08,-0.26,-0.1,0.07,0.08,1.21,-15,-8,-5,0,0,0,0.01425013
8748,2023-01-20 10:50:16.538872,136566998,0,-0.08,-0.26,-0.1,0.07,0.08,1.38,-3,-7,-16,0,0,0,0.01852078
8782,2023-01-20 10:50:16.638904,136666995,0,0.24,-0.05,-0.02,0.04,0.07,1.35,-3,-5,-14,0,0,0,0.0176595
8814,2023-01-20 10:50:16.738914,136767007,0,0.24,-0.05,-0.02,0.04,0.07,1.51,-2,-7,-24,0,0,0,0.02226795
8848,2023-01-20 10:50:16.838906,136867010,0,0.07,-0.24,-0.1,-0.01,0.11,1.51,8,-7,-13,0,0,0,0.02203125
8878,2023-01-20 10:50:16.938875,136967003,0,0.07,-0.24,-0.1,-0.01,0.11,1.61,-6,-5,-11,0,0,0,0.02511181
8911,2023-01-20 10:50:17.038871,137067002,0,0.05,-0.17,0,-0.05,0.11,1.53,-3,-9,-11,0,0,0,0.02269387
8941,2023-01-20 10:50:17.138909,137167011,0,0.05,-0.17,0,-0.05,0.11,1.65,-7,-13,-11,0,0,0,0.02641924
8976,2023-01-20 10:50:17.238929,137267017,0,-0.01,-0.29,0.05,-0.07,0.12,1.75,-15,-10,-2,0,0,0,0.02986502
9006,2023-01-20 10:50:17.338923,137367020,0,-0.01,-0.29,0.05,-0.07,0.12,1.58,-20,-9,0,0,0,0,0.02434292
9039,2023-01-20 10:50:17.438910,137467008,0,-0.07,-0.15,0.29,-0.09,0.1,1.53,8,-2,-12,0,0,0,0.02263586
9071,2023-01-20 10:50:17.538911,137566998,0,-0.07,-0.15,0.29,-0.09,0.1,1.7,-8,-16,-10,0,0,0,0.02819365
9105,2023-01-20 10:50:17.638915,137666995,0,0.02,-0.2,0.2,-0.14,0.1,1.45,-12,-9,0,0,0,0,0.02032366
9137,2023-01-20 10:50:17.738930,137767012,0,0.02,-0.2,0.2,-0.14,0.1,1.45,-10,-4,-2,0,0,0,0.02050361
9171,2023-01-20 10:50:17.835450,137866999,0,0.05,-0.22,0.43,-0.14,0.08,1.21,-9,-10,-15,0,0,0,0.01419887
9201,2023-01-20 10:50:17.926548,137967004,0,0.05,-0.22,0.43,-0.14,0.08,1.21,-19,-4,3,0,0,0,0.01414413
9234,2023-01-20 10:50:18.021482,138067027,0,-0.1,-0.24,0.39,-0.13,0.07,1.29,-6,0,-4,0,0,0,0.01630963
9265,2023-01-20 10:50:18.132253,138167002,0,-0.1,-0.24,0.39,-0.13,0.07,1.06,-6,3,-14,0,0,0,0.01157897
9300,2023-01-20 10:50:18.238871,138267001,0,-0.04,-0.21,0.46,-0.13,0.07,1.51,-12,-3,0,0,0,0,0.02218219
9330,2023-01-20 10:50:18.338922,138367012,0,-0.04,-0.21,0.46,-0.13,0.07,1.59,-3,-1,-9,0,0,0,0.02460543
9363,2023-01-20 10:50:18.435470,138466999,0,0,-0.27,0.47,-0.15,0.07,1.64,-10,-8,-6,0,0,0,0.02607608
9395,2023-01-20 10:50:18.526576,138567002,0,0,-0.27,0.47,-0.15,0.07,1.43,2,2,-10,0,0,0,0.01997432
9429,2023-01-20 10:50:18.619396,138667000,0,-0.02,-0.25,0.57,-0.15,0.07,1.49,-6,-17,-8,0,0,0,0.02166485
9461,2023-01-20 10:50:18.719379,138767017,0,-0.02,-0.25,0.57,-0.15,0.07,1.43,-3,-6,-8,0,0,0,0.01993468
9495,2023-01-20 10:50:18.819326,138866998,0,-0.04,-0.23,0.52,-0.15,0.07,1.3,1,-6,-12,0,0,0,0.01656563
9527,2023-01-20 10:50:18.919290,138966998,0,-0.04,-0.23,0.52,-0.15,0.07,1.22,0,-6,-6,0,0,0,0.01645755
9560,2023-01-20 10:50:19.019273,139067003,0,-0.02,-0.17,0.44,-0.12,0.05,1.22,-5,-4,0,0,0,0,0.01446748
9590,2023-01-20 10:50:19.119303,139166998,0,-0.02,-0.17,0.44,-0.12,0.05,1.27,-17,-11,5,0,0,0,0.01565228
9625,2023-01-20 10:50:19.219324,139266995,0,-0.09,-0.11,0.43,-0.1,0.03,1.26,-9,-6,3,0,0,0,0.01555422
9655,2023-01-20 10:50:19.319306,139367002,0,-0.09,-0.11,0.43,-0.1,0.03,1.38,-6,-1,-6,0,0,0,0.01842002
9688,2023-01-20 10:50:19.419272,139466999,0,0.07,-0.16,0.34,-0.11,0.03,1.31,-2,-6,-7,0,0,0,0.01673483
9720,2023-01-20 10:50:19.519240,139567020,0,0.07,-0.16,0.34,-0.11,0.03,1.4,-6,-10,-6,0,0,0,0.0190234
9754,2023-01-20 10:50:19.619174,139666998,0,-0.13,-0.34,0.07,-0.09,0.02,1.23,-3,-6,-4,0,0,0,0.01484584
9786,2023-01-20 10:50:19.719173,139766999,0,-0.13,-0.34,0.07,-0.09,0.02,1.24,0,1,-10,0,0,0,0.01506304
9820,2023-01-20 10:50:19.819166,139866997,0,0,-0.23,0.33,-0.14,0.01,1.23,7,6,-6,0,0,0,0.01472925
9850,2023-01-20 10:50:19.919157,139967005,0,0,-0.23,0.33,-0.14,0.01,1.1,3,-1,-15,0,0,0,0.01190346
9883,2023-01-20 10:50:20.019142,140067002,0,0.1,-0.14,0,-0.15,-0.01,1.21,8,-7,-5,0,0,0,0.01423531
9913,2023-01-20 10:50:20.119149,140166999,0,0.1,-0.14,0,-0.15,-0.01,1.05,1,0,-2,0,0,0,0.01068695
9948,2023-01-20 10:50:20.219164,140266994,0,0,-0.32,0.08,-0.16,-0.01,1.04,0,-8,-6,0,0,0,0.01064033
9981,2023-01-20 10:50:20.319240,140367006,0,0,-0.32,0.08,-0.16,-0.01,0.87,-7,-6,-1,0,0,0,0.007332178
10014,2023-01-20 10:50:20.419280,140466995,0,-0.01,-0.2,0.15,-0.18,-0.03,0.81,-14,-4,-9,0,0,0,0.006451552
10046,2023-01-20 10:50:20.519280,140566999,0,-0.01,-0.2,0.15,-0.18,-0.03,0.97,-3,-4,0,0,0,0,0.009200526
10080,2023-01-20 10:50:20.619284,140667000,0,0,-0.12,0.44,-0.2,-0.03,1.11,5,-7,2,0,0,0,0.01203242
10112,2023-01-20 10:50:20.719325,140767003,0,0,-0.12,0.44,-0.2,-0.03,1.03,-5,-13,-3,0,0,0,0.0104334
10146,2023-01-20 10:50:20.819329,140866999,0,0.24,-0.08,0.44,-0.21,-0.05,1.04,6,-3,-12,0,0,0,0.0127854
10176,2023-01-20 10:50:20.919219,140967008,0,0.24,-0.08,0.44,-0.21,-0.05,1.08,1,-7,-4,0,0,0,0.0127854
10209,2023-01-20 10:50:21.019128,141067002,0,-0.14,-0.14,0.36,-0.19,-0.04,1.08,5,-3,-4,0,0,0,0.01143525
10239,2023-01-20 10:50:21.119177,141166996,0,-0.14,-0.14,0.36,-0.19,-0.04,0.87,-3,-2,-1,0,0,0,0.008362094
10274,2023-01-20 10:50:21.219234,141267013,0,-0.07,-0.16,0.38,-0.2,-0.04,0.87,-3,0,-4,0,0,0,0.008615051
10304,2023-01-20 10:50:21.319208,141367011,0,-0.07,-0.16,0.38,-0.2,-0.04,0.86,4,0,3,0,0,0,0.008615051
10337,2023-01-20 10:50:21.419179,141466995,0,-0.07,-0.18,0.47,-0.21,-0.03,0.85,1,-1,5,0,0,0,0.0130083
10369,2023-01-20 10:50:21.519221,141567001,0,-0.07,-0.18,0.47,-0.21,-0.03,0.85,6,-5,1,0,0,0,0.0130083
10403,2023-01-20 10:50:21.619237,141667000,0,0.04,-0.19,0.38,-0.24,-0.03,0.83,-9,-7,12,0,0,0,0.009461228
10435,2023-01-20 10:50:21.719181,141767005,0,0.04,-0.19,0.38,-0.24,-0.03,0.82,-2,-2,18,0,0,0,0.009461228
10469,2023-01-20 10:50:21.819121,141866998,0,-0.02,-0.06,0.32,-0.26,-0.04,0.93,-10,-10,18,0,0,0,0.008384774
10499,2023-01-20 10:50:21.919116,141967006,0,-0.02,-0.06,0.32,-0.26,-0.04,0.84,-3,-5,21,0,0,0,0.006847823
10532,2023-01-20 10:50:22.019107,142066998,0,-0.25,-0.18,0.2,-0.23,-0.03,1.05,0,-10,18,0,0,0,0.0107014
10562,2023-01-20 10:50:22.119158,142166999,0,-0.25,-0.18,0.2,-0.23,-0.03,0.96,-1,-9,14,0,0,0,0.00908873
10597,2023-01-20 10:50:22.219192,142266999,0,-0.07,0.01,0.53,-0.25,-0.03,0.88,-6,-13,22,0,0,0,0.01482186
10627,2023-01-20 10:50:22.319180,142367022,0,-0.07,0.01,0.53,-0.25,-0.03,0.83,1,-3,6,0,0,0,0.01482186
10660,2023-01-20 10:50:22.419134,142466995,0,-0.07,0.03,0.32,-0.22,-0.06,0.87,13,-10,-5,0,0,0,0.007350666
10692,2023-01-20 10:50:22.519187,142567002,0,-0.07,0.03,0.32,-0.22,-0.06,0.89,10,-10,2,0,0,0,0.007809533
10726,2023-01-20 10:50:22.619219,142666999,0,0.26,-0.12,0.49,-0.25,-0.03,0.99,5,-7,10,0,0,0,0.01736009
10758,2023-01-20 10:50:22.719202,142766999,0,0.26,-0.12,0.49,-0.25,-0.03,0.98,11,-5,11,0,0,0,0.01736009
10792,2023-01-20 10:50:22.819185,142867002,0,0.01,-0.12,0.29,-0.23,-0.03,0.84,19,-4,11,0,0,0,0.006845396
10822,2023-01-20 10:50:22.919154,142967003,0,0.01,-0.12,0.29,-0.23,-0.03,0.73,25,-3,9,0,0,0,0.005303913
10855,2023-01-20 10:50:23.019150,143067014,0,0.05,-0.18,0.07,-0.23,-0.02,0.66,14,-11,12,0,0,0,0.00430902
10885,2023-01-20 10:50:23.119206,143167019,0,0.05,-0.18,0.07,-0.23,-0.02,0.81,19,-8,9,0,0,0,0.006423503
10921,2023-01-20 10:50:23.219222,143266999,0,-0.03,-0.01,0,-0.21,-0.03,0.88,11,-7,13,0,0,0,0.007614354
10951,2023-01-20 10:50:23.319196,143367002,0,-0.03,-0.01,0,-0.21,-0.03,1.11,15,-11,14,0,0,0,0.01199073
10984,2023-01-20 10:50:23.419168,143466995,0,-0.23,-0.08,-0.02,-0.22,0,0.97,19,-14,21,0,0,0,0.009122095
11016,2023-01-20 10:50:23.519189,143567002,0,-0.23,-0.08,-0.02,-0.22,0,1.16,12,-15,24,0,0,0,0.01324659
11050,2023-01-20 10:50:23.619204,143667008,0,0.21,-0.12,0.2,-0.25,0,1.02,17,-11,20,0,0,0,0.01011768
11082,2023-01-20 10:50:23.719177,143766995,0,0.21,-0.12,0.2,-0.25,0,1.1,9,-13,13,0,0,0,0.01181456
11116,2023-01-20 10:50:23.819170,143867002,0,0.38,-0.05,0.38,-0.25,0,1.28,11,-11,20,0,0,0,0.01598923
11149,2023-01-20 10:50:23.919178,143967027,0,0.38,-0.05,0.38,-0.25,0,1.33,8,-15,25,0,0,0,0.01719748
11182,2023-01-20 10:50:24.019161,144067011,0,-0.09,-0.21,0.11,-0.19,0.03,1.36,12,-9,20,0,0,0,0.01792839
11212,2023-01-20 10:50:24.119210,144166999,0,-0.09,-0.21,0.11,-0.19,0.03,1.32,12,0,28,0,0,0,0.01708437
11247,2023-01-20 10:50:24.219257,144267008,0,0.42,0.28,0.5,-0.24,0.02,1.32,2,-2,34,0,0,0,0.02580868
11277,2023-01-20 10:50:24.319185,144366998,0,0.42,0.28,0.5,-0.24,0.02,1.26,8,-8,16,0,0,0,0.02580868
11310,2023-01-20 10:50:24.419144,144466995,0,-0.03,-0.19,0.21,-0.19,0.06,1.32,-15,-5,27,0,0,0,0.01688356
11343,2023-01-20 10:50:24.519226,144567011,0,-0.03,-0.19,0.21,-0.19,0.06,1.35,16,-2,15,0,0,0,0.01771395
11378,2023-01-20 10:50:24.619247,144666995,0,-0.68,0.1,0.24,-0.16,0.06,1.57,6,1,29,0,0,0,0.02832942
11410,2023-01-20 10:50:24.719166,144766995,0,-0.68,0.1,0.24,-0.16,0.06,1.84,-6,1,29,0,0,0,0.03298194
11444,2023-01-20 10:50:24.819116,144867011,0,0.16,-0.05,0.32,-0.2,0.08,1.77,-16,3,35,0,0,0,0.03041725
11475,2023-01-20 10:50:24.919108,144967002,0,0.16,-0.05,0.32,-0.2,0.08,1.54,-14,0,34,0,0,0,0.0231212
11508,2023-01-20 10:50:25.019109,145066998,0,-0.31,0,0.24,-0.16,0.08,1.37,-9,6,24,0,0,0,0.01823125
11538,2023-01-20 10:50:25.119153,145167012,0,-0.31,0,0.24,-0.16,0.08,1.34,-20,9,31,0,0,0,0.01747752
11574,2023-01-20 10:50:25.219168,145267005,0,-0.05,-0.01,0.18,-0.17,0.09,1.16,-29,12,37,0,0,0,0.01322753
11604,2023-01-20 10:50:25.319158,145367001,0,-0.05,-0.01,0.18,-0.17,0.09,1.03,-32,13,24,0,0,0,0.01033514
11637,2023-01-20 10:50:25.419162,145467007,0,1.38,0.34,0.52,-0.2,0.05,1.05,-28,15,32,0,0,0,0.1273839
11669,2023-01-20 10:50:25.519176,145567008,0,1.38,0.34,0.52,-0.2,0.05,-0.29,-40,9,39,0,0,0,0.1273839
11703,2023-01-20 10:50:25.619174,145666997,0,-0.07,-0.01,-0.08,-0.08,0.12,-0.57,-31,19,30,0,0,0,0.003241254
11735,2023-01-20 10:50:25.719171,145767007,0,-0.07,-0.01,-0.08,-0.08,0.12,-0.36,-32,10,32,0,0,0,0.001275391
11768,2023-01-20 10:50:25.819156,145867007,0,0.09,-0.1,-0.12,-0.08,0.14,0.23,-33,9,31,0,0,0,0.001628064
11800,2023-01-20 10:50:25.919123,145966998,0,0.09,-0.1,-0.12,-0.08,0.14,0.36,-11,4,11,0,0,0,0.001628064
11833,2023-01-20 10:50:26.019112,146066999,0,0.32,-0.07,0.07,-0.05,0.12,0.51,0,-3,10,0,0,0,0.005228601
11863,2023-01-20 10:50:26.119153,146167002,0,0.32,-0.07,0.07,-0.05,0.12,0.42,7,1,4,0,0,0,0.005228601
11898,2023-01-20 10:50:26.219173,146266999,0,-0.11,-0.02,-0.09,-0.01,0.13,0.51,-5,4,23,0,0,0,0.002609177
11928,2023-01-20 10:50:26.319138,146367000,0,-0.11,-0.02,-0.09,-0.01,0.13,1.02,-7,2,8,0,0,0,0.01016797
11961,2023-01-20 10:50:26.419113,146466998,0,-0.14,-0.19,0.08,-0.03,0.13,1.22,21,-11,7,0,0,0,0.01449675
11993,2023-01-20 10:50:26.519163,146567018,0,-0.14,-0.19,0.08,-0.03,0.13,0.9,15,-13,3,0,0,0,0.007903139
12027,2023-01-20 10:50:26.619179,146667011,0,0.49,0.25,-0.07,-0.02,0.1,0.78,14,-11,4,0,0,0,0.01486845
12059,2023-01-20 10:50:26.719165,146767002,0,0.49,0.25,-0.07,-0.02,0.1,0.41,26,-14,-1,0,0,0,0.01486845
12092,2023-01-20 10:50:26.819160,146867006,0,0.2,-0.16,0,0.05,0.11,0.33,43,-16,-12,0,0,0,0.003314234
12123,2023-01-20 10:50:26.919128,146966998,0,0.2,-0.16,0,0.05,0.11,0.16,48,-10,-21,0,0,0,0.003314234
12156,2023-01-20 10:50:27.019115,147067003,0,-0.48,-0.07,-0.07,0.05,0.1,0.15,46,-19,-21,0,0,0,0.01232408
12186,2023-01-20 10:50:27.119123,147167002,0,-0.48,-0.07,-0.07,0.05,0.1,0.03,33,-19,-17,0,0,0,0.01232408
12221,2023-01-20 10:50:27.219127,147266995,0,-0.53,-0.17,-0.12,0.03,0.07,0.2,31,-12,-9,0,0,0,0.01637821
12251,2023-01-20 10:50:27.319146,147367000,0,-0.53,-0.17,-0.12,0.03,0.07,0.16,20,-13,-3,0,0,0,0.01637821
12284,2023-01-20 10:50:27.417458,147467020,0,-0.15,-0.08,0.14,-0.02,0.09,0,26,-21,-15,0,0,0,0.002510351
12316,2023-01-20 10:50:27.508476,147567008,0,-0.15,-0.08,0.14,-0.02,0.09,0,21,-21,0,0,0,0,0.002510351
12350,2023-01-20 10:50:27.599494,147666995,0,-0.15,-0.08,0.14,-0.02,0.09,0,50,-7,-13,0,0,0,0.002510351
12382,2023-01-20 10:50:27.699444,147767002,0,0.03,-0.28,0.04,-0.02,0.09,0.04,37,-5,-12,0,0,0,0.004101784
12415,2023-01-20 10:50:27.799435,147867001,0,0.03,-0.28,0.04,-0.02,0.09,0.09,15,-18,6,0,0,0,0.004101784
12447,2023-01-20 10:50:27.899368,147966998,0,-0.35,-0.37,-0.05,-0.05,0.09,0.07,11,-28,11,0,0,0,0.01359292
12480,2023-01-20 10:50:27.999305,148066999,0,-0.35,-0.37,-0.05,-0.05,0.09,-0.08,24,-15,3,0,0,0,0.01359292
12510,2023-01-20 10:50:28.099333,148167002,0,-0.81,0.1,-0.14,-0.09,0.08,-0.05,17,-9,-9,0,0,0,0.03617937
12545,2023-01-20 10:50:28.199356,148267000,0,-0.81,0.1,-0.14,-0.09,0.08,0.02,22,-18,2,0,0,0,0.03617937
12576,2023-01-20 10:50:28.299409,148367028,0,-0.25,0.11,0.1,-0.17,0.1,0.03,25,-6,-8,0,0,0,0.004729164
12609,2023-01-20 10:50:28.399425,148467019,0,-0.25,0.11,0.1,-0.17,0.1,0.23,9,-16,-2,0,0,0,0.004729164
12641,2023-01-20 10:50:28.510302,148566998,0,-0.69,-0.47,0.44,-0.16,0.12,0.14,6,-18,-3,0,0,0,0.04640589
12675,2023-01-20 10:50:28.617436,148666995,0,-0.41,-0.09,0.24,-0.18,0.07,0.04,10,-16,-4,0,0,0,0.0125499
12707,2023-01-20 10:50:28.708443,148767002,0,-0.41,-0.09,0.24,-0.18,0.07,-0.05,15,-15,3,0,0,0,0.0125499
12740,2023-01-20 10:50:28.799439,148866998,0,-0.41,-0.09,0.24,-0.18,0.07,0.06,2,-13,0,0,0,0,0.0125499
12773,2023-01-20 10:50:28.899272,148966999,0,0.02,0.01,0.14,-0.22,0.07,0.05,12,-10,3,0,0,0,0.001231419
12806,2023-01-20 10:50:28.999158,149066999,0,0.02,0.01,0.14,-0.22,0.07,0.05,12,-12,2,0,0,0,0.001231419
12836,2023-01-20 10:50:29.099230,149167018,0,-0.67,-0.22,0.11,-0.24,0.1,0.08,15,-12,-15,0,0,0,0.02654609
12872,2023-01-20 10:50:29.199267,149267001,0,-0.67,-0.22,0.11,-0.24,0.1,0.13,10,-15,-4,0,0,0,0.02654609
12902,2023-01-20 10:50:29.299217,149367015,0,0.31,0.04,0.31,-0.25,0.07,0.02,-1,-15,-4,0,0,0,0.01032985
12935,2023-01-20 10:50:29.399160,149467023,0,0.31,0.04,0.31,-0.25,0.07,-0.05,22,-2,-9,0,0,0,0.01032985
12967,2023-01-20 10:50:29.499153,149566998,0,-0.12,0.08,0.29,-0.24,0.09,0.02,27,1,-10,0,0,0,0.005722626
13001,2023-01-20 10:50:29.599173,149666998,0,-0.12,0.08,0.29,-0.24,0.09,0.04,16,-9,-5,0,0,0,0.005722626
13033,2023-01-20 10:50:29.699169,149767003,0,-0.36,-0.04,0.15,-0.29,0.12,0.07,8,-10,4,0,0,0,0.008151319
13066,2023-01-20 10:50:29.799155,149866998,0,-0.36,-0.04,0.15,-0.29,0.12,0.08,6,-14,1,0,0,0,0.008151319
13097,2023-01-20 10:50:29.899134,149966999,0,-0.38,-0.05,0.56,-0.37,0.16,0.07,13,-7,1,0,0,0,0.02443723
13130,2023-01-20 10:50:29.999113,150067001,0,-0.38,-0.05,0.56,-0.37,0.16,0.04,9,-21,0,0,0,0,0.02443723
13160,2023-01-20 10:50:30.099144,150166998,0,0.08,-0.04,0.67,-0.42,0.18,0.09,1,-8,-5,0,0,0,0.02401142
13195,2023-01-20 10:50:30.199175,150266995,0,0.08,-0.04,0.67,-0.42,0.18,0.12,3,-16,-1,0,0,0,0.02401142
13225,2023-01-20 10:50:30.299201,150367020,0,0.4,-0.15,0.77,-0.33,0.15,0.15,14,-6,-1,0,0,0,0.04049193
13258,2023-01-20 10:50:30.399197,150467015,0,0.4,-0.15,0.77,-0.33,0.15,0.17,0,-8,5,0,0,0,0.04049193
13290,2023-01-20 10:50:30.499176,150566999,0,-0.22,0.08,0.68,-0.34,0.17,0.17,-11,-13,11,0,0,0,0.02668002
13324,2023-01-20 10:50:30.599179,150667008,0,-0.22,0.08,0.68,-0.34,0.17,0.17,3,-6,12,0,0,0,0.02668002
13357,2023-01-20 10:50:30.699171,150767002,0,-0.7,0.05,0.55,-0.39,0.21,0.14,4,-14,9,0,0,0,0.04138365
13390,2023-01-20 10:50:30.799165,150866998,0,-0.7,0.05,0.55,-0.39,0.21,0.22,-1,-3,9,0,0,0,0.04138365
13421,2023-01-20 10:50:30.899136,150967002,0,-0.07,0,0.91,-0.37,0.19,0.28,-6,-10,9,0,0,0,0.04310012
13454,2023-01-20 10:50:30.999107,151067007,0,-0.07,0,0.91,-0.37,0.19,0.34,3,-8,10,0,0,0,0.04310012
13484,2023-01-20 10:50:31.099185,151166998,0,0.21,0.21,0.89,-0.32,0.16,0.31,0,-8,4,0,0,0,0.04569732
13519,2023-01-20 10:50:31.199270,151266995,0,0.21,0.21,0.89,-0.32,0.16,0.3,-9,-7,4,0,0,0,0.04569732
13549,2023-01-20 10:50:31.299237,151367011,0,0.27,0.18,0.8,-0.24,0.13,0.27,-2,-6,3,0,0,0,0.03834852
13582,2023-01-20 10:50:31.399178,151467001,0,0.27,0.18,0.8,-0.24,0.13,0.3,6,-5,3,0,0,0,0.03834852
13614,2023-01-20 10:50:31.499176,151567019,0,0.52,0.05,1.02,-0.19,0.12,0.29,-4,-14,1,0,0,0,0.06682683
13647,2023-01-20 10:50:31.599145,151667008,0,0.52,0.05,1.02,-0.19,0.12,0.31,0,-4,4,0,0,0,0.06682683
13680,2023-01-20 10:50:31.699149,151766999,0,-0.23,0.01,0.71,-0.19,0.15,0.37,1,-5,5,0,0,0,0.02875238
13713,2023-01-20 10:50:31.799161,151866998,0,-0.23,0.01,0.71,-0.19,0.15,0.43,-10,0,7,0,0,0,0.02875238
13745,2023-01-20 10:50:31.899148,151967008,0,-0.18,0.03,0.76,-0.18,0.12,0.34,-11,-4,21,0,0,0,0.03108969
13778,2023-01-20 10:50:31.999119,152067002,0,-0.18,0.03,0.76,-0.18,0.12,0.44,-33,8,30,0,0,0,0.03108969
13808,2023-01-20 10:50:32.099144,152167000,0,0.06,0.1,0.84,-0.21,0.14,0.43,-34,13,26,0,0,0,0.03631216
13843,2023-01-20 10:50:32.199179,152267008,0,0.06,0.1,0.84,-0.21,0.14,0.43,-38,15,25,0,0,0,0.03631216
13873,2023-01-20 10:50:32.299180,152367002,0,-0.24,0.22,0.98,-0.22,0.18,0.44,-27,11,24,0,0,0,0.05291131
13906,2023-01-20 10:50:32.399195,152467011,0,-0.24,0.22,0.98,-0.22,0.18,0.57,-30,4,22,0,0,0,0.05291131
13938,2023-01-20 10:50:32.499164,152567005,0,0.5,0.13,0.9,-0.2,0.19,0.54,-27,7,22,0,0,0,0.05238877
13971,2023-01-20 10:50:32.599133,152666999,0,0.5,0.13,0.9,-0.2,0.19,0.53,-25,10,15,0,0,0,0.05238877
14004,2023-01-20 10:50:32.699142,152766995,0,0.08,0.01,0.76,-0.14,0.21,0.68,-18,6,8,0,0,0,0.02823064
14037,2023-01-20 10:50:32.799167,152867006,0,0.08,0.01,0.76,-0.14,0.21,0.69,-15,7,7,0,0,0,0.02823064
14068,2023-01-20 10:50:32.899139,152966999,0,0.26,0.22,0.87,-0.13,0.22,0.7,-11,3,11,0,0,0,0.04295016
14101,2023-01-20 10:50:32.999121,153067002,0,0.26,0.22,0.87,-0.13,0.22,0.78,-6,6,1,0,0,0,0.04295016
14131,2023-01-20 10:50:33.099151,153167004,0,0.96,0.02,1.19,-0.03,0.21,0.78,-6,-3,10,0,0,0,0.1165311
14166,2023-01-20 10:50:33.199174,153266999,0,0.96,0.02,1.19,-0.03,0.21,0.77,0,-3,1,0,0,0,0.1165311
14196,2023-01-20 10:50:33.299181,153367002,0,0.4,0.01,0.7,0.06,0.2,0.77,0,-4,6,0,0,0,0.03304492
14230,2023-01-20 10:50:33.399187,153467004,0,0.4,0.01,0.7,0.06,0.2,0.73,4,0,1,0,0,0,0.03304492
14263,2023-01-20 10:50:33.499185,153567006,0,0.61,0.05,0.7,0.13,0.18,0.66,-4,-5,7,0,0,0,0.04413946
14297,2023-01-20 10:50:33.599173,153666999,0,0.61,0.05,0.7,0.13,0.18,0.62,-2,0,9,0,0,0,0.04413946
14330,2023-01-20 10:50:33.699172,153767004,0,0.87,0.11,1,0.21,0.16,0.63,-2,1,14,0,0,0,0.08962745
14363,2023-01-20 10:50:33.799159,153866998,0,0.87,0.11,1,0.21,0.16,0.64,0,5,9,0,0,0,0.08962745
14396,2023-01-20 10:50:33.899140,153967005,0,0.99,0.17,0.89,0.32,0.15,0.68,-11,-2,10,0,0,0,0.09149357
14429,2023-01-20 10:50:33.999115,154067007,0,0.99,0.17,0.89,0.32,0.15,0.68,-1,6,7,0,0,0,0.09149357
14459,2023-01-20 10:50:34.099117,154166995,0,1.07,0.12,0.53,0.41,0.13,0.69,-9,3,6,0,0,0,0.07272732
14494,2023-01-20 10:50:34.199140,154267004,0,1.07,0.12,0.53,0.41,0.13,0.7,-9,-1,9,0,0,0,0.07272732
14524,2023-01-20 10:50:34.299169,154367009,0,0.89,0.14,0.69,0.47,0.14,0.71,-9,-3,13,0,0,0,0.06502071
14557,2023-01-20 10:50:34.399179,154466995,0,0.89,0.14,0.69,0.47,0.14,0.67,2,2,7,0,0,0,0.06502071
14590,2023-01-20 10:50:34.499219,154566999,0,0.85,0.13,0.73,0.51,0.14,0.71,0,3,5,0,0,0,0.06393726
14622,2023-01-20 10:50:34.599256,154666999,0,0.85,0.13,0.73,0.51,0.14,0.77,-4,3,8,0,0,0,0.06393726
14656,2023-01-20 10:50:34.699203,154766995,0,0.38,0.18,0.6,0.5,0.16,0.81,0,1,2,0,0,0,0.02756174
14689,2023-01-20 10:50:34.799161,154867002,0,0.38,0.18,0.6,0.5,0.16,0.73,-4,-5,4,0,0,0,0.02756174
14722,2023-01-20 10:50:34.899132,154967006,0,0.44,0.13,0.44,0.55,0.13,0.67,-1,-5,7,0,0,0,0.0207692
14755,2023-01-20 10:50:34.999091,155066998,0,0.44,0.13,0.44,0.55,0.13,0.67,-1,-7,0,0,0,0,0.0207692
14785,2023-01-20 10:50:35.099185,155167007,0,0.35,0.12,0.4,0.56,0.11,0.7,-4,-1,11,0,0,0,0.01545669
14820,2023-01-20 10:50:35.199262,155266999,0,0.35,0.12,0.4,0.56,0.11,0.76,2,-5,1,0,0,0,0.01545669
14850,2023-01-20 10:50:35.299260,155366998,0,0.28,0.27,0.4,0.52,0.11,0.72,16,1,-2,0,0,0,0.01592306
14883,2023-01-20 10:50:35.399254,155466995,0,0.28,0.27,0.4,0.52,0.11,0.83,3,-5,0,0,0,0,0.01592306
14915,2023-01-20 10:50:35.499281,155567021,0,0.38,0.13,0.43,0.48,0.11,0.84,10,0,0,0,0,0,0.01792009
14948,2023-01-20 10:50:35.599270,155667009,0,0.38,0.13,0.43,0.48,0.11,0.86,5,-6,8,0,0,0,0.01792009
14981,2023-01-20 10:50:35.699236,155766995,0,0.27,0.07,0.63,0.52,0.09,0.85,12,1,11,0,0,0,0.02470976
15014,2023-01-20 10:50:35.799222,155867002,0,0.27,0.07,0.63,0.52,0.09,0.84,6,1,12,0,0,0,0.02470976
15045,2023-01-20 10:50:35.899178,155966999,0,0.21,-0.01,0.55,0.56,0.06,0.83,1,2,7,0,0,0,0.0182378
15078,2023-01-20 10:50:35.999136,156066998,0,0.21,-0.01,0.55,0.56,0.06,0.98,-3,0,6,0,0,0,0.0182378
15108,2023-01-20 10:50:36.099195,156167000,0,0.68,0.06,0.57,0.57,0.03,0.97,3,0,1,0,0,0,0.0406711
15143,2023-01-20 10:50:36.199253,156266999,0,0.68,0.06,0.57,0.57,0.03,0.88,-12,-4,10,0,0,0,0.0406711
15173,2023-01-20 10:50:36.299216,156367010,0,0.65,0.12,0.37,0.57,0.03,1.05,1,0,9,0,0,0,0.02967297
15206,2023-01-20 10:50:36.399158,156467000,0,0.65,0.12,0.37,0.57,0.03,1.07,0,4,13,0,0,0,0.02967297
15238,2023-01-20 10:50:36.499228,156567015,0,0.47,0.25,0.31,0.56,0.02,0.98,3,-5,15,0,0,0,0.01954116
15271,2023-01-20 10:50:36.599272,156667003,0,0.47,0.25,0.31,0.56,0.02,1.01,6,4,9,0,0,0,0.01954116
15304,2023-01-20 10:50:36.699269,156766995,0,0.23,0.14,0.24,0.57,0.02,1.19,2,1,11,0,0,0,0.01370582
15337,2023-01-20 10:50:36.799283,156867005,0,0.23,0.14,0.24,0.57,0.02,1.2,-1,-4,13,0,0,0,0.0139941
15368,2023-01-20 10:50:36.899200,156967014,0,0.24,0.2,0.09,0.53,0.01,1.18,2,0,8,0,0,0,0.01356783
15401,2023-01-20 10:50:36.999097,157067004,0,0.24,0.2,0.09,0.53,0.01,1.04,24,-5,5,0,0,0,0.01054805
15431,2023-01-20 10:50:37.099170,157166999,0,0.32,0.17,0.16,0.48,0.01,0.9,8,-10,11,0,0,0,0.008069927
15466,2023-01-20 10:50:37.199260,157267008,0,0.32,0.17,0.16,0.48,0.01,1.09,-11,-7,16,0,0,0,0.01148682
15496,2023-01-20 10:50:37.299253,157366998,0,0.33,0.16,0.22,0.45,0,1.26,2,-4,13,0,0,0,0.01540799
15529,2023-01-20 10:50:37.399272,157467015,0,0.33,0.16,0.22,0.45,0,1.15,6,1,10,0,0,0,0.01289949
15561,2023-01-20 10:50:37.499281,157567009,0,0.18,0.01,0.08,0.45,0,1.35,5,0,6,0,0,0,0.01782324
15594,2023-01-20 10:50:37.599283,157666995,0,0.18,0.01,0.08,0.45,0,1.38,10,3,11,0,0,0,0.01863409
15627,2023-01-20 10:50:37.699278,157767005,0,0.14,0.3,0.1,0.45,-0.04,1.42,4,4,15,0,0,0,0.01952765
15660,2023-01-20 10:50:37.799283,157867025,0,0.14,0.3,0.1,0.45,-0.04,1.39,6,6,21,0,0,0,0.01868207
15692,2023-01-20 10:50:37.899210,157966995,0,0.54,0.25,0.22,0.41,-0.05,1.46,14,-5,11,0,0,0,0.02077154
15725,2023-01-20 10:50:37.999179,158067007,0,0.54,0.25,0.22,0.41,-0.05,1.47,4,-3,19,0,0,0,0.02104581
15755,2023-01-20 10:50:38.090253,158166998,0,0.61,0.24,0.15,0.43,-0.11,1.51,3,-3,18,0,0,0,0.02231249
15788,2023-01-20 10:50:38.181271,158267009,0,0.61,0.24,0.15,0.43,-0.11,1.55,11,-1,9,0,0,0,0.0232552
15820,2023-01-20 10:50:38.279411,158366998,0,0.61,0.28,0.17,0.41,-0.09,1.47,16,-3,3,0,0,0,0.02359408
15851,2023-01-20 10:50:38.379427,158467012,0,0.61,0.28,0.17,0.41,-0.09,1.52,31,-8,8,0,0,0,0.02359408
15886,2023-01-20 10:50:38.479405,158567015,0,0.42,0.26,0.02,0.4,-0.11,1.5,18,-1,8,0,0,0,0.02196631
15918,2023-01-20 10:50:38.579366,158667008,0,0.42,0.26,0.02,0.4,-0.11,1.58,2,-4,6,0,0,0,0.02418139
15953,2023-01-20 10:50:38.679347,158766999,0,0.32,0.22,0.03,0.41,-0.14,1.67,28,0,15,0,0,0,0.02704759
15984,2023-01-20 10:50:38.779363,158867020,0,0.32,0.22,0.03,0.41,-0.14,1.6,18,-3,19,0,0,0,0.02477487
16019,2023-01-20 10:50:38.888057,158967001,0,0.04,0.29,0.02,0.37,-0.12,1.53,1,-9,19,0,0,0,0.02289704
16052,2023-01-20 10:50:38.999037,159066999,0,0.04,0.29,0.02,0.37,-0.12,1.49,27,-3,13,0,0,0,0.0216726
16082,2023-01-20 10:50:39.090212,159166999,0,-0.03,0.27,-0.08,0.31,-0.18,1.56,19,-6,14,0,0,0,0.02370883
16116,2023-01-20 10:50:39.181221,159267007,0,-0.03,0.27,-0.08,0.31,-0.18,1.47,28,1,2,0,0,0,0.02099793
16148,2023-01-20 10:50:39.279324,159366995,0,0.18,0.1,-0.13,0.32,-0.11,1.56,19,-1,20,0,0,0,0.02376064
16179,2023-01-20 10:50:39.379302,159467008,0,0.18,0.1,-0.13,0.32,-0.11,1.68,20,0,5,0,0,0,0.02754253
16213,2023-01-20 10:50:39.479268,159566995,0,-0.09,0.26,-0.04,0.28,-0.12,1.74,-1,-11,8,0,0,0,0.0294408
16244,2023-01-20 10:50:39.579274,159667017,0,-0.09,0.26,-0.04,0.28,-0.12,1.84,-2,-6,21,0,0,0,0.03280476
16279,2023-01-20 10:50:39.679230,159767022,0,0.3,0.18,0.08,0.21,-0.12,1.83,21,5,12,0,0,0,0.03273942
16310,2023-01-20 10:50:39.779173,159867023,0,0.3,0.18,0.08,0.21,-0.12,1.82,-11,7,22,0,0,0,0.03225931
16344,2023-01-20 10:50:39.879137,159966995,0,-0.17,0.08,-0.44,0.25,-0.11,1.93,8,8,14,0,0,0,0.03635784
16375,2023-01-20 10:50:39.979149,160067002,0,-0.17,0.08,-0.44,0.25,-0.11,1.63,10,2,11,0,0,0,0.02593303
16407,2023-01-20 10:50:40.079200,160167008,0,-0.02,0.18,-0.18,0.2,-0.11,1.79,3,1,11,0,0,0,0.03108668
16441,2023-01-20 10:50:40.179258,160267011,0,-0.02,0.18,-0.18,0.2,-0.11,1.82,0,-5,5,0,0,0,0.03215045
16473,2023-01-20 10:50:40.279218,160367001,0,-0.13,0.21,-0.14,0.17,-0.12,1.87,2,4,3,0,0,0,0.03391956
16504,2023-01-20 10:50:40.379174,160467008,0,-0.13,0.21,-0.14,0.17,-0.12,1.85,-6,0,14,0,0,0,0.03337286
16538,2023-01-20 10:50:40.479160,160566995,0,0.09,-0.04,-0.04,0.17,-0.11,1.77,9,6,17,0,0,0,0.03035909
16570,2023-01-20 10:50:40.579205,160667027,0,0.09,-0.04,-0.04,0.17,-0.11,1.57,-5,5,4,0,0,0,0.02386472
16605,2023-01-20 10:50:40.679203,160767008,0,0.36,0.2,0.02,0.14,-0.13,1.63,2,12,9,0,0,0,0.02578895
16636,2023-01-20 10:50:40.779212,160866999,0,0.36,0.2,0.02,0.14,-0.13,1.59,-12,9,18,0,0,0,0.02458242
16670,2023-01-20 10:50:40.879178,160966995,0,0.6,0.25,0.21,0.12,-0.12,1.58,-6,13,18,0,0,0,0.02597227
16701,2023-01-20 10:50:40.979155,161067015,0,0.6,0.25,0.21,0.12,-0.12,1.56,-31,12,20,0,0,0,0.02597227
16733,2023-01-20 10:50:41.079172,161166995,0,0.54,0.39,0.33,0.15,-0.11,1.68,-7,13,17,0,0,0,0.03134528
16767,2023-01-20 10:50:41.179231,161266995,0,0.54,0.39,0.33,0.15,-0.11,1.45,-23,10,18,0,0,0,0.03134528
16799,2023-01-20 10:50:41.279279,161367026,0,-0.04,0.25,-0.14,0.21,-0.1,1.47,-19,12,15,0,0,0,0.02097625
16830,2023-01-20 10:50:41.379275,161467015,0,-0.04,0.25,-0.14,0.21,-0.1,1.3,-15,12,16,0,0,0,0.0164331
16864,2023-01-20 10:50:41.479223,161566995,0,-0.09,0.21,0,0.16,-0.06,1.43,-9,10,10,0,0,0,0.01993196
16896,2023-01-20 10:50:41.579227,161667041,0,-0.09,0.21,0,0.16,-0.06,1.46,-19,13,16,0,0,0,0.02081192
16931,2023-01-20 10:50:41.679212,161767004,0,0.02,0.07,-0.21,0.1,-0.02,1.59,-26,15,16,0,0,0,0.02477961
16962,2023-01-20 10:50:41.779246,161866998,0,0.02,0.07,-0.21,0.1,-0.02,1.37,-38,18,21,0,0,0,0.01822295
16996,2023-01-20 10:50:41.879214,161966999,0,0.16,0.02,-0.18,0.12,-0.02,1.27,-8,18,13,0,0,0,0.01580266
17027,2023-01-20 10:50:41.979162,162066999,0,0.16,0.02,-0.18,0.12,-0.02,1.22,-17,18,15,0,0,0,0.01451121
17059,2023-01-20 10:50:42.079186,162166995,0,-0.19,0.14,-0.13,0.1,-0.02,1.29,-22,21,12,0,0,0,0.01631158
17093,2023-01-20 10:50:42.179251,162267011,0,-0.19,0.14,-0.13,0.1,-0.02,1.19,-14,29,10,0,0,0,0.01375423
17125,2023-01-20 10:50:42.279223,162367011,0,-0.05,0.14,-0.57,0.08,0,1.5,-19,30,6,0,0,0,0.02190542
17156,2023-01-20 10:50:42.379158,162466995,0,-0.05,0.14,-0.57,0.08,0,1.32,-11,25,6,0,0,0,0.01964648
17190,2023-01-20 10:50:42.479172,162567007,0,-0.46,-0.07,-0.33,0.1,0.03,1.36,-29,23,6,0,0,0,0.01848246
17222,2023-01-20 10:50:42.579208,162667029,0,-0.46,-0.07,-0.33,0.1,0.03,1.24,-13,33,10,0,0,0,0.01848246
17257,2023-01-20 10:50:42.679179,162766999,0,0.01,0,-0.42,0.05,0.04,1.32,-2,27,-1,0,0,0,0.01691588
17288,2023-01-20 10:50:42.779176,162866998,0,0.01,0,-0.42,0.05,0.04,1.43,-12,21,-1,0,0,0,0.02007193
17322,2023-01-20 10:50:42.879147,162967000,0,-0.42,0.03,-0.82,0.05,0.05,1.54,-9,23,-6,0,0,0,0.04830683
17353,2023-01-20 10:50:42.979109,163066999,0,-0.42,0.03,-0.82,0.05,0.05,1.32,-25,24,-2,0,0,0,0.04830683
17385,2023-01-20 10:50:43.079159,163166995,0,0,0.08,-0.98,-0.01,0.07,1.25,-4,31,-6,0,0,0,0.05408566
17419,2023-01-20 10:50:43.179242,163267000,0,0,0.08,-0.98,-0.01,0.07,1.18,2,24,-13,0,0,0,0.05408566
17451,2023-01-20 10:50:43.279275,163367017,0,0.03,0.24,-0.52,-0.08,0.08,1.14,1,26,-15,0,0,0,0.01880317
17482,2023-01-20 10:50:43.379253,163466994,0,0.03,0.24,-0.52,-0.08,0.08,1.11,-1,21,-3,0,0,0,0.01880317
17516,2023-01-20 10:50:43.479235,163567011,0,0.17,0,-0.42,-0.08,0.1,1.23,0,20,-10,0,0,0,0.01470412
17549,2023-01-20 10:50:43.579216,163667036,0,0.17,0,-0.42,-0.08,0.1,1.26,9,15,-19,0,0,0,0.01543181
17584,2023-01-20 10:50:43.679169,163766995,0,0.5,0,-0.31,-0.07,0.08,1.55,21,10,-10,0,0,0,0.02336007
17615,2023-01-20 10:50:43.779175,163866998,0,0.5,0,-0.31,-0.07,0.08,1.55,24,10,-20,0,0,0,0.02338785
17651,2023-01-20 10:50:43.879163,163966999,0,0.03,0.01,-0.38,-0.05,0.1,1.71,31,-1,-16,0,0,0,0.02833652
17682,2023-01-20 10:50:43.979146,164066999,0,0.03,0.01,-0.38,-0.05,0.1,1.6,8,6,-4,0,0,0,0.02496762
17714,2023-01-20 10:50:44.079194,164167007,0,0.44,0.34,0.23,-0.09,0.07,1.73,32,11,-15,0,0,0,0.02922152
17748,2023-01-20 10:50:44.179247,164267005,0,0.44,0.34,0.23,-0.09,0.07,1.36,13,7,-3,0,0,0,0.0206546
17780,2023-01-20 10:50:44.279254,164367001,0,0.63,0.02,0.3,-0.14,0.09,1.02,-2,11,-1,0,0,0,0.02744191
17811,2023-01-20 10:50:44.379247,164466995,0,0.63,0.02,0.3,-0.14,0.09,0.77,-9,15,6,0,0,0,0.02744191
17846,2023-01-20 10:50:44.479269,164567017,0,-0.05,0.23,0.08,-0.09,0.07,0.89,-13,14,1,0,0,0,0.007764708
17878,2023-01-20 10:50:44.579269,164667018,0,-0.05,0.23,0.08,-0.09,0.07,0.88,2,11,-2,0,0,0,0.007543963
17913,2023-01-20 10:50:44.679233,164766995,0,-0.02,0.18,0.53,-0.14,0.08,0.81,-2,6,7,0,0,0,0.0182887
17944,2023-01-20 10:50:44.779219,164866998,0,-0.02,0.18,0.53,-0.14,0.08,1.19,-14,8,6,0,0,0,0.0182887
17978,2023-01-20 10:50:44.879172,164966999,0,-0.22,0.11,0.1,-0.2,0.09,1.32,-2,17,3,0,0,0,0.01713212
18009,2023-01-20 10:50:44.979116,165067000,0,-0.22,0.11,0.1,-0.2,0.09,1.78,10,11,0,0,0,0,0.03089141
18041,2023-01-20 10:50:45.079178,165167004,0,0,0.12,0.43,-0.23,0.07,1.61,-6,0,9,0,0,0,0.02524352
18075,2023-01-20 10:50:45.179261,165266999,0,0,0.12,0.43,-0.23,0.07,1.28,-11,4,12,0,0,0,0.01588018
18107,2023-01-20 10:50:45.279270,165367002,0,0.01,0.14,0.15,-0.25,0.04,1.18,-2,3,10,0,0,0,0.01354025
18138,2023-01-20 10:50:45.379257,165467004,0,0.01,0.14,0.15,-0.25,0.04,0.78,-5,11,11,0,0,0,0.006036511
18172,2023-01-20 10:50:45.479213,165566999,0,0.02,0.08,0.04,-0.28,0,0.65,-6,5,17,0,0,0,0.004136235
18204,2023-01-20 10:50:45.579194,165667026,0,0.02,0.08,0.04,-0.28,0,0.79,9,-1,3,0,0,0,0.006140219
18239,2023-01-20 10:50:45.679200,165767004,0,0.07,-0.02,0.18,-0.35,0.01,0.83,18,-5,3,0,0,0,0.006800949
18270,2023-01-20 10:50:45.779261,165867018,0,0.07,-0.02,0.18,-0.35,0.01,0.92,18,-3,0,0,0,0,0.008310617
18304,2023-01-20 10:50:45.879222,165967006,0,0.04,-0.13,0.46,-0.39,0.01,0.79,9,-5,6,0,0,0,0.01347261
18335,2023-01-20 10:50:45.979174,166067004,0,0.04,-0.13,0.46,-0.39,0.01,0.82,6,-8,8,0,0,0,0.01347261
18367,2023-01-20 10:50:46.079165,166166996,0,-0.04,0,0.34,-0.38,0,0.73,1,-8,4,0,0,0,0.007190521
18401,2023-01-20 10:50:46.179181,166266999,0,-0.04,0,0.34,-0.38,0,0.57,-4,-2,19,0,0,0,0.007190521
18433,2023-01-20 10:50:46.279232,166367007,0,-0.28,0,0.3,-0.4,-0.04,0.52,-8,0,14,0,0,0,0.009837582
18464,2023-01-20 10:50:46.379271,166466995,0,-0.28,0,0.3,-0.4,-0.04,0.72,-4,0,14,0,0,0,0.009837582
18498,2023-01-20 10:50:46.479272,166566999,0,-0.07,0,0.21,-0.45,-0.04,0.71,1,-10,6,0,0,0,0.005001736
18530,2023-01-20 10:50:46.579286,166667030,0,-0.07,0,0.21,-0.45,-0.04,0.68,23,-7,-5,0,0,0,0.004604504
18565,2023-01-20 10:50:46.679219,166766995,0,0.21,-0.01,0.55,-0.53,-0.06,0.75,15,-2,-3,0,0,0,0.02018054
18596,2023-01-20 10:50:46.779190,166867003,0,0.21,-0.01,0.55,-0.53,-0.06,0.55,0,0,9,0,0,0,0.02018054
18630,2023-01-20 10:50:46.872054,166967029,0,0.03,-0.13,0.15,-0.49,-0.08,0.72,3,2,7,0,0,0,0.005073904
18661,2023-01-20 10:50:46.962998,167067002,0,0.03,-0.13,0.15,-0.49,-0.08,0.74,-7,-3,12,0,0,0,0.00542256
18693,2023-01-20 10:50:47.059345,167167001,0,-0.49,-0.22,0.02,-0.49,0.09,0.38,3,-1,2,0,0,0,0.0171546
18727,2023-01-20 10:50:47.159389,167267008,0,-0.49,-0.22,0.02,-0.49,0.09,0.16,-10,3,13,0,0,0,0.0171546
18759,2023-01-20 10:50:47.259395,167366997,0,-0.31,-0.23,0.19,-0.56,0.07,0.34,-8,2,3,0,0,0,0.01127241
18790,2023-01-20 10:50:47.359400,167466999,0,-0.31,-0.23,0.19,-0.56,0.07,0.16,-6,-3,9,0,0,0,0.01127241
18823,2023-01-20 10:50:47.459409,167567008,0,-0.2,-0.32,-0.07,-0.57,0.05,0.07,-4,0,12,0,0,0,0.008716924
18855,2023-01-20 10:50:47.559395,167666997,0,-0.2,-0.32,-0.07,-0.57,0.05,-0.5,-20,7,12,0,0,0,0.008716924
18890,2023-01-20 10:50:47.659409,167766999,0,0.12,0,0.03,-0.56,0.02,-0.56,-30,15,16,0,0,0,0.003100245
18921,2023-01-20 10:50:47.759433,167867002,0,0.12,0,0.03,-0.56,0.02,-0.55,-3,0,8,0,0,0,0.002961525
18955,2023-01-20 10:50:47.859432,167967016,0,-0.14,-0.29,0.08,-0.5,0.01,-0.2,-5,0,-2,0,0,0,0.006825123
18986,2023-01-20 10:50:47.959370,168066994,0,-0.14,-0.29,0.08,-0.5,0.01,0.02,-8,2,8,0,0,0,0.006825123
19018,2023-01-20 10:50:48.059368,168167008,0,-0.7,-0.39,-0.47,-0.47,0.02,0.16,0,4,4,0,0,0,0.04876233
19052,2023-01-20 10:50:48.159359,168266999,0,-0.7,-0.39,-0.47,-0.47,0.02,0.04,0,3,5,0,0,0,0.04876233
19084,2023-01-20 10:50:48.259341,168367001,0,-0.54,-0.33,-0.3,-0.46,0,0.11,1,0,5,0,0,0,0.02823395
19115,2023-01-20 10:50:48.359307,168466999,0,-0.54,-0.33,-0.3,-0.46,0,0.2,17,2,-10,0,0,0,0.02823395
19149,2023-01-20 10:50:48.459285,168566999,0,0.14,-0.19,-0.14,-0.46,-0.02,0.32,26,3,-6,0,0,0,0.004668955
19181,2023-01-20 10:50:48.559275,168667002,0,0.14,-0.19,-0.14,-0.46,-0.02,0.29,10,-3,-7,0,0,0,0.004668955
19217,2023-01-20 10:50:48.659267,168767019,0,0.22,-0.22,-1.17,-0.33,-0.04,0.54,24,1,0,0,0,0,0.08235828
19248,2023-01-20 10:50:48.759220,168867006,0,0.22,-0.22,-1.17,-0.33,-0.04,0.38,12,3,0,0,0,0,0.08235828
19284,2023-01-20 10:50:48.859167,168966995,0,-0.12,-0.06,-1.41,-0.34,-0.05,0.62,19,-2,8,0,0,0,0.1134704
19315,2023-01-20 10:50:48.959124,169067000,0,-0.12,-0.06,-1.41,-0.34,-0.05,0.64,20,-7,3,0,0,0,0.1134704
19347,2023-01-20 10:50:49.059133,169167000,0,-0.45,-0.7,-1.35,-0.4,0,0.73,45,-11,-4,0,0,0,0.1429088
19381,2023-01-20 10:50:49.159182,169267001,0,-0.45,-0.7,-1.35,-0.4,0,0.73,31,-7,-11,0,0,0,0.1429088
19413,2023-01-20 10:50:49.259240,169367003,0,0.08,-0.23,-1.13,-0.55,-0.04,0.93,27,-12,4,0,0,0,0.07591809
19444,2023-01-20 10:50:49.359296,169466999,0,0.08,-0.23,-1.13,-0.55,-0.04,0.93,42,-3,-1,0,0,0,0.07591809
19478,2023-01-20 10:50:49.459271,169566999,0,-0.37,-0.42,-0.83,-0.52,-0.03,1.05,32,-8,-5,0,0,0,0.05711728
19510,2023-01-20 10:50:49.559187,169666997,0,-0.37,-0.42,-0.83,-0.52,-0.03,1.03,32,-14,9,0,0,0,0.05711728
19545,2023-01-20 10:50:49.659186,169766999,0,0.37,-0.23,-0.37,-0.55,-0.05,0.88,22,-13,4,0,0,0,0.01891141
19576,2023-01-20 10:50:49.759239,169867002,0,0.37,-0.23,-0.37,-0.55,-0.05,0.79,10,-12,10,0,0,0,0.01891141
19610,2023-01-20 10:50:49.859222,169966995,0,0.45,-0.25,-0.17,-0.57,-0.04,0.63,20,-2,2,0,0,0,0.01709805
19641,2023-01-20 10:50:49.959192,170067016,0,0.45,-0.25,-0.17,-0.57,-0.04,0.54,24,-10,11,0,0,0,0.01709805
19673,2023-01-20 10:50:50.059158,170167008,0,-0.13,-0.46,0.24,-0.56,-0.04,0.42,16,-6,11,0,0,0,0.01666879
19749,2023-01-20 10:50:50.159136,170266994,0,-0.13,-0.46,0.24,-0.56,-0.04,0.6,4,-3,21,0,0,0,0.01666879
19781,2023-01-20 10:50:50.259172,170367009,0,0,0,-0.06,-0.59,-0.05,0.48,2,-3,19,0,0,0,0.002212785
19812,2023-01-20 10:50:50.359215,170467008,0,0,0,-0.06,-0.59,-0.05,0.41,2,-4,8,0,0,0,0.001659185
19846,2023-01-20 10:50:50.459229,170566995,0,-0.11,0,-0.1,-0.64,-0.02,0.56,6,-7,20,0,0,0,0.003066709
19878,2023-01-20 10:50:50.559247,170666995,0,-0.11,0,-0.1,-0.64,-0.02,0.48,11,-6,11,0,0,0,0.002256859
19913,2023-01-20 10:50:50.659271,170767013,0,0.03,0.06,0.22,-0.64,0,0.3,6,-2,13,0,0,0,0.003490628
19944,2023-01-20 10:50:50.759258,170867002,0,0.03,0.06,0.22,-0.64,0,0.22,7,5,8,0,0,0,0.003490628
19978,2023-01-20 10:50:50.859207,170966995,0,-0.29,0,0.32,-0.67,0.03,0.21,0,2,15,0,0,0,0.01150436
20009,2023-01-20 10:50:50.959148,171067008,0,-0.29,0,0.32,-0.67,0.03,0.3,0,-5,20,0,0,0,0.01150436
20041,2023-01-20 10:50:51.059155,171167002,0,-0.1,0.05,0.49,-0.68,0.03,0.02,1,0,15,0,0,0,0.01511702
20075,2023-01-20 10:50:51.159229,171267003,0,-0.1,0.05,0.49,-0.68,0.03,0.18,12,-3,7,0,0,0,0.01511702
20107,2023-01-20 10:50:51.259288,171367034,0,0.18,-0.1,0.58,-0.69,0.04,0.13,7,-3,18,0,0,0,0.02212045
20138,2023-01-20 10:50:51.359250,171466999,0,0.18,-0.1,0.58,-0.69,0.04,0.36,11,-3,6,0,0,0,0.02212045
20172,2023-01-20 10:50:51.459216,171566995,0,0.74,0.22,0.87,-0.76,0.02,0.38,3,-2,13,0,0,0,0.07847632
20204,2023-01-20 10:50:51.559181,171667007,0,0.74,0.22,0.87,-0.76,0.02,0.46,19,-12,8,0,0,0,0.07847632
20239,2023-01-20 10:50:51.659189,171767000,0,-0.1,-0.04,0.32,-0.73,0.06,0.54,18,-9,9,0,0,0,0.007309612
20270,2023-01-20 10:50:51.759246,171866998,0,-0.1,-0.04,0.32,-0.73,0.06,0.58,19,-9,8,0,0,0,0.007309612
20304,2023-01-20 10:50:51.859252,171967019,0,-0.64,-0.12,0.34,-0.71,0.06,0.37,12,-6,5,0,0,0,0.03214997
20335,2023-01-20 10:50:51.959167,172066999,0,-0.64,-0.12,0.34,-0.71,0.06,0.34,13,-4,12,0,0,0,0.03214997
20367,2023-01-20 10:50:52.059134,172166995,0,-0.72,-0.02,0.19,-0.75,0.05,0.48,12,-7,12,0,0,0,0.0326613
20401,2023-01-20 10:50:52.159141,172267004,0,-0.72,-0.02,0.19,-0.75,0.05,0.33,13,-12,11,0,0,0,0.0326613
20433,2023-01-20 10:50:52.259163,172367001,0,0.03,-0.1,0.01,-0.84,0.07,0.53,13,-6,11,0,0,0,0.002810632
20464,2023-01-20 10:50:52.359204,172466999,0,0.03,-0.1,0.01,-0.84,0.07,0.42,5,1,14,0,0,0,0.001776555
20498,2023-01-20 10:50:52.459237,172567004,0,-0.22,-0.13,0.61,-0.86,0.08,0.07,4,-6,16,0,0,0,0.02640199
20530,2023-01-20 10:50:52.559254,172667004,0,-0.22,-0.13,0.61,-0.86,0.08,0.33,3,-11,11,0,0,0,0.02640199
20565,2023-01-20 10:50:52.659223,172766998,0,0.17,0.08,0.41,-0.82,0.06,0.23,2,-7,18,0,0,0,0.01214094
20596,2023-01-20 10:50:52.759192,172867022,0,0.17,0.08,0.41,-0.82,0.06,0.41,-23,-12,24,0,0,0,0.01214094
20630,2023-01-20 10:50:52.859144,172966997,0,-0.33,-0.12,0.22,-0.71,0.08,0.29,-1,-6,18,0,0,0,0.01067009
20661,2023-01-20 10:50:52.959144,173066999,0,-0.33,-0.12,0.22,-0.71,0.08,0.26,0,-3,15,0,0,0,0.01067009
20693,2023-01-20 10:50:53.059171,173167004,0,0.19,0.1,-0.07,-0.71,0.07,0.09,-7,-4,29,0,0,0,0.003576374
20727,2023-01-20 10:50:53.159202,173266995,0,0.19,0.1,-0.07,-0.71,0.07,-0.06,-3,-2,17,0,0,0,0.003576374
20759,2023-01-20 10:50:53.259234,173367003,0,0.07,-0.17,-0.23,-0.65,0.1,-0.08,-7,1,22,0,0,0,0.005570618
20790,2023-01-20 10:50:53.359254,173467009,0,0.07,-0.17,-0.23,-0.65,0.1,-0.2,-16,5,23,0,0,0,0.005570618
20824,2023-01-20 10:50:53.459215,173566994,0,-0.32,-0.22,-0.7,-0.55,0.07,-0.16,-14,-1,24,0,0,0,0.03777942
20856,2023-01-20 10:50:53.559175,173667002,0,-0.32,-0.22,-0.7,-0.55,0.07,0.11,0,2,19,0,0,0,0.03777942
20891,2023-01-20 10:50:53.659195,173767005,0,-0.09,-0.74,-1.34,-0.48,0.07,0.13,2,-5,19,0,0,0,0.1356609
20923,2023-01-20 10:50:53.759252,173866998,0,-0.09,-0.74,-1.34,-0.48,0.07,0.31,8,-2,7,0,0,0,0.1356609
20959,2023-01-20 10:50:53.859258,173967018,0,-0.64,-1.05,-2.12,-0.35,0.01,0.25,7,-1,14,0,0,0,0.3471702
20990,2023-01-20 10:50:53.959172,174066999,0,-0.64,-1.05,-2.12,-0.35,0.01,0.14,1,1,18,0,0,0,0.3471702
21022,2023-01-20 10:50:54.053754,174166995,0,-0.11,-0.03,-1.13,-0.38,-0.07,0.27,8,-1,14,0,0,0,0.07434949
21056,2023-01-20 10:50:54.144651,174266999,0,-0.11,-0.03,-1.13,-0.38,-0.07,0.24,7,-4,13,0,0,0,0.07434949
21088,2023-01-20 10:50:54.243493,174367005,0,-0.45,-0.33,-1.19,-0.34,0.12,0.12,1,2,14,0,0,0,0.09931611
21119,2023-01-20 10:50:54.354686,174466995,0,-0.45,-0.33,-1.19,-0.34,0.12,0.23,2,1,14,0,0,0,0.09931611
21154,2023-01-20 10:50:54.459241,174566995,0,0.11,-0.21,-1.16,-0.4,-0.05,0.07,-2,6,12,0,0,0,0.07942649
21186,2023-01-20 10:50:54.559233,174667005,0,0.11,-0.21,-1.16,-0.4,-0.05,0.03,-6,-3,18,0,0,0,0.07942649
21221,2023-01-20 10:50:54.659195,174766995,0,-0.22,-0.34,-0.95,-0.43,-0.03,0.08,-9,2,20,0,0,0,0.06060552
21252,2023-01-20 10:50:54.759189,174867023,0,-0.22,-0.34,-0.95,-0.43,-0.03,0.02,-11,2,13,0,0,0,0.06060552
21286,2023-01-20 10:50:54.859146,174966999,0,0.52,-0.07,-0.45,-0.49,-0.02,0,-8,0,17,0,0,0,0.02747667
21317,2023-01-20 10:50:54.959137,175066999,0,0.52,-0.07,-0.45,-0.49,-0.02,0.01,-12,3,16,0,0,0,0.02747667
