LineNo,UTC_Approx,TimeUS,C,SV,SP,SH,SM,SVT,errRP,OFN,OFE,FS,TS,SS,GPS,PI
364,2023-01-20 10:49:56.258497,116247435,0,0.07,0,0,0.01,0,0.007494377,0.08909588,0.02049057,0,48,109375,0,0
954,2023-01-20 10:49:56.349466,116347450,0,0.07,0,0,0.01,0,0.007570705,0.08909588,0.02049057,0,48,109375,0,0
1112,2023-01-20 10:49:56.451414,116453964,0,0.06,0,0,0,0,0.007511974,0.08909588,0.02049057,0,48,109375,0,0
1331,2023-01-20 10:49:56.564043,116565584,0,0.06,0,0,0.01,0,0.007595407,0.08909588,0.02049057,0,48,109375,0,0
1549,2023-01-20 10:49:56.664880,116666343,0,0.09,0,0,0.01,0,0.007526253,0.08909588,0.02049057,0,48,109375,0,0
1871,2023-01-20 10:49:56.764500,116766338,0,0.09,0,0.01,0.01,0,0.007602551,0.08909588,0.02049057,0,48,109375,0,0
1916,2023-01-20 10:49:56.864372,116866343,0,0.08,0,0.01,0.01,0,0.007545664,0.08909588,0.02049057,0,48,109375,0,0
1964,2023-01-20 10:49:56.964368,116966340,0,0.08,0,0.01,0.01,0,0.007622692,0.08909588,0.02049057,0,48,109375,0,0
2014,2023-01-20 10:49:57.064380,117066339,0,0.1,0,0.01,0.01,0,0.007576779,0.08909588,0.02049057,0,48,109375,0,0
2058,2023-01-20 10:49:57.164406,117166344,0,0.1,0,0.01,0.01,0,0.007653413,0.08909588,0.02049057,0,48,109375,0,0
2110,2023-01-20 10:49:57.271510,117266340,0,0.07,0,0.01,0.01,0,0.007611153,0.08909588,0.02049057,0,48,109375,0,0
2169,2023-01-20 10:49:57.382565,117366367,0,0.07,0,0.01,0.01,0,0.007687731,0.08909588,0.02049057,0,48,109375,0,0
2225,2023-01-20 10:49:57.476613,117466341,0,0.08,0,0.01,0.01,0,0.007668541,0.08909588,0.02049057,0,48,109375,0,0
2284,2023-01-20 10:49:57.567525,117566339,0,0.08,0,0.01,0.01,0,0.007744108,0.08909588,0.02049057,0,48,109375,0,0
2338,2023-01-20 10:49:57.664269,117666343,0,0.07,0,0.01,0.01,0,0.00773644,0.08909588,0.02049057,0,48,109375,0,0
2397,2023-01-20 10:49:57.764245,117766341,0,0.07,0,0.01,0.01,0,0.00781258,0.08909588,0.02049057,0,48,109375,0,0
2441,2023-01-20 10:49:57.864220,117866343,0,0.07,0,0.01,0.01,0,0.007817875,0.08909588,0.02049057,0,48,109375,0,0
2486,2023-01-20 10:49:57.964187,117966340,0,0.07,0,0.01,0.01,0,0.007894675,0.08909588,0.02049057,0,48,109375,0,0
2525,2023-01-20 10:49:58.064248,118066359,0,0.03,0,0.01,0.01,0,0.007912165,0.08909588,0.02049057,0,48,109375,0,0
2565,2023-01-20 10:49:58.164315,118166343,0,0.03,0,0.01,0.01,0,0.007988941,0.08909588,0.02049057,0,48,109375,0,0
2607,2023-01-20 10:49:58.264328,118266346,0,0.07,0,0.01,0.01,0,0.008016716,0.08909588,0.02049057,0,48,109375,0,0
2647,2023-01-20 10:49:58.364299,118366348,0,0.07,0,0.01,0.01,0,0.008092804,0.08909588,0.02049057,0,48,109375,0,0
2686,2023-01-20 10:49:58.464282,118466343,0,0.06,0,0.01,0.02,0,0.008130419,0.08909588,0.02049057,0,48,109375,0,0
2727,2023-01-20 10:49:58.564280,118566343,0,0.06,0,0.01,0.01,0,0.00820701,0.08909588,0.02049057,0,48,109375,0,0
2767,2023-01-20 10:49:58.664277,118666358,0,0.06,0,0.01,0.01,0,0.008253502,0.08909588,0.02049057,0,48,109375,0,0
2808,2023-01-20 10:49:58.764239,118766347,0,0.06,0,0.01,0.01,0,0.008329761,0.08909588,0.02049057,0,48,109375,0,0
2852,2023-01-20 10:49:58.864246,118866362,0,0.03,0,0.01,0.01,0,0.008382383,0.08909588,0.02049057,0,48,109375,0,0
2891,2023-01-20 10:49:58.964232,118966347,0,0.03,0,0.01,0.01,0,0.008458578,0.08909588,0.02049057,0,48,109375,0,0
2930,2023-01-20 10:49:59.064260,119066357,0,0.06,0,0.01,0.01,0,0.008516254,0.08909588,0.02049057,0,48,109375,0,0
2969,2023-01-20 10:49:59.164279,119166350,0,0.06,0,0.01,0.01,0,0.008592798,0.08909588,0.02049057,0,48,109375,0,0
3010,2023-01-20 10:49:59.264288,119266350,0,0.06,0,0.01,0.01,0,0.008653644,0.08909588,0.02049057,0,48,109375,0,0
3049,2023-01-20 10:49:59.364301,119366364,0,0.06,0,0.02,0.01,0,0.008729714,0.08909588,0.02049057,0,48,109375,0,0
3089,2023-01-20 10:49:59.464283,119466350,0,0.04,0,0.02,0.01,0,0.008794245,0.08909588,0.02049057,0,48,109375,0,0
3130,2023-01-20 10:49:59.564294,119566365,0,0.04,0,0.02,0.01,0,0.008870779,0.08909588,0.02049057,0,48,109375,0,0
3169,2023-01-20 10:49:59.664291,119666375,0,0.05,0,0.02,0.01,0,0.008936546,0.08909588,0.02049057,0,48,109375,0,0
3210,2023-01-20 10:49:59.764251,119766353,0,0.05,0,0.02,0,0,0.009013201,0.08909588,0.02049057,0,48,109375,0,0
3249,2023-01-20 10:49:59.864240,119866352,0,0.05,0,0.03,0,0,0.009081127,0.08909588,0.02049057,0,48,109375,0,0
3288,2023-01-20 10:49:59.964237,119966354,0,0.05,0,0.02,0.01,0,0.009157041,0.08909588,0.02049057,0,48,109375,0,0
3327,2023-01-20 10:50:00.064254,120066356,0,0.02,0,0.02,0,0,0.009226308,0.08909588,0.02049057,0,48,109375,0,0
3367,2023-01-20 10:50:00.164280,120166355,0,0.02,0,0.02,0.01,0,0.009302817,0.08909588,0.02049057,0,48,109375,0,0
3408,2023-01-20 10:50:00.264293,120266363,0,0.03,0,0.02,0.01,0,0.009372504,0.08909588,0.02049057,0,48,109375,0,0
3447,2023-01-20 10:50:00.364270,120366348,0,0.03,0,0.02,0,0,0.009449091,0.08909588,0.02049057,0,48,109375,0,0
3487,2023-01-20 10:50:00.464283,120466359,0,0.03,0,0.02,0,0,0.009520018,0.08909588,0.02049057,0,48,109375,0,0
3527,2023-01-20 10:50:00.564280,120566349,0,0.03,0,0.02,0.01,0,0.009596288,0.08909588,0.02049057,0,48,109375,0,0
3568,2023-01-20 10:50:00.664271,120666346,0,0.03,0,0.01,0,0,0.009667703,0.08909588,0.02049057,0,48,109375,0,0
3609,2023-01-20 10:50:00.764268,120766355,0,0.03,0,0.02,0.01,0,0.009744308,0.08909588,0.02049057,0,48,109375,0,0
3650,2023-01-20 10:50:00.864250,120866353,0,0.04,0,0.02,0.01,0,0.009816291,0.08909588,0.02049057,0,48,109375,0,0
3687,2023-01-20 10:50:00.964226,120966347,0,0.04,0,0.02,0,0,0.009892921,0.08909588,0.02049057,0,48,109375,0,0
3719,2023-01-20 10:50:01.064251,121066375,0,0.04,0,0.02,0.01,0,0.009965664,0.08909588,0.02049057,0,48,109375,0,0
3750,2023-01-20 10:50:01.164248,121166365,0,0.04,0,0.02,0.01,0,0.01004234,0.08909588,0.02049057,0,48,109375,0,0
3784,2023-01-20 10:50:01.264210,121266360,0,0.03,0,0.02,0.01,0,0.01011511,0.08909588,0.02049057,0,48,109375,0,0
3815,2023-01-20 10:50:01.364148,121366352,0,0.03,0,0.02,0.01,0,0.01019187,0.08909588,0.02049057,0,48,109375,0,0
3847,2023-01-20 10:50:01.464163,121466353,0,0.06,0,0.02,0.01,0,0.01026559,0.08909588,0.02049057,0,48,109375,0,0
3880,2023-01-20 10:50:01.564214,121566352,0,0.06,0,0.02,0.02,0,0.01034147,0.08909588,0.02049057,0,48,109375,0,0
3913,2023-01-20 10:50:01.664229,121666348,0,0.08,0,0.04,0.01,0,0.01041535,0.08909588,0.02049057,0,48,109375,0,0
3946,2023-01-20 10:50:01.764239,121766356,0,0.08,0,0.04,0.03,0,0.01050084,0.08909588,0.02049057,0,48,109375,0,0
3979,2023-01-20 10:50:01.864187,121866351,0,0.05,0,0.08,0.05,0,0.0105728,0.08909588,0.02049057,0,48,109375,0,0
4011,2023-01-20 10:50:01.964107,121966347,0,0.05,0,0.07,0.01,0,0.01064783,0.08909588,0.02049057,0,48,109375,0,0
4043,2023-01-20 10:50:02.064130,122066355,0,0.02,0,0.12,0.03,0,0.01071623,0.08909588,0.02049057,0,48,109375,0,0
4074,2023-01-20 10:50:02.164194,122166353,0,0.02,0,0.1,0.03,0,0.01079662,0.08909588,0.02049057,0,48,109375,0,0
4108,2023-01-20 10:50:02.264211,122266347,0,0.07,0,0.06,0.01,0,0.01087882,0.08909588,0.02049057,0,48,109375,0,0
4139,2023-01-20 10:50:02.364215,122366353,0,0.07,0,0.01,0.02,0,0.01095158,0.08909588,0.02049057,0,48,109375,0,0
4171,2023-01-20 10:50:02.463957,122466351,0,0.05,0.01,0,0.05,0,0.01102472,0.08909588,0.02049057,0,48,109375,0,0
4204,2023-01-20 10:50:02.563582,122566374,0,0.05,0.01,0.01,0.02,0,0.01111124,0.08909588,0.02049057,0,48,109375,0,0
4238,2023-01-20 10:50:02.663437,122666351,0,0.1,0,0,0.02,0,0.01117826,0.08909588,0.02049057,0,48,109375,0,0
4270,2023-01-20 10:50:02.763489,122766365,0,0.1,0,0.01,0.03,0,0.01125365,0.08909588,0.02049057,0,48,109375,0,0
4304,2023-01-20 10:50:02.863453,122866332,0,0.31,0,0,0.01,0,0.01132469,0.08909588,0.02049057,0,48,109375,0,0
4335,2023-01-20 10:50:02.963446,122966350,0,0.31,0,0.01,0.01,0,0.01140416,0.08909588,0.02049057,0,48,109375,0,0
4368,2023-01-20 10:50:03.063464,123066378,0,0.35,0.01,0.01,0.03,0,0.01148174,0.08909588,0.02049057,0,48,109375,0,0
4398,2023-01-20 10:50:03.163459,123166375,0,0.35,0.01,0.01,0.04,0,0.01156486,0.08909588,0.02049057,0,48,109375,0,0
4433,2023-01-20 10:50:03.263447,123266360,0,0.39,0.01,0.01,0.03,0,0.01164707,0.08909588,0.02049057,0,48,107327,0,0
4463,2023-01-20 10:50:03.363447,123366355,0,0.39,0.01,0.04,0.02,0,0.01173514,0.08909588,0.02049057,0,48,107327,0,0
4496,2023-01-20 10:50:03.463467,123466364,0,0.17,0.01,0.03,0,0,0.01182215,0.08909588,0.02049057,0,48,107327,0,0
4528,2023-01-20 10:50:03.563463,123566347,0,0.17,0.01,0.04,0.04,0,0.01191412,0.08909588,0.02049057,0,48,107327,0,0
4562,2023-01-20 10:50:03.663474,123666355,0,0.1,0.01,0.02,0.03,0,0.01199864,0.08909588,0.02049057,0,48,107327,0,0
4594,2023-01-20 10:50:03.763479,123766364,0,0.1,0.01,0.02,0.02,0,0.01206614,0.08909588,0.02049057,0,48,107327,0,0
4628,2023-01-20 10:50:03.863665,123866353,0,0.2,0.01,0.02,0.03,0,0.01212626,0.08909588,0.02049057,0,48,107327,0,0
4660,2023-01-20 10:50:03.963980,123966357,0,0.2,0.01,0.01,0,0,0.01218949,0.08909588,0.02049057,0,48,107327,0,0
4693,2023-01-20 10:50:04.064140,124066362,0,0.25,0,0.01,0.03,0,0.01224758,0.08909588,0.02049057,0,48,107327,0,0
4723,2023-01-20 10:50:04.164192,124166346,0,0.25,0,0.01,0.02,0,0.01230966,0.08909588,0.02049057,0,48,107327,0,0
4758,2023-01-20 10:50:04.264233,124266366,0,0.16,0,0,0.03,0,0.01237966,0.08909588,0.02049057,0,48,107327,0,0
4788,2023-01-20 10:50:04.364227,124366364,0,0.16,0,0.01,0.02,0,0.01249244,0.08909588,0.02049057,0,48,107327,0,0
4821,2023-01-20 10:50:04.464185,124466350,0,0.06,0,0.01,0.03,0,0.01260566,0.08909588,0.02049057,0,48,107327,0,0
4854,2023-01-20 10:50:04.564144,124566349,0,0.06,0,0.01,0.04,0,0.01271162,0.08909588,0.02049057,0,48,107327,0,0
4888,2023-01-20 10:50:04.664165,124666357,0,0.19,0,0,0.03,0,0.01274082,0.08909588,0.02049057,0,48,107327,0,0
4920,2023-01-20 10:50:04.764212,124766361,0,0.19,0,0,0.03,0,0.0127699,0.08909588,0.02049057,0,48,107327,0,0
4954,2023-01-20 10:50:04.864187,124866351,0,0.23,0,0,0.01,0,0.01281482,0.08909588,0.02049057,0,48,107327,0,0
4984,2023-01-20 10:50:04.964149,124966361,0,0.23,0,0,0.04,0,0.01288699,0.08909588,0.02049057,0,48,107327,0,0
5017,2023-01-20 10:50:05.064161,125066359,0,0.07,0,0,0.01,0,0.01295043,0.08909588,0.02049057,0,48,107327,0,0
5047,2023-01-20 10:50:05.164199,125166348,0,0.07,0,0,0.01,0,0.01303773,0.08909588,0.02049057,0,48,107327,0,0
5082,2023-01-20 10:50:05.264224,125266359,0,0.12,0,0,0.02,0,0.01310198,0.08909588,0.02049057,0,48,107327,0,0
5112,2023-01-20 10:50:05.364216,125366356,0,0.12,0,0,0.01,0,0.01317964,0.08909588,0.02049057,0,48,107327,0,0
5145,2023-01-20 10:50:05.464215,125466348,0,0.17,0,0,0.03,0,0.01323101,0.08909588,0.02049057,0,48,107327,0,0
5177,2023-01-20 10:50:05.564249,125566368,0,0.17,0,0,0.04,0,0.01330233,0.08909588,0.02049057,0,48,107327,0,0
5212,2023-01-20 10:50:05.664237,125666350,0,0.14,0,0,0.01,0,0.01335692,0.08909588,0.02049057,0,48,107327,0,0
5244,2023-01-20 10:50:05.764243,125766353,0,0.14,0,0,0.01,0,0.01344257,0.08909588,0.02049057,0,48,107327,0,0
5278,2023-01-20 10:50:05.858431,125866372,0,0.06,0.01,0.01,0.04,0,0.01350186,0.08909588,0.02049057,0,48,107327,0,0
5308,2023-01-20 10:50:05.949344,125966358,0,0.06,0.01,0.02,0.02,0,0.01359621,0.08909588,0.02049057,0,48,107327,0,0
5341,2023-01-20 10:50:06.044301,126066355,0,0.19,0,0.02,0.03,0,0.01365199,0.08909588,0.02049057,0,48,107327,0,0
5371,2023-01-20 10:50:06.144339,126166357,0,0.19,0,0.02,0.01,0,0.01372897,0.08909588,0.02049057,0,48,107327,0,0
5406,2023-01-20 10:50:06.243805,126266351,0,0.14,0,0.03,0.03,0,0.01378226,0.08909588,0.02049057,0,48,107327,0,0
5438,2023-01-20 10:50:06.342574,126366355,0,0.14,0,0.04,0,0,0.03045944,0.08909588,0.02049057,0,48,107327,0,0
5471,2023-01-20 10:50:06.441850,126466354,0,0.17,0,0.04,0.18,0,0.02924648,0.08909588,0.02049057,0,48,107327,0,0
5503,2023-01-20 10:50:06.541842,126566358,0,0.17,0,0.06,0.15,0,0.02929846,0.08909588,0.02049057,0,48,107327,0,0
5537,2023-01-20 10:50:06.641816,126666366,0,0.16,0,0.07,0.17,0,0.02996657,0.08909588,0.02049057,0,48,107327,0,0
5569,2023-01-20 10:50:06.741744,126766358,0,0.16,0,0.06,0.09,0,0.03023973,0.08909588,0.02049057,0,48,107327,0,0
5603,2023-01-20 10:50:06.841663,126866352,0,0.1,0,0.06,0.1,0,0.02976017,0.08909588,0.02049057,0,48,107327,0,0
5633,2023-01-20 10:50:06.941588,126966367,0,0.1,0,0.06,0.05,0,0.02901859,0.08909588,0.02049057,0,48,107327,0,0
5666,2023-01-20 10:50:07.041525,127066363,0,0.12,0,0.06,0.04,0,0.02834308,0.08909588,0.02049057,0,48,107327,0,0
5696,2023-01-20 10:50:07.141493,127166349,0,0.12,0,0.06,0.04,0,0.02833846,0.08909588,0.02049057,0,48,107327,0,0
5731,2023-01-20 10:50:07.241509,127266350,0,0.25,0,0.07,0.05,0,0.02792265,0.08909588,0.02049057,0,48,107327,0,0
5761,2023-01-20 10:50:07.341577,127366355,0,0.25,0,0.08,0.05,0,0.02794583,0.08909588,0.02049057,0,48,107327,0,0
5794,2023-01-20 10:50:07.441568,127466345,0,0.13,0,0.07,0.04,0,0.02747576,0.08909588,0.02049057,0,48,107327,0,0
5826,2023-01-20 10:50:07.541490,127566353,0,0.13,0,0.06,0.07,0,0.02748528,0.08909588,0.02049057,0,48,107327,0,0
5860,2023-01-20 10:50:07.646106,127666349,0,0.17,0,0.06,0.07,0,0.02681295,0.08909588,0.02049057,0,48,107327,0,0
5892,2023-01-20 10:50:07.757380,127766350,0,0.17,0,0.06,0.08,0,0.02682116,0.08909588,0.02049057,0,48,107327,0,0
5926,2023-01-20 10:50:07.856015,127866352,0,0.12,0,0.06,0.11,0,0.02612312,0.08909588,0.02049057,0,48,107327,0,0
5957,2023-01-20 10:50:07.946816,127966367,0,0.12,0,0.07,0.05,0,0.02607824,0.08909588,0.02049057,0,48,107327,0,0
5991,2023-01-20 10:50:08.041395,128066351,0,0.12,0,0.08,0.03,0,0.02540128,0.08909588,0.02049057,0,48,107327,0,0
6021,2023-01-20 10:50:08.141378,128166352,0,0.12,0,0.07,0.06,0,0.02549023,0.08909588,0.02049057,0,48,107327,0,0
6056,2023-01-20 10:50:08.241381,128266349,0,0.13,0,0.07,0.08,0,0.02470594,0.08909588,0.02049057,0,48,107327,0,0
6086,2023-01-20 10:50:08.341429,128366354,0,0.13,0,0.08,0.11,0,0.02479958,0.08909588,0.02049057,0,48,107327,0,0
6119,2023-01-20 10:50:08.441443,128466347,0,0.09,0,0.07,0.06,0,0.02461244,0.08909588,0.02049057,0,48,107327,0,0
6151,2023-01-20 10:50:08.541451,128566361,0,0.09,0,0.06,0.06,0,0.02502575,0.08909588,0.02049057,0,48,107327,0,0
6185,2023-01-20 10:50:08.641444,128666362,0,0.17,0,0.07,0.07,0,0.02417263,0.08909588,0.02049057,0,48,107327,0,0
6217,2023-01-20 10:50:08.741436,128766362,0,0.17,0,0.07,0.04,0,0.02379438,0.08909588,0.02049057,0,48,107327,0,0
6251,2023-01-20 10:50:08.841466,128866356,0,0.18,0,0.08,0.06,0,0.02271339,0.08909588,0.02049057,0,48,107327,0,0
6284,2023-01-20 10:50:08.941560,128966352,0,0.18,0,0.08,0.1,0,0.02243052,0.08909588,0.02049057,0,48,107327,0,0
6317,2023-01-20 10:50:09.041633,129066352,0,0.16,0,0.08,0.03,0,0.02159906,0.08909588,0.02049057,0,48,107327,0,0
6347,2023-01-20 10:50:09.141672,129166352,0,0.16,0,0.08,0.08,0,0.02168708,0.08909588,0.02049057,0,48,107327,0,0
6382,2023-01-20 10:50:09.241616,129266349,0,0.08,0,0.08,0.02,0,0.021252,0.08909588,0.02049057,0,48,107327,0,0
6412,2023-01-20 10:50:09.341455,129366368,0,0.08,0,0.09,0.06,0,0.02163034,0.08909588,0.02049057,0,48,107327,0,0
6445,2023-01-20 10:50:09.441128,129466653,0,0.12,0,0.09,0.04,0,0.02155897,0.08909588,0.02049057,0,48,107327,0,0
6477,2023-01-20 10:50:09.539901,129566645,0,0.12,0,0.1,0.06,0,0.0229854,0.08909588,0.02049057,0,48,107327,0,0
6511,2023-01-20 10:50:09.639155,129666642,0,0.14,0,0.11,0.11,0,0.02419155,0.08909588,0.02049057,0,48,107327,0,0
6543,2023-01-20 10:50:09.739153,129766641,0,0.14,0,0.11,0.05,0,0.02495451,0.08909588,0.02049057,0,48,107327,0,0
6577,2023-01-20 10:50:09.839145,129866643,0,0.12,0,0.11,0.15,0,0.02400558,0.08909588,0.02049057,0,48,107327,0,0
6608,2023-01-20 10:50:09.939125,129966645,0,0.12,0,0.11,0.09,0,0.02341201,0.08909588,0.02049057,0,48,107327,0,0
6641,2023-01-20 10:50:10.039118,130066641,0,0.14,0,0.12,0.1,0,0.0225611,0.08909588,0.02049057,0,48,107327,0,0
6671,2023-01-20 10:50:10.139156,130166654,0,0.14,0,0.13,0.09,0,0.02241754,0.08909588,0.02049057,0,48,107327,0,0
6706,2023-01-20 10:50:10.239059,130266643,0,0.13,0,0.13,0.07,0,0.02118304,0.08909588,0.02049057,0,48,107327,0,0
6736,2023-01-20 10:50:10.338820,130366663,0,0.13,0,0.13,0.06,0,0.02056218,0.08909588,0.02049057,0,48,107327,0,0
6769,2023-01-20 10:50:10.438985,130466996,0,0.23,0,0.13,0.1,0,0.01948085,0.08909588,0.02049057,0,48,107327,0,0
6801,2023-01-20 10:50:10.538961,130567000,0,0.23,0,0.13,0.06,0,0.01961126,0.08909588,0.02049057,0,48,107327,0,0
6835,2023-01-20 10:50:10.638947,130667009,0,0.18,0,0.12,0.03,0,0.01970251,0.08909588,0.02049057,0,48,107327,0,0
6867,2023-01-20 10:50:10.738916,130766996,0,0.18,0,0.13,0.04,0,0.02256265,0.08909588,0.02049057,0,48,107327,0,0
6901,2023-01-20 10:50:10.838875,130867000,0,0.16,0,0.13,0.01,0,0.0262736,0.08909588,0.02049057,0,48,107327,0,0
6931,2023-01-20 10:50:10.938795,130967009,0,0.16,0,0.12,0.04,0,0.02977978,0.08909588,0.02049057,0,48,107327,0,0
6964,2023-01-20 10:50:11.038765,131067000,0,0.17,0,0.12,0.05,0,0.02868382,0.08909588,0.02049057,0,48,107327,0,0
6994,2023-01-20 10:50:11.138863,131167011,0,0.17,0,0.13,0.03,0,0.02636108,0.08909588,0.02049057,0,48,107327,0,0
7030,2023-01-20 10:50:11.238911,131267009,0,0.19,0,0.14,0.01,0,0.02315487,0.08909588,0.02049057,0,48,107327,0,0
7060,2023-01-20 10:50:11.338917,131367022,0,0.19,0,0.16,0.01,0,0.02238697,0.08909588,0.02049057,0,48,107327,0,0
7093,2023-01-20 10:50:11.438890,131466996,0,0.19,0,0.15,0.02,0,0.02089521,0.08909588,0.02049057,0,48,107327,0,0
7124,2023-01-20 10:50:11.538900,131567001,0,0.19,0,0.14,0.01,0,0.02070404,0.08909588,0.02049057,0,48,107327,0,0
7158,2023-01-20 10:50:11.638903,131667000,0,0.23,0,0.15,0.04,0,0.0195857,0.08909588,0.02049057,0,48,107327,0,0
7190,2023-01-20 10:50:11.738897,131766995,0,0.23,0,0.15,0.05,0,0.01921108,0.08909588,0.02049057,0,48,107327,0,0
7224,2023-01-20 10:50:11.838873,131867000,0,0.25,0,0.13,0.05,0,0.01806871,0.08909588,0.02049057,0,48,107327,0,0
7254,2023-01-20 10:50:11.938798,131967000,0,0.25,0,0.14,0.07,0,0.0180904,0.08909588,0.02049057,0,48,107327,0,0
7287,2023-01-20 10:50:12.038782,132066999,0,0.25,0,0.14,0.08,0,0.01768129,0.08909588,0.02049057,0,48,107327,0,0
7317,2023-01-20 10:50:12.138860,132166996,0,0.25,0,0.14,0.06,0,0.01794219,0.08909588,0.02049057,0,48,107327,0,0
7352,2023-01-20 10:50:12.238930,132267017,0,0.25,0,0.15,0.08,0,0.01742029,0.08909588,0.02049057,0,48,107327,0,0
7382,2023-01-20 10:50:12.338937,132367028,0,0.25,0,0.16,0.05,0,0.01744481,0.08909588,0.02049057,0,48,107327,0,0
7415,2023-01-20 10:50:12.438899,132466995,0,0.22,0,0.15,0.06,0,0.01673753,0.08909588,0.02049057,0,48,107327,0,0
7447,2023-01-20 10:50:12.538897,132567000,0,0.22,0,0.13,0.04,0,0.01678126,0.08909588,0.02049057,0,48,107327,0,0
7481,2023-01-20 10:50:12.638896,132667000,0,0.23,0,0.13,0.03,0,0.01644182,0.08909588,0.02049057,0,48,107327,0,0
7513,2023-01-20 10:50:12.738907,132767000,0,0.23,0,0.12,0.05,0,0.01635714,0.08909588,0.02049057,0,48,107327,0,0
7547,2023-01-20 10:50:12.838894,132867010,0,0.23,0,0.13,0.04,0,0.01561564,0.08909588,0.02049057,0,48,107327,0,0
7577,2023-01-20 10:50:12.938811,132967000,0,0.23,0,0.15,0.06,0,0.01539229,0.08909588,0.02049057,0,48,107327,0,0
7611,2023-01-20 10:50:13.038794,133066999,0,0.19,0,0.14,0.03,0,0.01514154,0.08909588,0.02049057,0,48,107327,0,0
7641,2023-01-20 10:50:13.138870,133167001,0,0.19,0,0.14,0.02,0,0.01523859,0.08909588,0.02049057,0,48,107327,0,0
7676,2023-01-20 10:50:13.238913,133267000,0,0.23,0,0.15,0.03,0,0.0149021,0.08909588,0.02049057,0,48,107327,0,0
7706,2023-01-20 10:50:13.338930,133367020,0,0.23,0,0.14,0.07,0,0.0148938,0.08909588,0.02049057,0,48,107327,0,0
7739,2023-01-20 10:50:13.438904,133466996,0,0.23,0,0.14,0.04,0,0.01466355,0.08909588,0.02049057,0,48,107327,0,0
7771,2023-01-20 10:50:13.538909,133567000,0,0.23,0,0.14,0.02,0,0.01476489,0.08909588,0.02049057,0,48,107327,0,0
7805,2023-01-20 10:50:13.638903,133666995,0,0.26,0,0.1,0.07,0,0.01473139,0.08909588,0.02049057,0,48,107327,0,0
7837,2023-01-20 10:50:13.738905,133766998,0,0.26,0,0.07,0.07,0,0.01488142,0.08909588,0.02049057,0,48,107327,0,0
7871,2023-01-20 10:50:13.838880,133867006,0,0.26,0,0.07,0.04,0,0.01471859,0.08909588,0.02049057,0,48,107327,0,0
7903,2023-01-20 10:50:13.938794,133967003,0,0.26,0,0.08,0.05,0,0.01464512,0.08909588,0.02049057,0,48,107327,0,0
7936,2023-01-20 10:50:14.038783,134067014,0,0.23,0,0.08,0.09,0,0.0144544,0.08909588,0.02049057,0,48,107327,0,0
7966,2023-01-20 10:50:14.138845,134167003,0,0.23,0,0.05,0.04,0,0.01460548,0.08909588,0.02049057,0,48,107327,0,0
8001,2023-01-20 10:50:14.238890,134267000,0,0.15,0.01,0.08,0.06,0,0.01471492,0.08909588,0.02049057,0,48,107327,0,0
8031,2023-01-20 10:50:14.338900,134367002,0,0.15,0.01,0.1,0.09,0,0.01493971,0.08909588,0.02049057,0,48,107327,0,0
8064,2023-01-20 10:50:14.438902,134467000,0,0.22,0.01,0.11,0.09,0,0.01485557,0.08909588,0.02049057,0,48,107327,0,0
8097,2023-01-20 10:50:14.538904,134567002,0,0.22,0.01,0.11,0.11,0,0.01495026,0.08909588,0.02049057,0,48,107327,0,0
8131,2023-01-20 10:50:14.638898,134666996,0,0.22,0,0.13,0.16,0,0.01490252,0.08909588,0.02049057,0,48,107327,0,0
8163,2023-01-20 10:50:14.738902,134767000,0,0.22,0,0.12,0.08,0,0.01499999,0.08909588,0.02049057,0,48,107327,0,0
8197,2023-01-20 10:50:14.838871,134867002,0,0.18,0.01,0.15,0.16,0,0.01496616,0.08909588,0.02049057,0,48,107327,0,0
8227,2023-01-20 10:50:14.938800,134967015,0,0.18,0.01,0.12,0.12,0,0.01515242,0.08909588,0.02049057,0,48,107327,0,0
8260,2023-01-20 10:50:15.038758,135066999,0,0.23,0,0.11,0.06,0,0.01512221,0.08909588,0.02049057,0,48,107327,0,0
8290,2023-01-20 10:50:15.138827,135167003,0,0.23,0,0.14,0.07,0,0.01517163,0.08909588,0.02049057,0,48,107327,0,0
8325,2023-01-20 10:50:15.238872,135267000,0,0.19,0,0.12,0.08,0,0.01507153,0.08909588,0.02049057,0,48,107327,0,0
8355,2023-01-20 10:50:15.338903,135367011,0,0.19,0,0.13,0.01,0,0.01529167,0.08909588,0.02049057,0,48,107327,0,0
8388,2023-01-20 10:50:15.438903,135467000,0,0.18,0,0.14,0.11,0,0.01521073,0.08909588,0.02049057,0,48,107327,0,0
8420,2023-01-20 10:50:15.538903,135567003,0,0.18,0,0.14,0.05,0,0.01520527,0.08909588,0.02049057,0,48,107327,0,0
8454,2023-01-20 10:50:15.638904,135667005,0,0.17,0,0.14,0.04,0,0.01505248,0.08909588,0.02049057,0,48,107327,0,0
8486,2023-01-20 10:50:15.738904,135767003,0,0.17,0,0.13,0.07,0,0.01512823,0.08909588,0.02049057,0,48,107327,0,0
8520,2023-01-20 10:50:15.838910,135867019,0,0.18,0,0.13,0.03,0,0.01500584,0.08909588,0.02049057,0,48,107327,0,0
8550,2023-01-20 10:50:15.938862,135967002,0,0.18,0,0.13,0.04,0,0.01515421,0.08909588,0.02049057,0,48,107327,0,0
8583,2023-01-20 10:50:16.038868,136067015,0,0.16,0,0.14,0.04,0,0.01505913,0.08909588,0.02049057,0,48,107327,0,0
8613,2023-01-20 10:50:16.138900,136167016,0,0.16,0,0.13,0.04,0,0.01516472,0.08909588,0.02049057,0,48,107327,0,0
8648,2023-01-20 10:50:16.238878,136266996,0,0.19,0,0.12,0.01,0,0.01527361,0.08909588,0.02049057,0,48,107327,0,0
8678,2023-01-20 10:50:16.338825,136366998,0,0.19,0,0.12,0.03,0,0.01546464,0.08909588,0.02049057,0,48,107327,0,0
8711,2023-01-20 10:50:16.438816,136466999,0,0.09,0,0.11,0.1,0,0.0155398,0.08909588,0.02049057,0,48,107327,0,0
8743,2023-01-20 10:50:16.538872,136566998,0,0.09,0,0.13,0.1,0,0.0156774,0.08909588,0.02049057,0,48,107327,0,0
8777,2023-01-20 10:50:16.638904,136666995,0,0.08,0,0.13,0.09,0,0.01562755,0.08909588,0.02049057,0,48,107327,0,0
8809,2023-01-20 10:50:16.738914,136767007,0,0.08,0,0.14,0.16,0,0.0155827,0.08909588,0.02049057,0,48,107327,0,0
8843,2023-01-20 10:50:16.838906,136867010,0,0.08,0,0.14,0.08,0,0.01542357,0.08909588,0.02049057,0,48,107327,0,0
8873,2023-01-20 10:50:16.938875,136967003,0,0.08,0,0.15,0.07,0,0.01541311,0.08909588,0.02049057,0,48,107327,0,0
8906,2023-01-20 10:50:17.038871,137067002,0,0.06,0,0.15,0.07,0,0.01530787,0.08909588,0.02049057,0,48,107327,0,0
8936,2023-01-20 10:50:17.138909,137167011,0,0.06,0,0.16,0.08,0,0.01521804,0.08909588,0.02049057,0,48,107327,0,0
8971,2023-01-20 10:50:17.238929,137267017,0,0.09,0,0.17,0.1,0,0.01509798,0.08909588,0.02049057,0,48,107327,0,0
9001,2023-01-20 10:50:17.338923,137367020,0,0.09,0,0.15,0.13,0,0.01521969,0.08909588,0.02049057,0,48,107327,0,0
9034,2023-01-20 10:50:17.438910,137467008,0,0.11,0,0.15,0.08,0,0.01514809,0.08909588,0.02049057,0,48,107327,0,0
9066,2023-01-20 10:50:17.538911,137566998,0,0.11,0,0.16,0.1,0,0.01512505,0.08909588,0.02049057,0,48,107327,0,0
9100,2023-01-20 10:50:17.638915,137666995,0,0.09,0,0.14,0.07,0,0.01492451,0.08909588,0.02049057,0,48,107327,0,0
9132,2023-01-20 10:50:17.738930,137767012,0,0.09,0,0.14,0.06,0,0.01494572,0.08909588,0.02049057,0,48,107327,0,0
9166,2023-01-20 10:50:17.835450,137866999,0,0.15,0,0.11,0.1,0,0.01467235,0.08909588,0.02049057,0,48,107327,0,0
9196,2023-01-20 10:50:17.926548,137967004,0,0.15,0,0.11,0.12,0,0.01465524,0.08909588,0.02049057,0,48,107327,0,0
9229,2023-01-20 10:50:18.021482,138067027,0,0.15,0,0.12,0.04,0,0.0143974,0.08909588,0.02049057,0,48,107327,0,0
9260,2023-01-20 10:50:18.132253,138167002,0,0.15,0,0.1,0.09,0,0.01440651,0.08909588,0.02049057,0,48,107327,0,0
9295,2023-01-20 10:50:18.238871,138267001,0,0.16,0,0.14,0.08,0,0.01417429,0.08909588,0.02049057,0,48,107327,0,0
9325,2023-01-20 10:50:18.338922,138367012,0,0.16,0,0.15,0.06,0,0.01416457,0.08909588,0.02049057,0,48,107327,0,0
9358,2023-01-20 10:50:18.435470,138466999,0,0.17,0,0.16,0.06,0,0.01382029,0.08909588,0.02049057,0,48,107327,0,0
9390,2023-01-20 10:50:18.526576,138567002,0,0.17,0,0.14,0.07,0,0.01385595,0.08909588,0.02049057,0,48,107327,0,0
9424,2023-01-20 10:50:18.619396,138667000,0,0.19,0,0.14,0.1,0,0.01352105,0.08909588,0.02049057,0,48,107327,0,0
9456,2023-01-20 10:50:18.719379,138767017,0,0.19,0,0.14,0.05,0,0.01354574,0.08909588,0.02049057,0,48,107327,0,0
9490,2023-01-20 10:50:18.819326,138866998,0,0.18,0,0.12,0.08,0,0.01321151,0.08909588,0.02049057,0,48,107327,0,0
9522,2023-01-20 10:50:18.919290,138966998,0,0.18,0,0.12,0.04,0,0.01321306,0.08909588,0.02049057,0,48,107327,0,0
9555,2023-01-20 10:50:19.019273,139067003,0,0.14,0,0.12,0.03,0,0.01288377,0.08909588,0.02049057,0,48,107327,0,0
9585,2023-01-20 10:50:19.119303,139166998,0,0.14,0,0.12,0.11,0,0.01284148,0.08909588,0.02049057,0,48,107327,0,0
9620,2023-01-20 10:50:19.219324,139266995,0,0.14,0,0.12,0.06,0,0.01245664,0.08909588,0.02049057,0,48,107327,0,0
9650,2023-01-20 10:50:19.319306,139367002,0,0.14,0,0.13,0.04,0,0.01249423,0.08909588,0.02049057,0,48,107327,0,0
9683,2023-01-20 10:50:19.419272,139466999,0,0.12,0,0.12,0.04,0,0.01219583,0.08909588,0.02049057,0,48,107327,0,0
9715,2023-01-20 10:50:19.519240,139567020,0,0.12,0,0.13,0.06,0,0.01219217,0.08909588,0.02049057,0,48,107327,0,0
9749,2023-01-20 10:50:19.619174,139666998,0,0.11,0,0.12,0.03,0,0.01187005,0.08909588,0.02049057,0,48,107327,0,0
9781,2023-01-20 10:50:19.719173,139766999,0,0.11,0,0.12,0.06,0,0.01190966,0.08909588,0.02049057,0,48,107327,0,0
9815,2023-01-20 10:50:19.819166,139866997,0,0.12,0,0.12,0.04,0,0.01164776,0.08909588,0.02049057,0,48,107327,0,0
9845,2023-01-20 10:50:19.919157,139967005,0,0.12,0,0.1,0.1,0,0.01165621,0.08909588,0.02049057,0,48,107327,0,0
9878,2023-01-20 10:50:20.019142,140067002,0,0.05,0,0.11,0.05,0,0.01137473,0.08909588,0.02049057,0,48,107327,0,0
9908,2023-01-20 10:50:20.119149,140166999,0,0.05,0,0.1,0.01,0,0.01141056,0.08909588,0.02049057,0,48,107327,0,0
9943,2023-01-20 10:50:20.219164,140266994,0,0.1,0,0.1,0.05,0,0.01115736,0.08909588,0.02049057,0,48,107327,0,0
9976,2023-01-20 10:50:20.319240,140367006,0,0.1,0,0.08,0.05,0,0.01124366,0.08909588,0.02049057,0,48,107327,0,0
10009,2023-01-20 10:50:20.419280,140466995,0,0.08,0,0.08,0.09,0,0.0109281,0.08909588,0.02049057,0,48,107327,0,0
10041,2023-01-20 10:50:20.519280,140566999,0,0.08,0,0.09,0.03,0,0.01095122,0.08909588,0.02049057,0,48,107327,0,0
10075,2023-01-20 10:50:20.619284,140667000,0,0.14,0,0.1,0.04,0,0.01067918,0.08909588,0.02049057,0,48,107327,0,0
10107,2023-01-20 10:50:20.719325,140767003,0,0.14,0,0.1,0.08,0,0.01070283,0.08909588,0.02049057,0,48,107327,0,0
10141,2023-01-20 10:50:20.819329,140866999,0,0.15,0,0.1,0.08,0,0.01043081,0.08909588,0.02049057,0,48,107327,0,0
10171,2023-01-20 10:50:20.919219,140967008,0,0.15,0,0.1,0.04,0,0.01051783,0.08909588,0.02049057,0,48,107327,0,0
10204,2023-01-20 10:50:21.019128,141067002,0,0.12,0.01,0.1,0.03,0,0.01032744,0.08909588,0.02049057,0,48,107327,0,0
10234,2023-01-20 10:50:21.119177,141166996,0,0.12,0.01,0.08,0.02,0,0.01045092,0.08909588,0.02049057,0,48,107327,0,0
10269,2023-01-20 10:50:21.219234,141267013,0,0.13,0.01,0.08,0.02,0,0.01022358,0.08909588,0.02049057,0,48,107327,0,0
10299,2023-01-20 10:50:21.319208,141367011,0,0.13,0.01,0.08,0.03,0,0.01034087,0.08909588,0.02049057,0,48,107327,0,0
10332,2023-01-20 10:50:21.419179,141466995,0,0.16,0.01,0.08,0.03,0,0.01007378,0.08909588,0.02049057,0,48,107327,0,0
10364,2023-01-20 10:50:21.519221,141567001,0,0.16,0.01,0.08,0.04,0,0.01011036,0.08909588,0.02049057,0,48,107327,0,0
10398,2023-01-20 10:50:21.619237,141667000,0,0.13,0.01,0.08,0.07,0,0.009837143,0.08909588,0.02049057,0,48,107327,0,0
10430,2023-01-20 10:50:21.719181,141767005,0,0.13,0.01,0.08,0.12,0,0.009870987,0.08909588,0.02049057,0,48,107327,0,0
10464,2023-01-20 10:50:21.819121,141866998,0,0.1,0.01,0.09,0.12,0,0.00961062,0.08909588,0.02049057,0,48,107327,0,0
10494,2023-01-20 10:50:21.919116,141967006,0,0.1,0.01,0.08,0.14,0,0.009665219,0.08909588,0.02049057,0,48,107327,0,0
10527,2023-01-20 10:50:22.019107,142066998,0,0.11,0.01,0.1,0.12,0,0.009406765,0.08909588,0.02049057,0,48,107327,0,0
10557,2023-01-20 10:50:22.119158,142166999,0,0.11,0.01,0.09,0.09,0,0.009485555,0.08909588,0.02049057,0,48,107327,0,0
10592,2023-01-20 10:50:22.219192,142266999,0,0.17,0.01,0.08,0.15,0,0.00927853,0.08909588,0.02049057,0,48,107327,0,0
10622,2023-01-20 10:50:22.319180,142367022,0,0.17,0.01,0.08,0.04,0,0.009320484,0.08909588,0.02049057,0,48,107327,0,0
10655,2023-01-20 10:50:22.419134,142466995,0,0.1,0.01,0.08,0.08,0,0.009124569,0.08909588,0.02049057,0,48,107327,0,0
10687,2023-01-20 10:50:22.519187,142567002,0,0.1,0.01,0.08,0.06,0,0.009239459,0.08909588,0.02049057,0,48,107327,0,0
10721,2023-01-20 10:50:22.619219,142666999,0,0.18,0,0.09,0.07,0,0.009174414,0.08909588,0.02049057,0,48,107327,0,0
10753,2023-01-20 10:50:22.719202,142766999,0,0.18,0,0.09,0.07,0,0.009438557,0.08909588,0.02049057,0,48,107327,0,0
10787,2023-01-20 10:50:22.819185,142867002,0,0.1,0.01,0.08,0.12,0,0.00952011,0.08909588,0.02049057,0,48,107327,0,0
10817,2023-01-20 10:50:22.919154,142967003,0,0.1,0.01,0.07,0.16,0,0.009752871,0.08909588,0.02049057,0,48,107327,0,0
10850,2023-01-20 10:50:23.019150,143067014,0,0.06,0.01,0.06,0.09,0,0.009689706,0.08909588,0.02049057,0,48,107327,0,0
10880,2023-01-20 10:50:23.119206,143167019,0,0.06,0.01,0.08,0.12,0,0.009850029,0.08909588,0.02049057,0,48,107327,0,0
10916,2023-01-20 10:50:23.219222,143266999,0,0.01,0.01,0.08,0.08,0,0.009660434,0.08909588,0.02049057,0,48,107327,0,0
10946,2023-01-20 10:50:23.319196,143367002,0,0.01,0.01,0.1,0.1,0,0.009757079,0.08909588,0.02049057,0,48,107327,0,0
10979,2023-01-20 10:50:23.419168,143466995,0,0.08,0.01,0.09,0.14,0,0.009792713,0.08909588,0.02049057,0,48,107327,0,0
11011,2023-01-20 10:50:23.519189,143567002,0,0.08,0.01,0.11,0.16,0,0.009972052,0.08909588,0.02049057,0,48,107327,0,0
11045,2023-01-20 10:50:23.619204,143667008,0,0.1,0.01,0.1,0.13,0,0.009959465,0.08909588,0.02049057,0,48,107327,0,0
11077,2023-01-20 10:50:23.719177,143766995,0,0.1,0.01,0.1,0.08,0,0.01002712,0.08909588,0.02049057,0,48,107327,0,0
11111,2023-01-20 10:50:23.819170,143867002,0,0.17,0,0.12,0.13,0,0.009954096,0.08909588,0.02049057,0,48,107327,0,0
11144,2023-01-20 10:50:23.919178,143967027,0,0.17,0,0.13,0.16,0,0.01002585,0.08909588,0.02049057,0,48,107327,0,0
11177,2023-01-20 10:50:24.019161,144067011,0,0.08,0,0.13,0.13,0,0.009774476,0.08909588,0.02049057,0,48,107327,0,0
11207,2023-01-20 10:50:24.119210,144166999,0,0.08,0,0.13,0.18,0,0.009723925,0.08909588,0.02049057,0,48,107327,0,0
11242,2023-01-20 10:50:24.219257,144267008,0,0.22,0,0.13,0.22,0,0.009553769,0.08909588,0.02049057,0,48,107327,0,0
11272,2023-01-20 10:50:24.319185,144366998,0,0.22,0,0.12,0.11,0,0.00958315,0.08909588,0.02049057,0,48,107327,0,0
11305,2023-01-20 10:50:24.419144,144466995,0,0.09,0,0.12,0.18,0,0.009480702,0.08909588,0.02049057,0,48,107327,0,0
11338,2023-01-20 10:50:24.519226,144567011,0,0.09,0,0.13,0.1,0,0.009543503,0.08909588,0.02049057,0,48,107327,0,0
11373,2023-01-20 10:50:24.619247,144666995,0,0.23,0.01,0.15,0.19,0,0.009356479,0.08909588,0.02049057,0,48,107327,0,0
11405,2023-01-20 10:50:24.719166,144766995,0,0.23,0.01,0.18,0.19,0,0.009286728,0.08909588,0.02049057,0,48,107327,0,0
11439,2023-01-20 10:50:24.819116,144867011,0,0.11,0,0.17,0.23,0,0.009137386,0.08909588,0.02049057,0,48,107327,0,0
11470,2023-01-20 10:50:24.919108,144967002,0,0.11,0,0.15,0.23,0,0.009197965,0.08909588,0.02049057,0,48,107327,0,0
11503,2023-01-20 10:50:25.019109,145066998,0,0.13,0.01,0.13,0.16,0,0.009024878,0.08909588,0.02049057,0,48,107327,0,0
11533,2023-01-20 10:50:25.119153,145167012,0,0.13,0.01,0.13,0.2,0,0.008556646,0.08909588,0.02049057,0,48,107327,0,0
11569,2023-01-20 10:50:25.219168,145267005,0,0.06,0,0.11,0.24,0,0.007986847,0.08909588,0.02049057,0,48,107327,0,0
11599,2023-01-20 10:50:25.319158,145367001,0,0.06,0,0.1,0.21,0,0.008088677,0.08909588,0.02049057,0,48,107327,0,0
11632,2023-01-20 10:50:25.419162,145467007,0,0.5,0,0.1,0.21,0,0.008871512,0.08909588,0.02049057,0,48,107327,0,0
11664,2023-01-20 10:50:25.519176,145567008,0,0.5,0,0.02,0.26,0,0.009921012,0.08909588,0.02049057,0,48,107327,0,0
11698,2023-01-20 10:50:25.619174,145666997,0,0.03,0,0.05,0.2,0,0.01019908,0.08909588,0.02049057,0,48,107327,0,0
11730,2023-01-20 10:50:25.719171,145767007,0,0.03,0,0.03,0.21,0,0.01001845,0.08909588,0.02049057,0,48,107327,0,0
11763,2023-01-20 10:50:25.819156,145867007,0,0.05,0,0.02,0.21,0,0.01008076,0.08909588,0.02049057,0,48,107327,0,0
11795,2023-01-20 10:50:25.919123,145966998,0,0.05,0,0.03,0.07,0,0.01038061,0.08909588,0.02049057,0,48,107327,0,0
11828,2023-01-20 10:50:26.019112,146066999,0,0.1,0,0.05,0.06,0,0.01067741,0.08909588,0.02049057,0,48,107327,0,0
11858,2023-01-20 10:50:26.119153,146167002,0,0.1,0,0.04,0.05,0,0.0106364,0.08909588,0.02049057,0,48,107327,0,0
11893,2023-01-20 10:50:26.219173,146266999,0,0.04,0,0.05,0.15,0,0.01034341,0.08909588,0.02049057,0,48,107327,0,0
11923,2023-01-20 10:50:26.319138,146367000,0,0.04,0,0.1,0.05,0,0.009829856,0.08909588,0.02049057,0,48,107327,0,0
11956,2023-01-20 10:50:26.419113,146466998,0,0.07,0,0.12,0.13,0,0.009541831,0.08909588,0.02049057,0,48,107327,0,0
11988,2023-01-20 10:50:26.519163,146567018,0,0.07,0,0.08,0.1,0,0.009324591,0.08909588,0.02049057,0,48,107327,0,0
12022,2023-01-20 10:50:26.619179,146667011,0,0.17,0,0.07,0.09,0,0.009017707,0.08909588,0.02049057,0,48,107327,0,0
12054,2023-01-20 10:50:26.719165,146767002,0,0.17,0,0.04,0.17,0,0.008876806,0.08909588,0.02049057,0,48,107327,0,0
12087,2023-01-20 10:50:26.819160,146867006,0,0.08,0,0.03,0.28,0,0.008670586,0.08909588,0.02049057,0,48,107327,0,0
12118,2023-01-20 10:50:26.919128,146966998,0,0.08,0,0.01,0.31,0,0.00861316,0.08909588,0.02049057,0,48,107327,0,0
12151,2023-01-20 10:50:27.019115,147067003,0,0.15,0,0.01,0.3,0,0.008550609,0.08909588,0.02049057,0,48,107327,0,0
12181,2023-01-20 10:50:27.119123,147167002,0,0.15,0,0,0.22,0,0.008569497,0.08909588,0.02049057,0,48,107327,0,0
12216,2023-01-20 10:50:27.219127,147266995,0,0.18,0,0.02,0.2,0,0.008532603,0.08909588,0.02049057,0,48,107327,0,0
12246,2023-01-20 10:50:27.319146,147367000,0,0.18,0,0.01,0.13,0,0.008624515,0.08909588,0.02049057,0,48,107327,0,0
12279,2023-01-20 10:50:27.417458,147467020,0,0.07,0,0,0.17,0,0.008638885,0.08909588,0.02049057,0,48,107327,0,0
12311,2023-01-20 10:50:27.508476,147567008,0,0.07,0,0,0.14,0,0.008695835,0.08909588,0.02049057,0,48,107327,0,0
12345,2023-01-20 10:50:27.599494,147666995,0,0.07,0,0,0.33,0,0.00873524,0.08909588,0.02049057,0,48,107327,0,0
12377,2023-01-20 10:50:27.699444,147767002,0,0.09,0,0,0.25,0,0.008689147,0.08909588,0.02049057,0,48,107327,0,0
12410,2023-01-20 10:50:27.799435,147867001,0,0.09,0,0,0.12,0,0.008751544,0.08909588,0.02049057,0,48,107327,0,0
12442,2023-01-20 10:50:27.899368,147966998,0,0.16,0,0,0.19,0,0.008743843,0.08909588,0.02049057,0,48,107327,0,0
12475,2023-01-20 10:50:27.999305,148066999,0,0.16,0,0,0.15,0,0.008841871,0.08909588,0.02049057,0,48,107327,0,0
12505,2023-01-20 10:50:28.099333,148167002,0,0.26,0,0,0.11,0,0.00884594,0.08909588,0.02049057,0,48,107327,0,0
12540,2023-01-20 10:50:28.199356,148267000,0,0.26,0,0,0.14,0,0.008917862,0.08909588,0.02049057,0,48,107327,0,0
12571,2023-01-20 10:50:28.299409,148367028,0,0.09,0.01,0,0.16,0,0.008885403,0.08909588,0.02049057,0,48,107327,0,0
12604,2023-01-20 10:50:28.399425,148467019,0,0.09,0.01,0.02,0.1,0,0.008951607,0.08909588,0.02049057,0,48,107327,0,0
12636,2023-01-20 10:50:28.510302,148566998,0,0.3,0.01,0.01,0.12,0,0.00892598,0.08909588,0.02049057,0,48,107327,0,0
12670,2023-01-20 10:50:28.617436,148666995,0,0.15,0.01,0,0.1,0,0.008910798,0.08909588,0.02049057,0,48,107327,0,0
12702,2023-01-20 10:50:28.708443,148767002,0,0.15,0.01,0,0.1,0,0.00898696,0.08909588,0.02049057,0,48,107327,0,0
12735,2023-01-20 10:50:28.799439,148866998,0,0.15,0.01,0,0.08,0,0.009060531,0.08909588,0.02049057,0,48,107327,0,0
12768,2023-01-20 10:50:28.899272,148966999,0,0.04,0,0,0.08,0,0.009051508,0.08909588,0.02049057,0,48,107327,0,0
12801,2023-01-20 10:50:28.999158,149066999,0,0.04,0,0,0.08,0,0.009126436,0.08909588,0.02049057,0,48,107327,0,0
12831,2023-01-20 10:50:29.099230,149167018,0,0.22,0.01,0,0.1,0,0.009114452,0.08909588,0.02049057,0,48,107327,0,0
12867,2023-01-20 10:50:29.199267,149267001,0,0.22,0.01,0.01,0.1,0,0.009190744,0.08909588,0.02049057,0,48,107327,0,0
12897,2023-01-20 10:50:29.299217,149367015,0,0.14,0.01,0,0.1,0,0.009193976,0.08909588,0.02049057,0,48,107327,0,0
12930,2023-01-20 10:50:29.399160,149467023,0,0.14,0.01,0,0.15,0,0.009269752,0.08909588,0.02049057,0,48,107327,0,0
12962,2023-01-20 10:50:29.499153,149566998,0,0.1,0.01,0,0.18,0,0.009266027,0.08909588,0.02049057,0,48,107327,0,0
12996,2023-01-20 10:50:29.599173,149666998,0,0.1,0.01,0,0.1,0,0.009352681,0.08909588,0.02049057,0,48,107327,0,0
13028,2023-01-20 10:50:29.699169,149767003,0,0.12,0.01,0,0.06,0,0.009351249,0.08909588,0.02049057,0,48,107327,0,0
13061,2023-01-20 10:50:29.799155,149866998,0,0.12,0.01,0,0.09,0,0.009440049,0.08909588,0.02049057,0,48,107327,0,0
13092,2023-01-20 10:50:29.899134,149966999,0,0.22,0.01,0,0.09,0,0.009427636,0.08909588,0.02049057,0,48,107327,0,0
13125,2023-01-20 10:50:29.999113,150067001,0,0.22,0.01,0,0.14,0,0.009495831,0.08909588,0.02049057,0,48,107327,0,0
13155,2023-01-20 10:50:30.099144,150166998,0,0.21,0.01,0,0.05,0,0.009465739,0.08909588,0.02049057,0,48,107327,0,0
13190,2023-01-20 10:50:30.199175,150266995,0,0.21,0.01,0.01,0.1,0,0.009535251,0.08909588,0.02049057,0,48,107327,0,0
13220,2023-01-20 10:50:30.299201,150367020,0,0.28,0.01,0.01,0.09,0,0.009522323,0.08909588,0.02049057,0,48,107327,0,0
13253,2023-01-20 10:50:30.399197,150467015,0,0.28,0.01,0.01,0.05,0,0.009602363,0.08909588,0.02049057,0,48,107327,0,0
13285,2023-01-20 10:50:30.499176,150566999,0,0.23,0.01,0.01,0.09,0,0.009583259,0.08909588,0.02049057,0,48,107327,0,0
13319,2023-01-20 10:50:30.599179,150667008,0,0.23,0.01,0.01,0.08,0,0.009662808,0.08909588,0.02049057,0,48,107327,0,0
13352,2023-01-20 10:50:30.699171,150767002,0,0.28,0.02,0.01,0.09,0,0.009637364,0.08909588,0.02049057,0,48,107327,0,0
13385,2023-01-20 10:50:30.799165,150866998,0,0.28,0.02,0.02,0.06,0,0.009716334,0.08909588,0.02049057,0,48,107327,0,0
13416,2023-01-20 10:50:30.899136,150967002,0,0.29,0.01,0.02,0.07,0,0.009700988,0.08909588,0.02049057,0,48,107327,0,0
13449,2023-01-20 10:50:30.999107,151067007,0,0.29,0.01,0.03,0.06,0,0.009786572,0.08909588,0.02049057,0,48,107327,0,0
13479,2023-01-20 10:50:31.099185,151166998,0,0.3,0.01,0.03,0.05,0,0.00977463,0.08909588,0.02049057,0,48,107327,0,0
13514,2023-01-20 10:50:31.199270,151266995,0,0.3,0.01,0.02,0.06,0,0.009864827,0.08909588,0.02049057,0,48,107327,0,0
13544,2023-01-20 10:50:31.299237,151367011,0,0.27,0.01,0.02,0.04,0,0.009857557,0.08909588,0.02049057,0,48,107327,0,0
13577,2023-01-20 10:50:31.399178,151467001,0,0.27,0.01,0.02,0.04,0,0.009940533,0.08909588,0.02049057,0,48,107327,0,0
13609,2023-01-20 10:50:31.499176,151567019,0,0.36,0,0.02,0.09,0,0.009934777,0.08909588,0.02049057,0,48,107327,0,0
13642,2023-01-20 10:50:31.599145,151667008,0,0.36,0,0.03,0.03,0,0.01001701,0.08909588,0.02049057,0,48,107327,0,0
13675,2023-01-20 10:50:31.699149,151766999,0,0.23,0.01,0.03,0.03,0,0.009987699,0.08909588,0.02049057,0,48,107327,0,0
13708,2023-01-20 10:50:31.799161,151866998,0,0.23,0.01,0.04,0.07,0,0.01007895,0.08909588,0.02049057,0,48,107327,0,0
13740,2023-01-20 10:50:31.899148,151967008,0,0.24,0,0.03,0.14,0,0.01005965,0.08909588,0.02049057,0,48,107327,0,0
13773,2023-01-20 10:50:31.999119,152067002,0,0.24,0,0.04,0.22,0,0.01013063,0.08909588,0.02049057,0,48,107327,0,0
13803,2023-01-20 10:50:32.099144,152167000,0,0.26,0.01,0.04,0.22,0,0.01009011,0.08909588,0.02049057,0,48,107327,0,0
13838,2023-01-20 10:50:32.199179,152267008,0,0.26,0.01,0.04,0.25,0,0.01017124,0.08909588,0.02049057,0,48,107327,0,0
13868,2023-01-20 10:50:32.299180,152367002,0,0.32,0.01,0.04,0.18,0,0.01015261,0.08909588,0.02049057,0,48,107327,0,0
13901,2023-01-20 10:50:32.399195,152467011,0,0.32,0.01,0.05,0.2,0,0.01022923,0.08909588,0.02049057,0,48,107327,0,0
13933,2023-01-20 10:50:32.499164,152567005,0,0.32,0.01,0.05,0.18,0,0.01019991,0.08909588,0.02049057,0,48,107327,0,0
13966,2023-01-20 10:50:32.599133,152666999,0,0.32,0.01,0.05,0.16,0,0.01026221,0.08909588,0.02049057,0,48,107327,0,0
13999,2023-01-20 10:50:32.699142,152766995,0,0.23,0.01,0.06,0.12,0,0.01023149,0.08909588,0.02049057,0,48,107327,0,0
14032,2023-01-20 10:50:32.799167,152867006,0,0.23,0.01,0.06,0.1,0,0.01031054,0.08909588,0.02049057,0,48,107327,0,0
14063,2023-01-20 10:50:32.899139,152966999,0,0.29,0.01,0.06,0.07,0,0.01028178,0.08909588,0.02049057,0,48,107327,0,0
14096,2023-01-20 10:50:32.999121,153067002,0,0.29,0.01,0.07,0.04,0,0.01036384,0.08909588,0.02049057,0,48,107327,0,0
14126,2023-01-20 10:50:33.099151,153167004,0,0.48,0,0.07,0.07,0,0.01034971,0.08909588,0.02049057,0,48,107327,0,0
14161,2023-01-20 10:50:33.199174,153266999,0,0.48,0,0.07,0.02,0,0.01043929,0.08909588,0.02049057,0,48,107327,0,0
14191,2023-01-20 10:50:33.299181,153367002,0,0.25,0,0.07,0.04,0,0.01042751,0.08909588,0.02049057,0,48,107327,0,0
14225,2023-01-20 10:50:33.399187,153467004,0,0.25,0,0.07,0.03,0,0.01051779,0.08909588,0.02049057,0,48,107327,0,0
14258,2023-01-20 10:50:33.499185,153567006,0,0.29,0.01,0.06,0.04,0,0.0104738,0.08909588,0.02049057,0,48,107327,0,0
14292,2023-01-20 10:50:33.599173,153666999,0,0.29,0.01,0.06,0.05,0,0.01053173,0.08909588,0.02049057,0,48,107327,0,0
14325,2023-01-20 10:50:33.699172,153767004,0,0.42,0.01,0.06,0.09,0,0.01048104,0.08909588,0.02049057,0,48,107327,0,0
14358,2023-01-20 10:50:33.799159,153866998,0,0.42,0.01,0.06,0.06,0,0.01054785,0.08909588,0.02049057,0,48,107327,0,0
14391,2023-01-20 10:50:33.899140,153967005,0,0.42,0.01,0.06,0.07,0,0.01050492,0.08909588,0.02049057,0,48,107327,0,0
14424,2023-01-20 10:50:33.999115,154067007,0,0.42,0.01,0.06,0.04,0,0.01057999,0.08909588,0.02049057,0,48,107327,0,0
14454,2023-01-20 10:50:34.099117,154166995,0,0.38,0.02,0.06,0.06,0,0.01054129,0.08909588,0.02049057,0,48,107327,0,0
14489,2023-01-20 10:50:34.199140,154267004,0,0.38,0.02,0.06,0.06,0,0.01063293,0.08909588,0.02049057,0,48,107327,0,0
14519,2023-01-20 10:50:34.299169,154367009,0,0.35,0.02,0.07,0.08,0,0.01061144,0.08909588,0.02049057,0,48,107327,0,0
14552,2023-01-20 10:50:34.399179,154466995,0,0.35,0.02,0.06,0.04,0,0.01069657,0.08909588,0.02049057,0,48,107327,0,0
14585,2023-01-20 10:50:34.499219,154566999,0,0.35,0.02,0.07,0.03,0,0.01066743,0.08909588,0.02049057,0,48,107327,0,0
14617,2023-01-20 10:50:34.599256,154666999,0,0.35,0.02,0.07,0.05,0,0.01073901,0.08909588,0.02049057,0,48,107327,0,0
14651,2023-01-20 10:50:34.699203,154766995,0,0.23,0.02,0.07,0.01,0,0.01066421,0.08909588,0.02049057,0,48,107327,0,0
14684,2023-01-20 10:50:34.799161,154867002,0,0.23,0.02,0.07,0.03,0,0.01071293,0.08909588,0.02049057,0,48,107327,0,0
14717,2023-01-20 10:50:34.899132,154967006,0,0.2,0.02,0.06,0.04,0,0.01062731,0.08909588,0.02049057,0,48,107327,0,0
14750,2023-01-20 10:50:34.999091,155066998,0,0.2,0.02,0.06,0.05,0,0.01069882,0.08909588,0.02049057,0,48,107327,0,0
14780,2023-01-20 10:50:35.099185,155167007,0,0.17,0.02,0.06,0.07,0,0.0106125,0.08909588,0.02049057,0,48,107327,0,0
14815,2023-01-20 10:50:35.199262,155266999,0,0.17,0.02,0.07,0.03,0,0.01067509,0.08909588,0.02049057,0,48,107327,0,0
14845,2023-01-20 10:50:35.299260,155366998,0,0.17,0.02,0.07,0.1,0,0.01055902,0.08909588,0.02049057,0,48,107327,0,0
14878,2023-01-20 10:50:35.399254,155466995,0,0.17,0.02,0.08,0.03,0,0.01064064,0.08909588,0.02049057,0,48,107327,0,0
14910,2023-01-20 10:50:35.499281,155567021,0,0.18,0.02,0.08,0.06,0,0.01054778,0.08909588,0.02049057,0,48,107327,0,0
14943,2023-01-20 10:50:35.599270,155667009,0,0.18,0.02,0.08,0.05,0,0.01060839,0.08909588,0.02049057,0,48,107327,0,0
14976,2023-01-20 10:50:35.699236,155766995,0,0.22,0.02,0.08,0.08,0,0.01053632,0.08909588,0.02049057,0,48,107327,0,0
15009,2023-01-20 10:50:35.799222,155867002,0,0.22,0.02,0.08,0.08,0,0.01066156,0.08909588,0.02049057,0,48,107327,0,0
15040,2023-01-20 10:50:35.899178,155966999,0,0.18,0.02,0.08,0.05,0,0.01061028,0.08909588,0.02049057,0,48,107327,0,0
15073,2023-01-20 10:50:35.999136,156066998,0,0.18,0.02,0.09,0.04,0,0.01072262,0.08909588,0.02049057,0,48,107327,0,0
15103,2023-01-20 10:50:36.099195,156167000,0,0.28,0.02,0.09,0.02,0,0.01066177,0.08909588,0.02049057,0,48,107327,0,0
15138,2023-01-20 10:50:36.199253,156266999,0,0.28,0.02,0.08,0.08,0,0.01074964,0.08909588,0.02049057,0,48,107327,0,0
15168,2023-01-20 10:50:36.299216,156367010,0,0.24,0.02,0.1,0.06,0,0.01068459,0.08909588,0.02049057,0,48,107327,0,0
15201,2023-01-20 10:50:36.399158,156467000,0,0.24,0.02,0.1,0.09,0,0.01083317,0.08909588,0.02049057,0,48,107327,0,0
15233,2023-01-20 10:50:36.499228,156567015,0,0.19,0.02,0.09,0.1,0,0.01077574,0.08909588,0.02049057,0,48,107327,0,0
15266,2023-01-20 10:50:36.599272,156667003,0,0.19,0.02,0.09,0.05,0,0.01091129,0.08909588,0.02049057,0,48,107327,0,0
15299,2023-01-20 10:50:36.699269,156766995,0,0.11,0.02,0.11,0.07,0,0.01084515,0.08909588,0.02049057,0,48,107327,0,0
15332,2023-01-20 10:50:36.799283,156867005,0,0.11,0.02,0.11,0.09,0,0.0109665,0.08909588,0.02049057,0,48,107327,0,0
15363,2023-01-20 10:50:36.899200,156967014,0,0.1,0.02,0.11,0.05,0,0.01093773,0.08909588,0.02049057,0,48,107327,0,0
15396,2023-01-20 10:50:36.999097,157067004,0,0.1,0.02,0.1,0.15,0,0.01104563,0.08909588,0.02049057,0,48,107327,0,0
15426,2023-01-20 10:50:37.099170,157166999,0,0.12,0.02,0.08,0.07,0,0.01092216,0.08909588,0.02049057,0,48,107327,0,0
15461,2023-01-20 10:50:37.199260,157267008,0,0.12,0.02,0.1,0.1,0,0.01098424,0.08909588,0.02049057,0,48,107327,0,0
15491,2023-01-20 10:50:37.299253,157366998,0,0.13,0.02,0.12,0.08,0,0.01085217,0.08909588,0.02049057,0,48,107327,0,0
15524,2023-01-20 10:50:37.399272,157467015,0,0.13,0.02,0.11,0.07,0,0.01092298,0.08909588,0.02049057,0,48,107327,0,0
15556,2023-01-20 10:50:37.499281,157567009,0,0.06,0.01,0.13,0.04,0,0.01081672,0.08909588,0.02049057,0,48,107327,0,0
15589,2023-01-20 10:50:37.599283,157666995,0,0.06,0.01,0.13,0.07,0,0.01089582,0.08909588,0.02049057,0,48,107327,0,0
15622,2023-01-20 10:50:37.699278,157767005,0,0.11,0.01,0.13,0.1,0,0.01082639,0.08909588,0.02049057,0,48,107327,0,0
15655,2023-01-20 10:50:37.799283,157867025,0,0.11,0.01,0.13,0.14,0,0.01095469,0.08909588,0.02049057,0,48,107327,0,0
15687,2023-01-20 10:50:37.899210,157966995,0,0.19,0.02,0.14,0.09,0,0.01090729,0.08909588,0.02049057,0,48,107327,0,0
15720,2023-01-20 10:50:37.999179,158067007,0,0.19,0.02,0.14,0.13,0,0.01106588,0.08909588,0.02049057,0,48,107327,0,0
15750,2023-01-20 10:50:38.090253,158166998,0,0.21,0.02,0.14,0.12,0,0.01102353,0.08909588,0.02049057,0,48,107327,0,0
15783,2023-01-20 10:50:38.181271,158267009,0,0.21,0.02,0.15,0.07,0,0.01125769,0.08909588,0.02049057,0,48,107327,0,0
15815,2023-01-20 10:50:38.279411,158366998,0,0.21,0.02,0.14,0.1,0,0.01115075,0.08909588,0.02049057,0,48,107327,0,0
15846,2023-01-20 10:50:38.379427,158467012,0,0.21,0.02,0.14,0.2,0,0.01120017,0.08909588,0.02049057,0,48,107327,0,0
15881,2023-01-20 10:50:38.479405,158567015,0,0.15,0.01,0.14,0.12,0,0.01104712,0.08909588,0.02049057,0,48,107327,0,0
15913,2023-01-20 10:50:38.579366,158667008,0,0.15,0.01,0.15,0.04,0,0.01118634,0.08909588,0.02049057,0,48,107327,0,0
15948,2023-01-20 10:50:38.679347,158766999,0,0.12,0.01,0.16,0.18,0,0.01098602,0.08909588,0.02049057,0,48,107327,0,0
15979,2023-01-20 10:50:38.779363,158867020,0,0.12,0.01,0.15,0.12,0,0.01106295,0.08909588,0.02049057,0,48,107327,0,0
16014,2023-01-20 10:50:38.888057,158967001,0,0.09,0.01,0.15,0.13,0,0.01094639,0.08909588,0.02049057,0,48,107327,0,0
16047,2023-01-20 10:50:38.999037,159066999,0,0.09,0.01,0.14,0.17,0,0.01097367,0.08909588,0.02049057,0,48,107327,0,0
16077,2023-01-20 10:50:39.090212,159166999,0,0.09,0.01,0.15,0.12,0,0.01075303,0.08909588,0.02049057,0,48,107327,0,0
16111,2023-01-20 10:50:39.181221,159267007,0,0.09,0.01,0.14,0.18,0,0.0106653,0.08909588,0.02049057,0,48,107327,0,0
16143,2023-01-20 10:50:39.279324,159366995,0,0.07,0.01,0.15,0.13,0,0.01042698,0.08909588,0.02049057,0,48,107327,0,0
16174,2023-01-20 10:50:39.379302,159467008,0,0.07,0.01,0.16,0.13,0,0.01038154,0.08909588,0.02049057,0,48,107327,0,0
16208,2023-01-20 10:50:39.479268,159566995,0,0.09,0.01,0.17,0.07,0,0.01022425,0.08909588,0.02049057,0,48,107327,0,0
16239,2023-01-20 10:50:39.579274,159667017,0,0.09,0.01,0.18,0.14,0,0.01023091,0.08909588,0.02049057,0,48,107327,0,0
16274,2023-01-20 10:50:39.679230,159767022,0,0.11,0.01,0.18,0.14,0,0.009997409,0.08909588,0.02049057,0,48,107327,0,0
16305,2023-01-20 10:50:39.779173,159867023,0,0.11,0.01,0.17,0.14,0,0.01002116,0.08909588,0.02049057,0,48,107327,0,0
16339,2023-01-20 10:50:39.879137,159966995,0,0.15,0,0.19,0.09,0,0.00992295,0.08909588,0.02049057,0,48,107327,0,0
16370,2023-01-20 10:50:39.979149,160067002,0,0.15,0,0.16,0.07,0,0.009999415,0.08909588,0.02049057,0,48,107327,0,0
16402,2023-01-20 10:50:40.079200,160167008,0,0.08,0,0.17,0.07,0,0.009850963,0.08909588,0.02049057,0,48,107327,0,0
16436,2023-01-20 10:50:40.179258,160267011,0,0.08,0,0.17,0.03,0,0.009849652,0.08909588,0.02049057,0,48,107327,0,0
16468,2023-01-20 10:50:40.279218,160367001,0,0.09,0,0.18,0.03,0,0.009665358,0.08909588,0.02049057,0,48,107327,0,0
16499,2023-01-20 10:50:40.379174,160467008,0,0.09,0,0.18,0.09,0,0.009653778,0.08909588,0.02049057,0,48,107327,0,0
16533,2023-01-20 10:50:40.479160,160566995,0,0.03,0,0.17,0.11,0,0.009522857,0.08909588,0.02049057,0,48,107327,0,0
16565,2023-01-20 10:50:40.579205,160667027,0,0.03,0,0.15,0.03,0,0.009595134,0.08909588,0.02049057,0,48,107327,0,0
16600,2023-01-20 10:50:40.679203,160767008,0,0.13,0,0.16,0.08,0,0.009464759,0.08909588,0.02049057,0,48,107327,0,0
16631,2023-01-20 10:50:40.779212,160866999,0,0.13,0,0.15,0.12,0,0.009490327,0.08909588,0.02049057,0,48,107327,0,0
16665,2023-01-20 10:50:40.879178,160966995,0,0.22,0,0.15,0.12,0,0.009384395,0.08909588,0.02049057,0,48,107327,0,0
16696,2023-01-20 10:50:40.979155,161067015,0,0.22,0,0.15,0.2,0,0.009469496,0.08909588,0.02049057,0,48,107327,0,0
16728,2023-01-20 10:50:41.079172,161166995,0,0.25,0,0.16,0.11,0,0.009396497,0.08909588,0.02049057,0,48,107327,0,0
16762,2023-01-20 10:50:41.179231,161266995,0,0.25,0,0.14,0.15,0,0.009489967,0.08909588,0.02049057,0,48,107327,0,0
16794,2023-01-20 10:50:41.279279,161367026,0,0.09,0,0.14,0.12,0,0.00944913,0.08909588,0.02049057,0,48,107327,0,0
16825,2023-01-20 10:50:41.379275,161467015,0,0.09,0,0.12,0.1,0,0.009545372,0.08909588,0.02049057,0,48,107327,0,0
16859,2023-01-20 10:50:41.479223,161566995,0,0.07,0,0.14,0.07,0,0.009463814,0.08909588,0.02049057,0,48,107327,0,0
16891,2023-01-20 10:50:41.579227,161667041,0,0.07,0,0.14,0.13,0,0.009509971,0.08909588,0.02049057,0,48,107327,0,0
16926,2023-01-20 10:50:41.679212,161767004,0,0.07,0,0.15,0.17,0,0.00941205,0.08909588,0.02049057,0,48,107327,0,0
16957,2023-01-20 10:50:41.779246,161866998,0,0.07,0,0.13,0.25,0,0.009490988,0.08909588,0.02049057,0,48,107327,0,0
16991,2023-01-20 10:50:41.879214,161966999,0,0.08,0,0.12,0.12,0,0.00943239,0.08909588,0.02049057,0,48,107327,0,0
17022,2023-01-20 10:50:41.979162,162066999,0,0.08,0,0.12,0.12,0,0.009497179,0.08909588,0.02049057,0,48,107327,0,0
17054,2023-01-20 10:50:42.079186,162166995,0,0.09,0,0.12,0.14,0,0.009419434,0.08909588,0.02049057,0,48,107327,0,0
17088,2023-01-20 10:50:42.179251,162267011,0,0.09,0,0.11,0.19,0,0.009478754,0.08909588,0.02049057,0,48,107327,0,0
17120,2023-01-20 10:50:42.279223,162367011,0,0.19,0,0.14,0.2,0,0.009417519,0.08909588,0.02049057,0,48,107327,0,0
17151,2023-01-20 10:50:42.379158,162466995,0,0.19,0,0.13,0.16,0,0.00947327,0.08909588,0.02049057,0,48,107327,0,0
17185,2023-01-20 10:50:42.479172,162567007,0,0.19,0,0.13,0.19,0,0.009409958,0.08909588,0.02049057,0,48,107327,0,0
17217,2023-01-20 10:50:42.579208,162667029,0,0.19,0,0.12,0.22,0,0.0094923,0.08909588,0.02049057,0,48,107327,0,0
17252,2023-01-20 10:50:42.679179,162766999,0,0.14,0,0.13,0.18,0,0.009403776,0.08909588,0.02049057,0,48,107327,0,0
17283,2023-01-20 10:50:42.779176,162866998,0,0.14,0,0.14,0.14,0,0.009431328,0.08909588,0.02049057,0,48,107327,0,0
17317,2023-01-20 10:50:42.879147,162967000,0,0.31,0,0.15,0.15,0,0.009344751,0.08909588,0.02049057,0,48,107327,0,0
17348,2023-01-20 10:50:42.979109,163066999,0,0.31,0,0.13,0.16,0,0.009388919,0.08909588,0.02049057,0,48,107327,0,0
17380,2023-01-20 10:50:43.079159,163166995,0,0.32,0,0.12,0.2,0,0.009309475,0.08909588,0.02049057,0,48,107327,0,0
17414,2023-01-20 10:50:43.179242,163267000,0,0.32,0,0.11,0.16,0,0.009361148,0.08909588,0.02049057,0,48,107327,0,0
17446,2023-01-20 10:50:43.279275,163367017,0,0.19,0,0.11,0.17,0,0.009248096,0.08909588,0.02049057,0,48,107327,0,0
17477,2023-01-20 10:50:43.379253,163466994,0,0.19,0,0.11,0.13,0,0.009321552,0.08909588,0.02049057,0,48,107327,0,0
17511,2023-01-20 10:50:43.479235,163567011,0,0.15,0,0.12,0.13,0,0.009278664,0.08909588,0.02049057,0,48,107327,0,0
17544,2023-01-20 10:50:43.579216,163667036,0,0.15,0,0.12,0.12,0,0.009344785,0.08909588,0.02049057,0,48,107327,0,0
17579,2023-01-20 10:50:43.679169,163766995,0,0.19,0,0.15,0.14,0,0.009286122,0.08909588,0.02049057,0,48,107327,0,0
17610,2023-01-20 10:50:43.779175,163866998,0,0.19,0,0.15,0.16,0,0.009343134,0.08909588,0.02049057,0,48,107327,0,0
17646,2023-01-20 10:50:43.879163,163966999,0,0.12,0,0.16,0.2,0,0.009254924,0.08909588,0.02049057,0,48,107327,0,0
17677,2023-01-20 10:50:43.979146,164066999,0,0.12,0,0.15,0.05,0,0.009365484,0.08909588,0.02049057,0,48,107327,0,0
17709,2023-01-20 10:50:44.079194,164167007,0,0.2,0,0.17,0.21,0,0.009292852,0.08909588,0.02049057,0,48,107327,0,0
17743,2023-01-20 10:50:44.179247,164267005,0,0.2,0,0.13,0.09,0,0.009340087,0.08909588,0.02049057,0,48,107327,0,0
17775,2023-01-20 10:50:44.279254,164367001,0,0.23,0,0.1,0.07,0,0.009246035,0.08909588,0.02049057,0,48,107327,0,0
17806,2023-01-20 10:50:44.379247,164466995,0,0.23,0,0.07,0.1,0,0.009368049,0.08909588,0.02049057,0,48,107327,0,0
17841,2023-01-20 10:50:44.479269,164567017,0,0.08,0,0.08,0.09,0,0.009431653,0.08909588,0.02049057,0,48,107327,0,0
17873,2023-01-20 10:50:44.579269,164667018,0,0.08,0,0.08,0.07,0,0.009596387,0.08909588,0.02049057,0,48,107327,0,0
17908,2023-01-20 10:50:44.679233,164766995,0,0.19,0,0.08,0.04,0,0.009462843,0.08909588,0.02049057,0,48,107327,0,0
17939,2023-01-20 10:50:44.779219,164866998,0,0.19,0,0.11,0.09,0,0.009449178,0.08909588,0.02049057,0,48,107327,0,0
17973,2023-01-20 10:50:44.879172,164966999,0,0.09,0,0.13,0.11,0,0.009364124,0.08909588,0.02049057,0,48,107327,0,0
18004,2023-01-20 10:50:44.979116,165067000,0,0.09,0,0.17,0.07,0,0.009518245,0.08909588,0.02049057,0,48,107327,0,0
18036,2023-01-20 10:50:45.079178,165167004,0,0.15,0,0.15,0.06,0,0.00949798,0.08909588,0.02049057,0,48,107327,0,0
18070,2023-01-20 10:50:45.179261,165266999,0,0.15,0,0.12,0.08,0,0.009611056,0.08909588,0.02049057,0,48,107327,0,0
18102,2023-01-20 10:50:45.279270,165367002,0,0.07,0,0.11,0.07,0,0.009513146,0.08909588,0.02049057,0,48,107327,0,0
18133,2023-01-20 10:50:45.379257,165467004,0,0.07,0,0.07,0.07,0,0.009498584,0.08909588,0.02049057,0,48,107327,0,0
18167,2023-01-20 10:50:45.479213,165566999,0,0.03,0.01,0.06,0.11,0,0.009457118,0.08909588,0.02049057,0,48,107327,0,0
18199,2023-01-20 10:50:45.579194,165667026,0,0.03,0.01,0.07,0.06,0,0.009430755,0.08909588,0.02049057,0,48,107327,0,0
18234,2023-01-20 10:50:45.679200,165767004,0,0.06,0.01,0.08,0.12,0,0.009286272,0.08909588,0.02049057,0,48,107327,0,0
18265,2023-01-20 10:50:45.779261,165867018,0,0.06,0.01,0.09,0.12,0,0.009258321,0.08909588,0.02049057,0,48,107327,0,0
18299,2023-01-20 10:50:45.879222,165967006,0,0.16,0.01,0.07,0.06,0,0.009132411,0.08909588,0.02049057,0,48,107327,0,0
18330,2023-01-20 10:50:45.979174,166067004,0,0.16,0.01,0.08,0.05,0,0.0091612,0.08909588,0.02049057,0,48,107327,0,0
18362,2023-01-20 10:50:46.079165,166166996,0,0.11,0.01,0.07,0.05,0,0.009033153,0.08909588,0.02049057,0,48,107327,0,0
18396,2023-01-20 10:50:46.179181,166266999,0,0.11,0.01,0.05,0.13,0,0.009051875,0.08909588,0.02049057,0,48,107327,0,0
18428,2023-01-20 10:50:46.279232,166367007,0,0.13,0.01,0.05,0.09,0,0.008971205,0.08909588,0.02049057,0,48,107327,0,0
18459,2023-01-20 10:50:46.379271,166466995,0,0.13,0.01,0.07,0.09,0,0.009081013,0.08909588,0.02049057,0,48,107327,0,0
18493,2023-01-20 10:50:46.479272,166566999,0,0.07,0.01,0.07,0.06,0,0.009022814,0.08909588,0.02049057,0,48,107327,0,0
18525,2023-01-20 10:50:46.579286,166667030,0,0.07,0.01,0.06,0.15,0,0.009059407,0.08909588,0.02049057,0,48,107327,0,0
18560,2023-01-20 10:50:46.679219,166766995,0,0.19,0.01,0.07,0.1,0,0.008943154,0.08909588,0.02049057,0,48,107327,0,0
18591,2023-01-20 10:50:46.779190,166867003,0,0.19,0.01,0.05,0.06,0,0.008970517,0.08909588,0.02049057,0,48,107327,0,0
18625,2023-01-20 10:50:46.872054,166967029,0,0.07,0.01,0.07,0.04,0,0.008924493,0.08909588,0.02049057,0,48,107327,0,0
18656,2023-01-20 10:50:46.962998,167067002,0,0.07,0.01,0.07,0.08,0,0.009056517,0.08909588,0.02049057,0,48,107327,0,0
18688,2023-01-20 10:50:47.059345,167167001,0,0.18,0.02,0.03,0.02,0,0.00902292,0.08909588,0.02049057,0,48,107327,0,0
18722,2023-01-20 10:50:47.159389,167267008,0,0.18,0.02,0.01,0.08,0,0.009111647,0.08909588,0.02049057,0,48,107327,0,0
18754,2023-01-20 10:50:47.259395,167366997,0,0.14,0.02,0.03,0.05,0,0.009063766,0.08909588,0.02049057,0,48,107327,0,0
18785,2023-01-20 10:50:47.359400,167466999,0,0.14,0.02,0.01,0.06,0,0.009066554,0.08909588,0.02049057,0,48,107327,0,0
18818,2023-01-20 10:50:47.459409,167567008,0,0.13,0.02,0,0.08,0,0.008943395,0.08909588,0.02049057,0,48,107327,0,0
18850,2023-01-20 10:50:47.559395,167666997,0,0.13,0.02,0.04,0.13,0,0.008900328,0.08909588,0.02049057,0,48,107327,0,0
18885,2023-01-20 10:50:47.659409,167766999,0,0.04,0.02,0.05,0.19,0,0.008846126,0.08909588,0.02049057,0,48,107327,0,0
18916,2023-01-20 10:50:47.759433,167867002,0,0.04,0.02,0.05,0.05,0,0.008896927,0.08909588,0.02049057,0,48,107327,0,0
18950,2023-01-20 10:50:47.859432,167967016,0,0.11,0.01,0.02,0.03,0,0.008789834,0.08909588,0.02049057,0,48,107327,0,0
18981,2023-01-20 10:50:47.959370,168066994,0,0.11,0.01,0,0.05,0,0.00886639,0.08909588,0.02049057,0,48,107327,0,0
19013,2023-01-20 10:50:48.059368,168167008,0,0.31,0.02,0.01,0.02,0,0.00880413,0.08909588,0.02049057,0,48,107327,0,0
19047,2023-01-20 10:50:48.159359,168266999,0,0.31,0.02,0,0.03,0,0.00890225,0.08909588,0.02049057,0,48,107327,0,0
19079,2023-01-20 10:50:48.259341,168367001,0,0.23,0.02,0.01,0.03,0,0.008850059,0.08909588,0.02049057,0,48,107327,0,0
19110,2023-01-20 10:50:48.359307,168466999,0,0.23,0.02,0.02,0.11,0,0.008900817,0.08909588,0.02049057,0,48,107327,0,0
19144,2023-01-20 10:50:48.459285,168566999,0,0.09,0.01,0.03,0.17,0,0.008794816,0.08909588,0.02049057,0,48,107327,0,0
19176,2023-01-20 10:50:48.559275,168667002,0,0.09,0.01,0.02,0.06,0,0.008875876,0.08909588,0.02049057,0,48,107327,0,0
19212,2023-01-20 10:50:48.659267,168767019,0,0.4,0.01,0.04,0.16,0,0.00885314,0.08909588,0.02049057,0,48,107327,0,0
19243,2023-01-20 10:50:48.759220,168867006,0,0.4,0.01,0.03,0.08,0,0.008991243,0.08909588,0.02049057,0,48,107327,0,0
19279,2023-01-20 10:50:48.859167,168966995,0,0.47,0.01,0.05,0.13,0,0.009007415,0.08909588,0.02049057,0,48,107327,0,0
