LineNo,UTC_Approx,TimeUS,C,NI,FIX,FIY,AFI,HAGL,offset,RI,rng,Herr,eAng,eVel,ePos
370,2023-01-20 10:49:56.258497,116247435,0,0,0,0,0,1,0.16,0,0,0.5,0.0002190237,0.007878903,0.02005153
960,2023-01-20 10:49:56.349466,116347450,0,0,0,0,0,1,0.16,0,0,0.5,0.0001546164,0.004799361,0.01393988
1118,2023-01-20 10:49:56.451414,116453964,0,0,0,0,0,1.01,0.16,0,0,0.5,0.0001266019,0.005102446,0.01624628
1337,2023-01-20 10:49:56.564043,116565584,0,0,0,0,0,1.01,0.16,0,0,0.5,0.0001213141,0.002323099,0.01064385
1555,2023-01-20 10:49:56.664880,116666343,0,0,0,0,0,1.03,0.16,0,0,0.5,0.0001536673,0.007130187,0.02242218
1877,2023-01-20 10:49:56.764500,116766338,0,0,0,0,0,1.03,0.16,0,0,0.5,0.0001810005,0.004382622,0.01496973
1922,2023-01-20 10:49:56.864372,116866343,0,0,0,0,0,1.04,0.16,0,0,0.5,0.0002492807,0.01131103,0.02423455
1970,2023-01-20 10:49:56.964368,116966340,0,0,0,0,0,1.04,0.16,0,0,0.5,0.0001954608,0.006866478,0.01543614
2020,2023-01-20 10:49:57.064380,117066339,0,0,0,0,0,1.06,0.16,0,0,0.5,0.0002357902,0.01332778,0.02468339
2064,2023-01-20 10:49:57.164406,117166344,0,0,0,0,0,1.06,0.16,0,0,0.5,0.0001838514,0.007698552,0.01481566
2116,2023-01-20 10:49:57.271510,117266340,0,0,0,0,0,1.07,0.16,0,0,0.5,0.000281467,0.0195568,0.02613586
2175,2023-01-20 10:49:57.382565,117366367,0,0,0,0,0,1.07,0.16,0,0,0.5,0.0002227394,0.01210846,0.01660536
2231,2023-01-20 10:49:57.476613,117466341,0,0,0,0,0,1.09,0.16,0,0,0.5,0.0002260009,0.01638791,0.02290489
2290,2023-01-20 10:49:57.567525,117566339,0,0,0,0,0,1.09,0.16,0,0,0.5,0.000206027,0.009063818,0.01321963
2344,2023-01-20 10:49:57.664269,117666343,0,0,0,0,0,1.11,0.16,0,0,0.5,0.0002178047,0.01266214,0.01864621
2403,2023-01-20 10:49:57.764245,117766341,0,0,0,0,0,1.11,0.16,0,0,0.5,0.0001756887,0.006177397,0.008896746
2447,2023-01-20 10:49:57.864220,117866343,0,0,0,0,0,1.13,0.16,0,0,0.5,0.0001773226,0.007602692,0.01383658
2492,2023-01-20 10:49:57.964187,117966340,0,0,0,0,0,1.13,0.16,0,0,0.5,0.0001669818,0.003146046,0.005065269
2531,2023-01-20 10:49:58.064248,118066359,0,0,0,0,0,1.14,0.16,0,0,0.5,0.0001619758,0.001608028,0.006583859
2571,2023-01-20 10:49:58.164315,118166343,0,0,0,0,0,1.14,0.16,0,0,0.5,0.0001636529,0.001886958,0.005964048
2613,2023-01-20 10:49:58.264328,118266346,0,0,0,0,0,1.16,0.16,0,0,0.5,0.0001830774,0.008281732,0.01012123
2653,2023-01-20 10:49:58.364299,118366348,0,0,0,0,0,1.16,0.16,0,0,0.5,0.0001849004,0.003003039,0.002744919
2692,2023-01-20 10:49:58.464282,118466343,0,0,0,0,0,1.18,0.16,0,0,0.5,0.0002460667,0.01437917,0.02171707
2733,2023-01-20 10:49:58.564280,118566343,0,0,0,0,0,1.18,0.16,0,0,0.5,0.0002557047,0.01142385,0.01713045
2773,2023-01-20 10:49:58.664277,118666358,0,0,0,0,0,1.19,0.16,0,0,0.5,0.0002008092,0.006369933,0.008811475
2814,2023-01-20 10:49:58.764239,118766347,0,0,0,0,0,1.19,0.16,0,0,0.5,0.0001655428,0.003861512,0.007775297
2858,2023-01-20 10:49:58.864246,118866362,0,0,0,0,0,1.2,0.16,0,0,0.5,0.0001801717,0.01420409,0.02351841
2897,2023-01-20 10:49:58.964232,118966347,0,0,0,0,0,1.2,0.16,0,0,0.5,0.0001842408,0.01133657,0.02019022
2936,2023-01-20 10:49:59.064260,119066357,0,0,0,0,0,1.22,0.16,0,0,0.5,0.0001689809,0.01249419,0.02033769
2975,2023-01-20 10:49:59.164279,119166350,0,0,0,0,0,1.22,0.16,0,0,0.5,0.0001384805,0.008231185,0.01563899
3016,2023-01-20 10:49:59.264288,119266350,0,0,0,0,0,1.23,0.16,0,0,0.5,0.0001626514,0.01612066,0.01525745
3055,2023-01-20 10:49:59.364301,119366364,0,0,0,0,0,1.23,0.16,0,0,0.5,0.000176922,0.01107137,0.01468745
3095,2023-01-20 10:49:59.464283,119466350,0,0,0,0,0,1.24,0.16,0,0,0.5,0.0001488474,0.002654076,0.005636918
3136,2023-01-20 10:49:59.564294,119566365,0,0,0,0,0,1.24,0.16,0,0,0.5,0.0001504271,0.003773879,0.01192528
3175,2023-01-20 10:49:59.664291,119666375,0,0,0,0,0,1.25,0.16,0,0,0.5,0.0001951593,0.005736212,0.01263545
3216,2023-01-20 10:49:59.764251,119766353,0,0,0,0,0,1.25,0.16,0,0,0.5,0.0001571301,0.006405965,0.01475875
3255,2023-01-20 10:49:59.864240,119866352,0,0,0,0,0,1.25,0.16,0,0,0.5,5.357751E-05,0.02318799,0.03852371
3294,2023-01-20 10:49:59.964237,119966354,0,0,0,0,0,1.25,0.16,0,0,0.5,8.981802E-05,0.01670571,0.03162902
3333,2023-01-20 10:50:00.064254,120066356,0,0,0,0,0,1.25,0.16,0,0,0.5,0.0001152427,0.01327501,0.03105203
3373,2023-01-20 10:50:00.164280,120166355,0,0,0,0,0,1.24,0.16,0,0,0.5,0.0001449051,0.009463999,0.02670599
3414,2023-01-20 10:50:00.264293,120266363,0,0,0,0,0,1.24,0.16,0,0,0.5,0.0001971516,0.01825706,0.0371407
3453,2023-01-20 10:50:00.364270,120366348,0,0,0,0,0,1.24,0.16,0,0,0.5,0.0001456762,0.01338781,0.02938026
3493,2023-01-20 10:50:00.464283,120466359,0,0,0,0,0,1.24,0.16,0,0,0.5,9.813601E-05,0.01880274,0.03570694
3533,2023-01-20 10:50:00.564280,120566349,0,0,0,0,0,1.24,0.16,0,0,0.5,0.0001298043,0.01389789,0.02802609
3574,2023-01-20 10:50:00.664271,120666346,0,0,0,0,0,1.25,0.16,0,0,0.5,0.0001107751,0.0159334,0.03028926
3615,2023-01-20 10:50:00.764268,120766355,0,0,0,0,0,1.25,0.16,0,0,0.5,0.0001299567,0.01165705,0.0229633
3656,2023-01-20 10:50:00.864250,120866353,0,0,0,0,0,1.24,0.16,0,0,0.5,0.0001488241,0.02073661,0.04003089
3693,2023-01-20 10:50:00.964226,120966347,0,0,0,0,0,1.24,0.16,0,0,0.5,8.569095E-05,0.01382113,0.02853288
3725,2023-01-20 10:50:01.064251,121066375,0,0,0,0,0,1.25,0.16,0,0,0.5,9.585027E-05,0.01195494,0.02393311
3756,2023-01-20 10:50:01.164248,121166365,0,0,0,0,0,1.24,0.16,0,0,0.5,0.0001171484,0.0087682,0.01852109
3790,2023-01-20 10:50:01.264210,121266360,0,0,0,0,0,1.24,0.16,0,0,0.5,0.0001222287,0.002328505,0.008423458
3821,2023-01-20 10:50:01.364148,121366352,0,0,0,0,0,1.24,0.16,0,0,0.5,0.000171971,0.003678769,0.01174822
3853,2023-01-20 10:50:01.464163,121466353,0,0,0,0,0,1.25,0.16,0,0,0.5,0.0001951467,0.01102745,0.0152208
3886,2023-01-20 10:50:01.564214,121566352,0,0,0,0,0,1.25,0.16,0,0,0.5,0.0002565018,0.008272113,0.01592034
3919,2023-01-20 10:50:01.664229,121666348,0,0,0,0,0,1.27,0.16,0,0,0.5,0.0002490094,0.01038667,0.01696635
3952,2023-01-20 10:50:01.764239,121766356,0,0,0,0,0,1.26,0.16,0,0,0.5,0.0003466239,0.007416905,0.01222669
3985,2023-01-20 10:50:01.864187,121866351,0,0,0,0,0,1.27,0.16,0,0,0.5,0.0005186552,0.01094252,0.02212968
4017,2023-01-20 10:50:01.964107,121966347,0,0,0,0,0,1.27,0.16,0,0,0.5,0.0003446311,0.00686698,0.01222001
4049,2023-01-20 10:50:02.064130,122066355,0,0,0,0,0,1.26,0.16,0,0,0.5,0.0003095465,0.003293752,0.01230111
4080,2023-01-20 10:50:02.164194,122166353,0,0,0,0,0,1.28,0.16,0,0,0.5,0.0003757765,0.003924495,0.01415633
4114,2023-01-20 10:50:02.264211,122266347,0,0,0,0,0,1.32,0.16,0,0,0.5,0.000280155,0.0184855,0.03923208
4145,2023-01-20 10:50:02.364215,122366353,0,0,0,0,0,1.36,0.16,0,0,0.5,0.0002853849,0.01121958,0.02583517
4177,2023-01-20 10:50:02.463957,122466351,0,0,0,0,0,1.42,0.16,0,0,0.5,0.0004948443,0.003859242,0.01288714
4210,2023-01-20 10:50:02.563582,122566374,0,0,0,0,0,1.46,0.16,0,0,0.5,0.0004352107,0.001213722,0.004519736
4244,2023-01-20 10:50:02.663437,122666351,0,0,0,0,0,1.53,0.16,0,0,0.5,0.0003508267,0.01135292,0.02920836
4276,2023-01-20 10:50:02.763489,122766365,0,0,0,0,0,1.56,0.16,0,0,0.5,0.0003239544,0.008280287,0.02013266
4310,2023-01-20 10:50:02.863453,122866332,0,0,0,0,0,1.67,0.16,0,0,0.5,0.0002270567,0.02799856,0.0918119
4341,2023-01-20 10:50:02.963446,122966350,0,0,0,0,0,1.68,0.16,0,0,0.5,0.0001587648,0.01697723,0.05930736
4374,2023-01-20 10:50:03.063464,123066378,0,0,0,0,0,1.79,0.16,0,0,0.5,0.0003702406,0.05681038,0.1495015
4404,2023-01-20 10:50:03.163459,123166375,0,0,0,0,0,1.8,0.16,0,0,0.5,0.0004738284,0.03555729,0.09654409
4439,2023-01-20 10:50:03.263447,123266360,0,0,0,0,0,1.93,0.16,0,0,0.5,0.0004665376,0.06188788,0.178762
4469,2023-01-20 10:50:03.363447,123366355,0,0,0,0,0,1.9,0.16,0,0,0.5,0.0003492714,0.03484505,0.09307866
4502,2023-01-20 10:50:03.463467,123466364,0,0,0,0,0,1.92,0.16,0,0,0.5,0.0002369235,0.03484299,0.08816328
4534,2023-01-20 10:50:03.563463,123566347,0,0,0,0,0,1.91,0.16,0,0,0.5,0.0003879769,0.01747778,0.04146445
4568,2023-01-20 10:50:03.663474,123666355,0,0,0,0,0,1.92,0.16,0,0,0.5,0.0005008108,0.02153419,0.04949876
4600,2023-01-20 10:50:03.763479,123766364,0,0,0,0,0,1.91,0.16,0,0,0.5,0.0004126364,0.01322495,0.03658696
4634,2023-01-20 10:50:03.863665,123866353,0,0,0,0,0,1.95,0.16,0,0,0.5,0.0005049889,0.02555676,0.05181183
4666,2023-01-20 10:50:03.963980,123966357,0,0,0,0,0,1.97,0.16,0,0,0.5,0.0002708023,0.01951285,0.04481338
4699,2023-01-20 10:50:04.064140,124066362,0,0,0,0,0,2.04,0.16,0,0,0.5,0.0002996403,0.0340666,0.06939214
4729,2023-01-20 10:50:04.164192,124166346,0,0,0,0,0,2.08,0.16,0,0,0.5,0.0002937272,0.02654086,0.06043648
4764,2023-01-20 10:50:04.264233,124266366,0,0,0,0,0,2.14,0.16,0,0,0.5,0.0003367246,0.04033138,0.08794881
4794,2023-01-20 10:50:04.364227,124366364,0,0,0,0,0,2.2,0.16,0,0,0.5,0.0003336159,0.03009584,0.07219841
4827,2023-01-20 10:50:04.464185,124466350,0,0,0,0,0,2.26,0.16,0,0,0.5,0.0003813962,0.02675854,0.06372031
4860,2023-01-20 10:50:04.564144,124566349,0,0,0,0,0,2.31,0.16,0,0,0.5,0.000478562,0.02035838,0.05378885
4894,2023-01-20 10:50:04.664165,124666357,0,0,0,0,0,2.38,0.16,0,0,0.5,0.0005358157,0.03712254,0.08497106
4926,2023-01-20 10:50:04.764212,124766361,0,0,0,0,0,2.43,0.16,0,0,0.5,0.0004758543,0.02634108,0.06508813
4960,2023-01-20 10:50:04.864187,124866351,0,0,0,0,0,2.52,0.16,0,0,0.5,0.0003330484,0.03179071,0.07373783
4990,2023-01-20 10:50:04.964149,124966361,0,0,0,0,0,2.57,0.16,0,0,0.5,0.000378983,0.02198824,0.05508978
5023,2023-01-20 10:50:05.064161,125066359,0,0,0,0,0,2.64,0.16,0,0,0.5,0.0003144572,0.01047848,0.02768172
5053,2023-01-20 10:50:05.164199,125166348,0,0,0,0,0,2.7,0.16,0,0,0.5,0.0002094742,0.007170392,0.02060547
5088,2023-01-20 10:50:05.264224,125266359,0,0,0,0,0,2.78,0.16,0,0,0.5,0.0002061786,0.004585235,0.01549883
5118,2023-01-20 10:50:05.364216,125366356,0,0,0,0,0,2.84,0.16,0,0,0.5,0.000204141,0.002526229,0.01129526
5151,2023-01-20 10:50:05.464215,125466348,0,0,0,0,0,2.93,0.16,0,0,0.5,0.0003833517,0.012043,0.032873
5183,2023-01-20 10:50:05.564249,125566368,0,0,0,0,0,3,0.16,0,0,0.5,0.000479474,0.006839606,0.02084635
5218,2023-01-20 10:50:05.664237,125666350,0,0,0,0,0,3.08,0.16,0,0,0.5,0.0003006243,0.0115405,0.028368
5250,2023-01-20 10:50:05.764243,125766353,0,0,0,0,0,3.15,0.16,0,0,0.5,0.0001649205,0.007171957,0.01822385
5284,2023-01-20 10:50:05.858431,125866372,0,0,0,0,0,3.21,0.16,0,0,0.5,0.0003683606,0.008022536,0.02106763
5314,2023-01-20 10:50:05.949344,125966358,0,0,0,0,0,3.27,0.16,0,0,0.5,0.0003930441,0.005687395,0.01425612
5347,2023-01-20 10:50:06.044301,126066355,0,0,0,0,0,3.35,0.16,0,0,0.5,0.0003903494,0.01323712,0.03474437
5377,2023-01-20 10:50:06.144339,126166357,0,0,0,0,0,3.41,0.16,0,0,0.5,0.0003018698,0.008506366,0.02838601
5412,2023-01-20 10:50:06.243805,126266351,0,0,0,0,0,3.48,0.16,0,0,0.5,0.0003534181,0.02022355,0.05194493
5444,2023-01-20 10:50:06.342574,126366355,0,0,0,0,0,3.53,0.16,0,0,0.5,0.0002452555,0.009211152,0.04127096
5477,2023-01-20 10:50:06.441850,126466354,0,0,0,0,0,3.6,0.16,0,0,0.5,0.02420206,0.02717892,0.07415095
5509,2023-01-20 10:50:06.541842,126566358,0,0,0,0,0,3.66,0.16,0,0,0.5,0.003925544,0.01897248,0.05976438
5543,2023-01-20 10:50:06.641816,126666366,0,0,0,0,0,3.73,0.16,0,0,0.5,0.006846638,0.01703098,0.0635613
5575,2023-01-20 10:50:06.741744,126766358,0,0,0,0,0,3.78,0.16,0,0,0.5,0.01302635,0.01111273,0.05444393
5609,2023-01-20 10:50:06.841663,126866352,0,0,0,0,0,3.83,0.16,0,0,0.5,0.01206923,0.01862229,0.06742485
5639,2023-01-20 10:50:06.941588,126966367,0,0,0,0,0,3.87,0.16,0,0,0.5,0.006867337,0.01353371,0.05417887
5672,2023-01-20 10:50:07.041525,127066363,0,0,0,0,0,3.92,0.16,0,0,0.5,0.00411254,0.01380426,0.06157416
5702,2023-01-20 10:50:07.141493,127166349,0,0,0,0,0,3.95,0.16,0,0,0.5,0.001114269,0.01019198,0.0505198
5737,2023-01-20 10:50:07.241509,127266350,0,0,0,0,0,4.01,0.16,0,0,0.5,0.002562156,0.0303556,0.08132216
5767,2023-01-20 10:50:07.341577,127366355,0,0,0,0,0,4.03,0.16,0,0,0.5,0.001484622,0.02153452,0.06771988
5800,2023-01-20 10:50:07.441568,127466345,0,0,0,0,0,4.06,0.16,0,0,0.5,0.001249109,0.02462751,0.07355051
5832,2023-01-20 10:50:07.541490,127566353,0,0,0,0,0,4.07,0.16,0,0,0.5,0.002598243,0.01555004,0.05561329
5866,2023-01-20 10:50:07.646106,127666349,0,0,0,0,0,4.1,0.16,0,0,0.5,0.003044697,0.02788035,0.06753831
5898,2023-01-20 10:50:07.757380,127766350,0,0,0,0,0,4.1,0.16,0,0,0.5,0.001168121,0.01799643,0.04865037
5932,2023-01-20 10:50:07.856015,127866352,0,0,0,0,0,4.11,0.16,0,0,0.5,0.004675305,0.03588533,0.06445553
5963,2023-01-20 10:50:07.946816,127966367,0,0,0,0,0,4.11,0.16,0,0,0.5,0.003713056,0.02384982,0.04828127
5997,2023-01-20 10:50:08.041395,128066351,0,0,0,0,0,4.13,0.16,0,0,0.5,0.002080942,0.02695345,0.06008013
6027,2023-01-20 10:50:08.141378,128166352,0,0,0,0,0,4.13,0.16,0,0,0.5,0.001204447,0.01770789,0.04429715
6062,2023-01-20 10:50:08.241381,128266349,0,0,0,0,0,4.16,0.16,0,0,0.5,0.002530913,0.01973332,0.05363546
6092,2023-01-20 10:50:08.341429,128366354,0,0,0,0,0,4.16,0.16,0,0,0.5,0.002523937,0.01290891,0.03956354
6125,2023-01-20 10:50:08.441443,128466347,0,0,0,0,0,4.18,0.16,0,0,0.5,0.002521387,0.02333787,0.04415085
6157,2023-01-20 10:50:08.541451,128566361,0,0,0,0,0,4.18,0.16,0,0,0.5,0.003128718,0.01429898,0.02773331
6191,2023-01-20 10:50:08.641444,128666362,0,0,0,0,0,4.21,0.16,0,0,0.5,0.004139289,0.061065,0.07810845
6223,2023-01-20 10:50:08.741436,128766362,0,0,0,0,0,4.22,0.16,0,0,0.5,0.003238423,0.04053161,0.05536538
6257,2023-01-20 10:50:08.841466,128866356,0,0,0,0,0,4.26,0.16,0,0,0.5,0.003907569,0.08859577,0.1121566
6290,2023-01-20 10:50:08.941560,128966352,0,0,0,0,0,4.28,0.16,0,0,0.5,0.004124419,0.05818567,0.080306
6323,2023-01-20 10:50:09.041633,129066352,0,0,0,0,0,4.32,0.16,0,0,0.5,0.002233691,0.04039132,0.06985044
6353,2023-01-20 10:50:09.141672,129166352,0,0,0,0,0,4.34,0.16,0,0,0.5,0.000326224,0.02407946,0.05064192
6388,2023-01-20 10:50:09.241616,129266349,0,0,0,0,0,4.38,0.16,0,0,0.5,0.001550497,0.0188648,0.0452773
6418,2023-01-20 10:50:09.341455,129366368,0,0,0,0,0,4.4,0.16,0,0,0.5,0.0005781373,0.01540136,0.03918481
6451,2023-01-20 10:50:09.441128,129466653,0,0,0,0,0,4.45,0.16,0,0,0.5,0.000880669,0.01770741,0.04501702
6483,2023-01-20 10:50:09.539901,129566645,0,0,0,0,0,4.48,0.16,0,0,0.5,0.0008290735,0.0151378,0.03980623
6517,2023-01-20 10:50:09.639155,129666642,0,0,0,0,0,4.52,0.16,0,0,0.5,0.00505399,0.03238571,0.05973944
6549,2023-01-20 10:50:09.739153,129766641,0,0,0,0,0,4.54,0.16,0,0,0.5,0.00438319,0.01950259,0.04505281
6583,2023-01-20 10:50:09.839145,129866643,0,0,0,0,0,4.58,0.16,0,0,0.5,0.004528503,0.01903068,0.05244019
6614,2023-01-20 10:50:09.939125,129966645,0,0,0,0,0,4.6,0.16,0,0,0.5,0.003309416,0.01351844,0.04348347
6647,2023-01-20 10:50:10.039118,130066641,0,0,0,0,0,4.63,0.16,0,0,0.5,0.0007717795,0.01466473,0.05321288
6677,2023-01-20 10:50:10.139156,130166654,0,0,0,0,0,4.64,0.16,0,0,0.5,0.0007477705,0.008756204,0.04533529
6712,2023-01-20 10:50:10.239059,130266643,0,0,0,0,0,4.67,0.16,0,0,0.5,0.0003573902,0.01379042,0.05802015
6742,2023-01-20 10:50:10.338820,130366663,0,0,0,0,0,4.68,0.16,0,0,0.5,0.0005534991,0.01205713,0.0492377
6775,2023-01-20 10:50:10.438985,130466996,0,0,0,0,0,4.73,0.16,0,0,0.5,0.003124623,0.02753737,0.07817925
6807,2023-01-20 10:50:10.538961,130567000,0,0,0,0,0,4.73,0.16,0,0,0.5,0.002951649,0.01641585,0.05984167
6841,2023-01-20 10:50:10.638947,130667009,0,0,0,0,0,4.76,0.16,0,0,0.5,0.008143983,0.04384207,0.08982902
6873,2023-01-20 10:50:10.738916,130766996,0,0,0,0,0,4.76,0.16,0,0,0.5,0.006692476,0.0261963,0.06339172
6907,2023-01-20 10:50:10.838875,130867000,0,0,0,0,0,4.78,0.16,0,0,0.5,0.002360429,0.01700825,0.06151877
6937,2023-01-20 10:50:10.938795,130967009,0,0,0,0,0,4.77,0.16,0,0,0.5,0.00140661,0.01204035,0.04384345
6970,2023-01-20 10:50:11.038765,131067000,0,0,0,0,0,4.78,0.16,0,0,0.5,0.0008560475,0.03772567,0.07038363
7000,2023-01-20 10:50:11.138863,131167011,0,0,0,0,0,4.77,0.16,0,0,0.5,0.0006265198,0.02945298,0.05478995
7036,2023-01-20 10:50:11.238911,131267009,0,0,0,0,0,4.8,0.16,0,0,0.5,0.006317221,0.03803394,0.07369088
7066,2023-01-20 10:50:11.338917,131367022,0,0,0,0,0,4.8,0.16,0,0,0.5,0.005558985,0.0275942,0.06286147
7099,2023-01-20 10:50:11.438890,131466996,0,0,0,0,0,4.83,0.16,0,0,0.5,0.002341792,0.03221041,0.07733192
7130,2023-01-20 10:50:11.538900,131567001,0,0,0,0,0,4.83,0.16,0,0,0.5,0.003973194,0.02506266,0.05922607
7164,2023-01-20 10:50:11.638903,131667000,0,0,0,0,0,4.86,0.16,0,0,0.5,0.001707044,0.03750019,0.08512632
7196,2023-01-20 10:50:11.738897,131766995,0,0,0,0,0,4.86,0.16,0,0,0.5,0.000661687,0.02792129,0.06487352
7230,2023-01-20 10:50:11.838873,131867000,0,0,0,0,0,4.89,0.16,0,0,0.5,0.00199092,0.03355955,0.08172701
7260,2023-01-20 10:50:11.938798,131967000,0,0,0,0,0,4.89,0.16,0,0,0.5,0.001872988,0.02325906,0.05647857
7293,2023-01-20 10:50:12.038782,132066999,0,0,0,0,0,4.92,0.16,0,0,0.5,0.002317174,0.04212065,0.08747888
7323,2023-01-20 10:50:12.138860,132166996,0,0,0,0,0,4.91,0.16,0,0,0.5,0.001444946,0.02875024,0.06120983
7358,2023-01-20 10:50:12.238930,132267017,0,0,0,0,0,4.94,0.16,0,0,0.5,0.002283238,0.04105493,0.08705898
7388,2023-01-20 10:50:12.338937,132367028,0,0,0,0,0,4.93,0.16,0,0,0.5,0.001239869,0.02724822,0.06150657
7421,2023-01-20 10:50:12.438899,132466995,0,0,0,0,0,4.95,0.16,0,0,0.5,0.003479904,0.03088555,0.07342758
7453,2023-01-20 10:50:12.538897,132567000,0,0,0,0,0,4.93,0.16,0,0,0.5,0.003099542,0.01829796,0.04425153
7487,2023-01-20 10:50:12.638896,132667000,0,0,0,0,0,4.94,0.16,0,0,0.5,0.003017933,0.02416786,0.04821255
7519,2023-01-20 10:50:12.738907,132767000,0,0,0,0,0,4.91,0.16,0,0,0.5,0.003774563,0.01668847,0.02523384
7553,2023-01-20 10:50:12.838894,132867010,0,0,0,0,0,4.92,0.16,0,0,0.5,0.004825137,0.0194607,0.04186178
7583,2023-01-20 10:50:12.938811,132967000,0,0,0,0,0,4.9,0.16,0,0,0.5,0.005765966,0.01040592,0.02464077
7617,2023-01-20 10:50:13.038794,133066999,0,0,0,0,0,4.91,0.16,0,0,0.5,0.001164021,0.008911015,0.03295707
7647,2023-01-20 10:50:13.138870,133167001,0,0,0,0,0,4.88,0.16,0,0,0.5,0.0008823499,0.005041945,0.01649589
7682,2023-01-20 10:50:13.238913,133267000,0,0,0,0,0,4.9,0.16,0,0,0.5,0.006373542,0.03279883,0.06543276
7712,2023-01-20 10:50:13.338930,133367020,0,0,0,0,0,4.88,0.16,0,0,0.5,0.005714312,0.01832821,0.03842276
7745,2023-01-20 10:50:13.438904,133466996,0,0,0,0,0,4.9,0.16,0,0,0.5,0.0007413728,0.01611825,0.04568115
7777,2023-01-20 10:50:13.538909,133567000,0,0,0,0,0,4.89,0.16,0,0,0.5,0.001165942,0.00777321,0.02203153
7811,2023-01-20 10:50:13.638903,133666995,0,0,0,0,0,4.89,0.16,0,0,0.5,0.001247454,0.01297691,0.03728382
7843,2023-01-20 10:50:13.738905,133766998,0,0,0,0,0,4.85,0.16,0,0,0.5,0.001165089,0.004868545,0.01997358
7877,2023-01-20 10:50:13.838880,133867006,0,0,0,0,0,4.85,0.16,0,0,0.5,0.003993696,0.03106902,0.05208687
7909,2023-01-20 10:50:13.938794,133967003,0,0,0,0,0,4.81,0.16,0,0,0.5,0.003712874,0.02406001,0.05048813
7942,2023-01-20 10:50:14.038783,134067014,0,0,0,0,0,4.81,0.16,0,0,0.5,0.003407372,0.02463081,0.03981204
7972,2023-01-20 10:50:14.138845,134167003,0,0,0,0,0,4.77,0.16,0,0,0.5,0.001681695,0.01996551,0.05095891
8007,2023-01-20 10:50:14.238890,134267000,0,0,0,0,0,4.74,0.16,0,0,0.5,0.002241752,0.008389251,0.04318944
8037,2023-01-20 10:50:14.338900,134367002,0,0,0,0,0,4.71,0.16,0,0,0.5,0.002662206,0.01186261,0.04794824
8070,2023-01-20 10:50:14.438902,134467000,0,0,0,0,0,4.7,0.16,0,0,0.5,0.0008173513,0.005577606,0.02829316
8103,2023-01-20 10:50:14.538904,134567002,0,0,0,0,0,4.67,0.16,0,0,0.5,0.001107947,0.009402541,0.03363071
8137,2023-01-20 10:50:14.638898,134666996,0,0,0,0,0,4.67,0.16,0,0,0.5,0.005369585,0.02805033,0.04657186
8169,2023-01-20 10:50:14.738902,134767000,0,0,0,0,0,4.65,0.16,0,0,0.5,0.004689883,0.02188016,0.04132536
8203,2023-01-20 10:50:14.838871,134867002,0,0,0,0,0,4.66,0.16,0,0,0.5,0.0006611674,0.004158196,0.01642615
8233,2023-01-20 10:50:14.938800,134967015,0,0,0,0,0,4.64,0.16,0,0,0.5,0.0006791474,0.00532963,0.01433688
8266,2023-01-20 10:50:15.038758,135066999,0,0,0,0,0,4.66,0.16,0,0,0.5,0.001380292,0.01395181,0.02048364
8296,2023-01-20 10:50:15.138827,135167003,0,0,0,0,0,4.65,0.16,0,0,0.5,0.001533706,0.01067394,0.0171144
8331,2023-01-20 10:50:15.238872,135267000,0,0,0,0,0,4.67,0.16,0,0,0.5,0.001517671,0.01604897,0.02726054
8361,2023-01-20 10:50:15.338903,135367011,0,0,0,0,0,4.67,0.16,0,0,0.5,0.001017865,0.01146596,0.0198922
8394,2023-01-20 10:50:15.438903,135467000,0,0,0,0,0,4.69,0.16,0,0,0.5,0.0004456575,0.01058766,0.02299141
8426,2023-01-20 10:50:15.538903,135567003,0,0,0,0,0,4.69,0.16,0,0,0.5,0.0003381016,0.007047025,0.01388444
8460,2023-01-20 10:50:15.638904,135667005,0,0,0,0,0,4.71,0.16,0,0,0.5,0.0007112041,0.01218297,0.02484421
8492,2023-01-20 10:50:15.738904,135767003,0,0,0,0,0,4.7,0.16,0,0,0.5,0.0009558618,0.00867282,0.01605821
8526,2023-01-20 10:50:15.838910,135867019,0,0,0,0,0,4.72,0.16,0,0,0.5,0.001752188,0.02143994,0.04272067
8556,2023-01-20 10:50:15.938862,135967002,0,0,0,0,0,4.72,0.16,0,0,0.5,0.001079525,0.01490255,0.03088904
8589,2023-01-20 10:50:16.038868,136067015,0,0,0,0,0,4.73,0.16,0,0,0.5,0.001928215,0.03256838,0.07139041
8619,2023-01-20 10:50:16.138900,136167016,0,0,0,0,0,4.72,0.16,0,0,0.5,0.0007376359,0.02295506,0.05189823
8654,2023-01-20 10:50:16.238878,136266996,0,0,0,0,0,4.71,0.16,0,0,0.5,0.001552155,0.04503451,0.1037777
8684,2023-01-20 10:50:16.338825,136366998,0,0,0,0,0,4.7,0.16,0,0,0.5,0.001314781,0.03123389,0.07585959
8717,2023-01-20 10:50:16.438816,136466999,0,0,0,0,0,4.67,0.16,0,0,0.5,0.00180961,0.02808755,0.07087804
8749,2023-01-20 10:50:16.538872,136566998,0,0,0,0,0,4.66,0.16,0,0,0.5,0.001899898,0.01964349,0.05256031
8783,2023-01-20 10:50:16.638904,136666995,0,0,0,0,0,4.65,0.16,0,0,0.5,0.001647734,0.02340176,0.05888693
8815,2023-01-20 10:50:16.738914,136767007,0,0,0,0,0,4.64,0.16,0,0,0.5,0.001406929,0.01690027,0.04194093
8849,2023-01-20 10:50:16.838906,136867010,0,0,0,0,0,4.63,0.16,0,0,0.5,0.003146748,0.01909153,0.04600162
8879,2023-01-20 10:50:16.938875,136967003,0,0,0,0,0,4.62,0.16,0,0,0.5,0.0006079715,0.01270876,0.02916915
8912,2023-01-20 10:50:17.038871,137067002,0,0,0,0,0,4.62,0.16,0,0,0.5,0.001075495,0.01373353,0.02801299
8942,2023-01-20 10:50:17.138909,137167011,0,0,0,0,0,4.62,0.16,0,0,0.5,0.002914666,0.008788385,0.01561022
8977,2023-01-20 10:50:17.238929,137267017,0,0,0,0,0,4.63,0.16,0,0,0.5,0.006330282,0.01478446,0.02673113
9007,2023-01-20 10:50:17.338923,137367020,0,0,0,0,0,4.64,0.16,0,0,0.5,0.01007559,0.008568217,0.01477847
9040,2023-01-20 10:50:17.438910,137467008,0,0,0,0,0,4.65,0.16,0,0,0.5,0.00245947,0.01276613,0.02696574
9072,2023-01-20 10:50:17.538911,137566998,0,0,0,0,0,4.65,0.16,0,0,0.5,0.001626421,0.007295408,0.01839275
9106,2023-01-20 10:50:17.638915,137666995,0,0,0,0,0,4.66,0.16,0,0,0.5,0.003872849,0.01287073,0.02616517
9138,2023-01-20 10:50:17.738930,137767012,0,0,0,0,0,4.66,0.16,0,0,0.5,0.005339987,0.007534586,0.0165253
9172,2023-01-20 10:50:17.835450,137866999,0,0,0,0,0,4.67,0.16,0,0,0.5,0.00523678,0.01673777,0.02811313
9202,2023-01-20 10:50:17.926548,137967004,0,0,0,0,0,4.66,0.16,0,0,0.5,0.007548418,0.009995262,0.01931645
9235,2023-01-20 10:50:18.021482,138067027,0,0,0,0,0,4.67,0.16,0,0,0.5,0.005554499,0.02556581,0.04780896
9266,2023-01-20 10:50:18.132253,138167002,0,0,0,0,0,4.66,0.16,0,0,0.5,0.003350734,0.01563618,0.03488177
9301,2023-01-20 10:50:18.238871,138267001,0,0,0,0,0,4.68,0.16,0,0,0.5,0.003944259,0.02706482,0.04835324
9331,2023-01-20 10:50:18.338922,138367012,0,0,0,0,0,4.68,0.16,0,0,0.5,0.002803133,0.01614796,0.02974853
9364,2023-01-20 10:50:18.435470,138466999,0,0,0,0,0,4.71,0.16,0,0,0.5,0.003490925,0.0332563,0.0583777
9396,2023-01-20 10:50:18.526576,138567002,0,0,0,0,0,4.71,0.16,0,0,0.5,0.001272804,0.01891526,0.03300553
9430,2023-01-20 10:50:18.619396,138667000,0,0,0,0,0,4.73,0.16,0,0,0.5,0.002290513,0.03876014,0.06723804
9462,2023-01-20 10:50:18.719379,138767017,0,0,0,0,0,4.73,0.16,0,0,0.5,0.002274564,0.02231882,0.03793726
9496,2023-01-20 10:50:18.819326,138866998,0,0,0,0,0,4.74,0.16,0,0,0.5,0.001483993,0.03582668,0.06007433
9528,2023-01-20 10:50:18.919290,138966998,0,0,0,0,0,4.73,0.16,0,0,0.5,0.00102435,0.01949327,0.03130728
9561,2023-01-20 10:50:19.019273,139067003,0,0,0,0,0,4.73,0.16,0,0,0.5,0.001300731,0.02482626,0.03876112
9591,2023-01-20 10:50:19.119303,139166998,0,0,0,0,0,4.72,0.16,0,0,0.5,0.003362902,0.01268628,0.02046254
9626,2023-01-20 10:50:19.219324,139266995,0,0,0,0,0,4.73,0.16,0,0,0.5,0.003581095,0.02018205,0.03258637
9656,2023-01-20 10:50:19.319306,139367002,0,0,0,0,0,4.72,0.16,0,0,0.5,0.002546635,0.01058607,0.0200513
9689,2023-01-20 10:50:19.419272,139466999,0,0,0,0,0,4.72,0.16,0,0,0.5,0.001377148,0.01211198,0.0146357
9721,2023-01-20 10:50:19.519240,139567020,0,0,0,0,0,4.71,0.16,0,0,0.5,0.001493131,0.004439884,0.01120616
9755,2023-01-20 10:50:19.619174,139666998,0,0,0,0,0,4.7,0.16,0,0,0.5,0.00154817,0.03015543,0.04706196
9787,2023-01-20 10:50:19.719173,139766999,0,0,0,0,0,4.68,0.16,0,0,0.5,0.0009502394,0.01667498,0.03182783
9821,2023-01-20 10:50:19.819166,139866997,0,0,0,0,0,4.68,0.16,0,0,0.5,0.00152748,0.02490459,0.04058499
9851,2023-01-20 10:50:19.919157,139967005,0,0,0,0,0,4.65,0.16,0,0,0.5,0.001256297,0.01243655,0.03089982
9884,2023-01-20 10:50:20.019142,140067002,0,0,0,0,0,4.64,0.16,0,0,0.5,0.001192912,0.01404962,0.03523605
9914,2023-01-20 10:50:20.119149,140166999,0,0,0,0,0,4.61,0.16,0,0,0.5,0.0007199973,0.01025289,0.03796859
9949,2023-01-20 10:50:20.219164,140266994,0,0,0,0,0,4.6,0.16,0,0,0.5,0.0008330951,0.02440077,0.05205368
9982,2023-01-20 10:50:20.319240,140367006,0,0,0,0,0,4.57,0.16,0,0,0.5,0.001094064,0.01441098,0.0486593
10015,2023-01-20 10:50:20.419280,140466995,0,0,0,0,0,4.55,0.16,0,0,0.5,0.001881237,0.02069007,0.05587031
10047,2023-01-20 10:50:20.519280,140566999,0,0,0,0,0,4.53,0.16,0,0,0.5,0.001397574,0.01242607,0.05018166
10081,2023-01-20 10:50:20.619284,140667000,0,0,0,0,0,4.54,0.16,0,0,0.5,0.0005353736,0.01014446,0.03440532
10113,2023-01-20 10:50:20.719325,140767003,0,0,0,0,0,4.52,0.16,0,0,0.5,0.0006187939,0.007348037,0.03495473
10147,2023-01-20 10:50:20.819329,140866999,0,0,0,0,0,4.53,0.16,0,0,0.5,0.0005905189,0.0206643,0.03439327
10177,2023-01-20 10:50:20.919219,140967008,0,0,0,0,0,4.52,0.16,0,0,0.5,0.000526417,0.01641692,0.03582064
10210,2023-01-20 10:50:21.019128,141067002,0,0,0,0,0,4.53,0.16,0,0,0.5,0.000600632,0.00695796,0.02077936
10240,2023-01-20 10:50:21.119177,141166996,0,0,0,0,0,4.52,0.16,0,0,0.5,0.0004865519,0.007560207,0.02901271
10275,2023-01-20 10:50:21.219234,141267013,0,0,0,0,0,4.53,0.16,0,0,0.5,0.0007670233,0.01415573,0.0336347
10305,2023-01-20 10:50:21.319208,141367011,0,0,0,0,0,4.52,0.16,0,0,0.5,0.0005250352,0.009418451,0.03286724
10338,2023-01-20 10:50:21.419179,141466995,0,0,0,0,0,4.53,0.16,0,0,0.5,0.000805684,0.01968336,0.0413959
10370,2023-01-20 10:50:21.519221,141567001,0,0,0,0,0,4.53,0.16,0,0,0.5,0.000722285,0.01055475,0.03254195
10404,2023-01-20 10:50:21.619237,141667000,0,0,0,0,0,4.54,0.16,0,0,0.5,0.0007363255,0.01785773,0.03717111
10436,2023-01-20 10:50:21.719181,141767005,0,0,0,0,0,4.54,0.16,0,0,0.5,0.0006130973,0.006814416,0.02890356
10470,2023-01-20 10:50:21.819121,141866998,0,0,0,0,0,4.56,0.16,0,0,0.5,0.0009470453,0.007054753,0.0244176
10500,2023-01-20 10:50:21.919116,141967006,0,0,0,0,0,4.55,0.16,0,0,0.5,0.0008246592,0.006720188,0.0267978
10533,2023-01-20 10:50:22.019107,142066998,0,0,0,0,0,4.57,0.16,0,0,0.5,0.001339617,0.03533273,0.07111578
10563,2023-01-20 10:50:22.119158,142166999,0,0,0,0,0,4.57,0.16,0,0,0.5,0.001234919,0.02225981,0.04763736
10598,2023-01-20 10:50:22.219192,142266999,0,0,0,0,0,4.6,0.16,0,0,0.5,0.001513998,0.02478628,0.05319616
10628,2023-01-20 10:50:22.319180,142367022,0,0,0,0,0,4.6,0.16,0,0,0.5,0.0008715565,0.01867074,0.03932599
10661,2023-01-20 10:50:22.419134,142466995,0,0,0,0,0,4.62,0.16,0,0,0.5,0.0003812766,0.02599672,0.05342386
10693,2023-01-20 10:50:22.519187,142567002,0,0,0,0,0,4.62,0.16,0,0,0.5,0.000194767,0.02214861,0.0445594
10727,2023-01-20 10:50:22.619219,142666999,0,0,0,0,0,4.67,0.16,0,0,0.5,0.001127286,0.03098929,0.04279055
10759,2023-01-20 10:50:22.719202,142766999,0,0,0,0,0,4.68,0.16,0,0,0.5,0.00129124,0.02399666,0.03987458
10793,2023-01-20 10:50:22.819185,142867002,0,0,0,0,0,4.71,0.16,0,0,0.5,0.001393192,0.01855111,0.02583079
10823,2023-01-20 10:50:22.919154,142967003,0,0,0,0,0,4.71,0.16,0,0,0.5,0.001391245,0.01477601,0.02974737
10856,2023-01-20 10:50:23.019150,143067014,0,0,0,0,0,4.72,0.16,0,0,0.5,0.00114384,0.0211143,0.04210967
10886,2023-01-20 10:50:23.119206,143167019,0,0,0,0,0,4.73,0.16,0,0,0.5,0.0008088832,0.0146515,0.04028806
10922,2023-01-20 10:50:23.219222,143266999,0,0,0,0,0,4.74,0.16,0,0,0.5,0.0002750774,0.01099601,0.03642491
10952,2023-01-20 10:50:23.319196,143367002,0,0,0,0,0,4.76,0.16,0,0,0.5,0.0002276032,0.013383,0.03577709
10985,2023-01-20 10:50:23.419168,143466995,0,0,0,0,0,4.78,0.16,0,0,0.5,0.001157813,0.02430622,0.04982046
11017,2023-01-20 10:50:23.519189,143567002,0,0,0,0,0,4.81,0.16,0,0,0.5,0.001310726,0.0197679,0.03889617
11051,2023-01-20 10:50:23.619204,143667008,0,0,0,0,0,4.85,0.16,0,0,0.5,0.0006324682,0.01376556,0.0230229
11083,2023-01-20 10:50:23.719177,143766995,0,0,0,0,0,4.89,0.16,0,0,0.5,0.0007459612,0.01334564,0.02702802
11117,2023-01-20 10:50:23.819170,143867002,0,0,0,0,0,4.96,0.16,0,0,0.5,0.002451666,0.04904349,0.07507868
11150,2023-01-20 10:50:23.919178,143967027,0,0,0,0,0,5.02,0.16,0,0,0.5,0.001655173,0.03470127,0.06001145
11183,2023-01-20 10:50:24.019161,144067011,0,0,0,0,0,5.08,0.16,0,0,0.5,0.0005282802,0.01477015,0.0276722
11213,2023-01-20 10:50:24.119210,144166999,0,0,0,0,0,5.14,0.16,0,0,0.5,0.0005041563,0.007570212,0.01854742
11248,2023-01-20 10:50:24.219257,144267008,0,0,0,0,0,5.24,0.16,0,0,0.5,0.001832136,0.06205903,0.1059998
11278,2023-01-20 10:50:24.319185,144366998,0,0,0,0,0,5.3,0.16,0,0,0.5,0.001721256,0.04487624,0.08233555
11311,2023-01-20 10:50:24.419144,144466995,0,0,0,0,0,5.38,0.16,0,0,0.5,0.0003394957,0.02019352,0.0434991
11344,2023-01-20 10:50:24.519226,144567011,0,0,0,0,0,5.45,0.16,0,0,0.5,0.0002538527,0.01553236,0.03537195
11379,2023-01-20 10:50:24.619247,144666995,0,0,0,0,0,5.53,0.16,0,0,0.5,0.003673056,0.06426738,0.103818
11411,2023-01-20 10:50:24.719166,144766995,0,0,0,0,0,5.62,0.16,0,0,0.5,0.003593702,0.04746083,0.0796453
11445,2023-01-20 10:50:24.819116,144867011,0,0,0,0,0,5.72,0.16,0,0,0.5,0.001094314,0.02373759,0.06102791
11476,2023-01-20 10:50:24.919108,144967002,0,0,0,0,0,5.8,0.16,0,0,0.5,0.0001704519,0.01940301,0.04699103
11509,2023-01-20 10:50:25.019109,145066998,0,0,0,0,0,5.89,0.16,0,0,0.5,0.001293588,0.04076047,0.07790128
11539,2023-01-20 10:50:25.119153,145167012,0,0,0,0,0,5.95,0.16,0,0,0.5,0.001424233,0.02953295,0.05439697
11575,2023-01-20 10:50:25.219168,145267005,0,0,0,0,0,6.02,0.16,0,0,0.5,0.001249425,0.02708345,0.05327019
11605,2023-01-20 10:50:25.319158,145367001,0,0,0,0,0,6.05,0.16,0,0,0.5,0.0009563275,0.02037441,0.03981538
11638,2023-01-20 10:50:25.419162,145467007,0,0,0,0,0,6.11,0.16,0,0,0.5,0.00352419,0.1151947,0.2054694
11670,2023-01-20 10:50:25.519176,145567008,0,0,0,0,0,6.1,0.16,0,0,0.5,0.003092559,0.07695366,0.1538424
11704,2023-01-20 10:50:25.619174,145666997,0,0,0,0,0,6.06,0.16,0,0,0.5,0.001170852,0.04762287,0.1276157
11736,2023-01-20 10:50:25.719171,145767007,0,0,0,0,0,6.02,0.16,0,0,0.5,0.0003238496,0.03453994,0.1217422
11769,2023-01-20 10:50:25.819156,145867007,0,0,0,0,0,5.99,0.16,0,0,0.5,0.000859746,0.02869537,0.1160672
11801,2023-01-20 10:50:25.919123,145966998,0,0,0,0,0,5.95,0.16,0,0,0.5,0.0006186753,0.02310492,0.1043262
11834,2023-01-20 10:50:26.019112,146066999,0,0,0,0,0,5.91,0.16,0,0,0.5,0.0006307954,0.03021874,0.1027001
11864,2023-01-20 10:50:26.119153,146167002,0,0,0,0,0,5.87,0.16,0,0,0.5,0.0003119544,0.02213756,0.08845754
11899,2023-01-20 10:50:26.219173,146266999,0,0,0,0,0,5.83,0.16,0,0,0.5,0.0005469393,0.01710465,0.07662667
11929,2023-01-20 10:50:26.319138,146367000,0,0,0,0,0,5.81,0.16,0,0,0.5,0.0003935126,0.01424417,0.05604955
11962,2023-01-20 10:50:26.419113,146466998,0,0,0,0,0,5.79,0.16,0,0,0.5,0.0007563125,0.01585761,0.03930828
11994,2023-01-20 10:50:26.519163,146567018,0,0,0,0,0,5.77,0.16,0,0,0.5,0.0005586114,0.01342787,0.03376271
12028,2023-01-20 10:50:26.619179,146667011,0,0,0,0,0,5.74,0.16,0,0,0.5,0.001381202,0.03217789,0.06461649
12060,2023-01-20 10:50:26.719165,146767002,0,0,0,0,0,5.71,0.16,0,0,0.5,0.001332687,0.02358183,0.05511362
12093,2023-01-20 10:50:26.819160,146867006,0,0,0,0,0,5.68,0.16,0,0,0.5,0.001182453,0.02702174,0.06626463
12124,2023-01-20 10:50:26.919128,146966998,0,0,0,0,0,5.67,0.16,0,0,0.5,0.0003756795,0.01914635,0.06245249
12157,2023-01-20 10:50:27.019115,147067003,0,0,0,0,0,5.67,0.16,0,0,0.5,0.001593406,0.02110297,0.06554208
12187,2023-01-20 10:50:27.119123,147167002,0,0,0,0,0,5.69,0.16,0,0,0.5,0.001525483,0.02021576,0.07031886
12222,2023-01-20 10:50:27.219127,147266995,0,0,0,0,0,5.73,0.16,0,0,0.5,0.00213643,0.03777144,0.09007039
12252,2023-01-20 10:50:27.319146,147367000,0,0,0,0,0,5.79,0.16,0,0,0.5,0.001454926,0.02925425,0.08091988
12285,2023-01-20 10:50:27.417458,147467020,0,0,0,0,0,5.87,0.16,0,0,0.5,0.0008270671,0.02857374,0.08219628
12317,2023-01-20 10:50:27.508476,147567008,0,0,0,0,0,5.95,0.16,0,0,0.5,0.0002471664,0.02247093,0.07678011
12351,2023-01-20 10:50:27.599494,147666995,0,0,0,0,0,6.05,0.16,0,0,0.5,0.0006535492,0.02029922,0.07357514
12383,2023-01-20 10:50:27.699444,147767002,0,0,0,0,0,6.17,0.16,0,0,0.5,0.0006885389,0.01648041,0.06966355
12416,2023-01-20 10:50:27.799435,147867001,0,0,0,0,0,6.3,0.16,0,0,0.5,0.0002863459,0.01403622,0.064048
12448,2023-01-20 10:50:27.899368,147966998,0,0,0,0,0,6.44,0.16,0,0,0.5,0.0005913311,0.02503,0.0784254
12481,2023-01-20 10:50:27.999305,148066999,0,0,0,0,0,6.59,0.16,0,0,0.5,0.0003218888,0.01874276,0.07060807
12511,2023-01-20 10:50:28.099333,148167002,0,0,0,0,0,6.73,0.16,0,0,0.5,0.002154678,0.04409887,0.1079092
12546,2023-01-20 10:50:28.199356,148267000,0,0,0,0,0,6.9,0.16,0,0,0.5,0.001193026,0.03036295,0.0843348
12577,2023-01-20 10:50:28.299409,148367028,0,0,0,0,0,7.07,0.16,0,0,0.5,0.001190296,0.03235806,0.08583367
12610,2023-01-20 10:50:28.399425,148467019,0,0,0,0,0,7.25,0.16,0,0,0.5,0.0003371732,0.02087173,0.06286918
12642,2023-01-20 10:50:28.510302,148566998,0,0,0,0,0,7.44,0.16,0,0,0.5,0.001110177,0.03708645,0.0916262
12676,2023-01-20 10:50:28.617436,148666995,0,0,0,0,0,7.62,0.16,0,0,0.5,0.001229285,0.04400177,0.1070197
12708,2023-01-20 10:50:28.708443,148767002,0,0,0,0,0,7.8,0.16,0,0,0.5,0.0007500137,0.02667993,0.0735817
12741,2023-01-20 10:50:28.799439,148866998,0,0,0,0,0,7.98,0.16,0,0,0.5,8.808322E-05,0.01485386,0.0510893
12774,2023-01-20 10:50:28.899272,148966999,0,0,0,0,0,8.17,0.16,0,0,0.5,0.0001452707,0.00871416,0.04013445
12807,2023-01-20 10:50:28.999158,149066999,0,0,0,0,0,8.36,0.16,0,0,0.5,0.0001593136,0.007139043,0.03382093
12837,2023-01-20 10:50:29.099230,149167018,0,0,0,0,0,8.55,0.16,0,0,0.5,0.001066075,0.02211511,0.06265455
12873,2023-01-20 10:50:29.199267,149267001,0,0,0,0,0,8.73,0.16,0,0,0.5,0.0004936094,0.01105746,0.03956728
12903,2023-01-20 10:50:29.299217,149367015,0,0,0,0,0,8.93,0.16,0,0,0.5,0.0005557919,0.008358295,0.02596463
12936,2023-01-20 10:50:29.399160,149467023,0,0,0,0,0,9.11,0.16,0,0,0.5,0.0002919999,0.01114454,0.03219024
12968,2023-01-20 10:50:29.499153,149566998,0,0,0,0,0,9.3,0.16,0,0,0.5,0.0006620783,0.01106053,0.03060699
13002,2023-01-20 10:50:29.599173,149666998,0,0,0,0,0,9.49,0.16,0,0,0.5,0.0005433944,0.01187036,0.03175214
13034,2023-01-20 10:50:29.699169,149767003,0,0,0,0,0,9.69,0.16,0,0,0.5,0.0006734443,0.009985733,0.03287245
13067,2023-01-20 10:50:29.799155,149866998,0,0,0,0,0,9.88,0.16,0,0,0.5,0.0001591938,0.006925145,0.02451023
13098,2023-01-20 10:50:29.899134,149966999,0,0,0,0,0,10.09,0.16,0,0,0.5,0.0005762104,0.01281909,0.03806484
13131,2023-01-20 10:50:29.999113,150067001,0,0,0,0,0,10.27,0.16,0,0,0.5,0.0001144839,0.00527353,0.02139036
13161,2023-01-20 10:50:30.099144,150166998,0,0,0,0,0,10.48,0.16,0,0,0.5,0.0002356905,0.003553202,0.01056941
13196,2023-01-20 10:50:30.199175,150266995,0,0,0,0,0,10.67,0.16,0,0,0.5,0.0003667715,0.00750123,0.01586648
13226,2023-01-20 10:50:30.299201,150367020,0,0,0,0,0,10.87,0.16,0,0,0.5,0.0005350782,0.01981671,0.03902529
13259,2023-01-20 10:50:30.399197,150467015,0,0,0,0,0,11.06,0.16,0,0,0.5,0.0003524983,0.01708058,0.03893736
13291,2023-01-20 10:50:30.499176,150566999,0,0,0,0,0,11.26,0.16,0,0,0.5,0.0002922772,0.006154795,0.014446
13325,2023-01-20 10:50:30.599179,150667008,0,0,0,0,0,11.45,0.16,0,0,0.5,0.0002484619,0.006575925,0.01759293
13358,2023-01-20 10:50:30.699171,150767002,0,0,0,0,0,11.64,0.16,0,0,0.5,0.0008282666,0.02116876,0.05437895
13391,2023-01-20 10:50:30.799165,150866998,0,0,0,0,0,11.82,0.16,0,0,0.5,0.0004304671,0.01124986,0.02780371
13422,2023-01-20 10:50:30.899136,150967002,0,0,0,0,0,12.02,0.16,0,0,0.5,0.0002751817,0.01047992,0.03204306
13455,2023-01-20 10:50:30.999107,151067007,0,0,0,0,0,12.2,0.16,0,0,0.5,0.0002154817,0.004173072,0.01489616
13485,2023-01-20 10:50:31.099185,151166998,0,0,0,0,0,12.4,0.16,0,0,0.5,0.0003111959,0.01352079,0.0366171
13520,2023-01-20 10:50:31.199270,151266995,0,0,0,0,0,12.57,0.16,0,0,0.5,0.0003631185,0.0113086,0.03087083
13550,2023-01-20 10:50:31.299237,151367011,0,0,0,0,0,12.76,0.16,0,0,0.5,0.0004333981,0.01997941,0.05175371
13583,2023-01-20 10:50:31.399178,151467001,0,0,0,0,0,12.93,0.16,0,0,0.5,0.0002007739,0.01646715,0.04431551
13615,2023-01-20 10:50:31.499176,151567019,0,0,0,0,0,13.11,0.16,0,0,0.5,0.0005494363,0.02864198,0.07454284
13648,2023-01-20 10:50:31.599145,151667008,0,0,0,0,0,13.28,0.16,0,0,0.5,0.0003555424,0.02175235,0.06016697
13681,2023-01-20 10:50:31.699149,151766999,0,0,0,0,0,13.46,0.16,0,0,0.5,0.0002351115,0.009220719,0.03110675
13714,2023-01-20 10:50:31.799161,151866998,0,0,0,0,0,13.63,0.16,0,0,0.5,0.0002891321,0.007019922,0.02766464
13746,2023-01-20 10:50:31.899148,151967008,0,0,0,0,0,13.81,0.16,0,0,0.5,0.0005141378,0.004914511,0.01932711
13779,2023-01-20 10:50:31.999119,152067002,0,0,0,0,0,13.97,0.16,0,0,0.5,0.0007809157,0.003934226,0.01585523
13809,2023-01-20 10:50:32.099144,152167000,0,0,0,0,0,14.13,0.16,0,0,0.5,0.0008579979,0.005338314,0.02358384
13844,2023-01-20 10:50:32.199179,152267008,0,0,0,0,0,14.25,0.16,0,0,0.5,0.0009346497,0.004769031,0.01682387
13874,2023-01-20 10:50:32.299180,152367002,0,0,0,0,0,14.37,0.16,0,0,0.5,0.000920294,0.01346582,0.0346519
13907,2023-01-20 10:50:32.399195,152467011,0,0,0,0,0,14.46,0.16,0,0,0.5,0.0008654213,0.008259436,0.02273703
13939,2023-01-20 10:50:32.499164,152567005,0,0,0,0,0,14.54,0.16,0,0,0.5,0.000674793,0.01043602,0.04373394
13972,2023-01-20 10:50:32.599133,152666999,0,0,0,0,0,14.58,0.16,0,0,0.5,0.000623596,0.006727919,0.03361507
14005,2023-01-20 10:50:32.699142,152766995,0,0,0,0,0,14.63,0.16,0,0,0.5,0.0005091068,0.008962536,0.04043087
14038,2023-01-20 10:50:32.799167,152867006,0,0,0,0,0,14.66,0.16,0,0,0.5,0.0004228245,0.006979072,0.03467418
14069,2023-01-20 10:50:32.899139,152966999,0,0,0,0,0,14.69,0.16,0,0,0.5,0.0003030953,0.01449666,0.05371891
14102,2023-01-20 10:50:32.999121,153067002,0,0,0,0,0,14.7,0.16,0,0,0.5,0.0001843941,0.01053804,0.04355107
14132,2023-01-20 10:50:33.099151,153167004,0,0,0,0,0,14.73,0.16,0,0,0.5,0.0006534565,0.03700357,0.1087756
14167,2023-01-20 10:50:33.199174,153266999,0,0,0,0,0,14.73,0.16,0,0,0.5,0.0003639914,0.02625524,0.08115654
14197,2023-01-20 10:50:33.299181,153367002,0,0,0,0,0,14.74,0.16,0,0,0.5,0.0003989935,0.03206266,0.09743275
14231,2023-01-20 10:50:33.399187,153467004,0,0,0,0,0,14.73,0.16,0,0,0.5,0.0001214709,0.02180415,0.06989918
14264,2023-01-20 10:50:33.499185,153567006,0,0,0,0,0,14.73,0.16,0,0,0.5,0.000515399,0.03589567,0.1067226
14298,2023-01-20 10:50:33.599173,153666999,0,0,0,0,0,14.73,0.16,0,0,0.5,0.0002094463,0.02261972,0.07168281
14331,2023-01-20 10:50:33.699172,153767004,0,0,0,0,0,14.74,0.16,0,0,0.5,0.0007401809,0.04450667,0.1305791
14364,2023-01-20 10:50:33.799159,153866998,0,0,0,0,0,14.74,0.16,0,0,0.5,0.0002757722,0.0269588,0.0845189
14397,2023-01-20 10:50:33.899140,153967005,0,0,0,0,0,14.75,0.16,0,0,0.5,0.0008575517,0.04970142,0.1468574
14430,2023-01-20 10:50:33.999115,154067007,0,0,0,0,0,14.75,0.16,0,0,0.5,0.000326756,0.02928381,0.09247093
14460,2023-01-20 10:50:34.099117,154166995,0,0,0,0,0,14.76,0.16,0,0,0.5,0.001033017,0.05529434,0.1631958
14495,2023-01-20 10:50:34.199140,154267004,0,0,0,0,0,14.76,0.16,0,0,0.5,0.0004475486,0.03184699,0.09993577
14525,2023-01-20 10:50:34.299169,154367009,0,0,0,0,0,14.77,0.16,0,0,0.5,0.0008825046,0.04953685,0.1498931
14558,2023-01-20 10:50:34.399179,154466995,0,0,0,0,0,14.77,0.16,0,0,0.5,0.0003291133,0.02677756,0.08660859
14591,2023-01-20 10:50:34.499219,154566999,0,0,0,0,0,14.78,0.16,0,0,0.5,0.0008652988,0.04373971,0.1335882
14623,2023-01-20 10:50:34.599256,154666999,0,0,0,0,0,14.77,0.16,0,0,0.5,0.000311519,0.02131672,0.07133647
14657,2023-01-20 10:50:34.699203,154766995,0,0,0,0,0,14.78,0.16,0,0,0.5,0.0004859442,0.02620918,0.08603417
14690,2023-01-20 10:50:34.799161,154867002,0,0,0,0,0,14.77,0.16,0,0,0.5,0.0002487487,0.009642522,0.03659125
14723,2023-01-20 10:50:34.899132,154967006,0,0,0,0,0,14.77,0.16,0,0,0.5,0.0005771022,0.02079608,0.06819144
14756,2023-01-20 10:50:34.999091,155066998,0,0,0,0,0,14.76,0.16,0,0,0.5,0.0003399579,0.006331256,0.02275075
14786,2023-01-20 10:50:35.099185,155167007,0,0,0,0,0,14.76,0.16,0,0,0.5,0.0005428928,0.01530695,0.05092915
14821,2023-01-20 10:50:35.199262,155266999,0,0,0,0,0,14.76,0.16,0,0,0.5,0.0002525598,0.002743465,0.009552454
14851,2023-01-20 10:50:35.299260,155366998,0,0,0,0,0,14.76,0.16,0,0,0.5,0.0006722765,0.01708999,0.04503092
14884,2023-01-20 10:50:35.399254,155466995,0,0,0,0,0,14.76,0.16,0,0,0.5,0.0003706095,0.007698406,0.01482463
14916,2023-01-20 10:50:35.499281,155567021,0,0,0,0,0,14.76,0.16,0,0,0.5,0.0007559303,0.01622157,0.04262742
14949,2023-01-20 10:50:35.599270,155667009,0,0,0,0,0,14.76,0.16,0,0,0.5,0.0003467641,0.004994649,0.0120846
14982,2023-01-20 10:50:35.699236,155766995,0,0,0,0,0,14.78,0.16,0,0,0.5,0.0004994978,0.008018727,0.02606113
15015,2023-01-20 10:50:35.799222,155867002,0,0,0,0,0,14.78,0.16,0,0,0.5,0.0002456753,0.006937301,0.02135563
15046,2023-01-20 10:50:35.899178,155966999,0,0,0,0,0,14.8,0.16,0,0,0.5,0.0003355973,0.003829333,0.01992762
15079,2023-01-20 10:50:35.999136,156066998,0,0,0,0,0,14.81,0.16,0,0,0.5,6.87428E-05,0.01137011,0.03473125
15109,2023-01-20 10:50:36.099195,156167000,0,0,0,0,0,14.83,0.16,0,0,0.5,0.0009556827,0.01687295,0.05024032
15144,2023-01-20 10:50:36.199253,156266999,0,0,0,0,0,14.83,0.16,0,0,0.5,0.0004286626,0.005659845,0.02362664
15174,2023-01-20 10:50:36.299216,156367010,0,0,0,0,0,14.85,0.16,0,0,0.5,0.0009830056,0.02358515,0.06646112
15207,2023-01-20 10:50:36.399158,156467000,0,0,0,0,0,14.86,0.16,0,0,0.5,0.0003597872,0.005580834,0.02548272
15239,2023-01-20 10:50:36.499228,156567015,0,0,0,0,0,14.87,0.16,0,0,0.5,0.0007773931,0.02007285,0.05767145
15272,2023-01-20 10:50:36.599272,156667003,0,0,0,0,0,14.88,0.16,0,0,0.5,0.0003451995,0.003629694,0.01677338
15305,2023-01-20 10:50:36.699269,156766995,0,0,0,0,0,14.9,0.16,0,0,0.5,0.0004780177,0.009009781,0.03188273
15338,2023-01-20 10:50:36.799283,156867005,0,0,0,0,0,14.91,0.16,0,0,0.5,0.0001433501,0.008913321,0.03079453
15369,2023-01-20 10:50:36.899200,156967014,0,0,0,0,0,14.93,0.16,0,0,0.5,0.0004782197,0.009491723,0.02964937
15402,2023-01-20 10:50:36.999097,157067004,0,0,0,0,0,14.93,0.16,0,0,0.5,0.0004060428,0.01153139,0.03481833
15432,2023-01-20 10:50:37.099170,157166999,0,0,0,0,0,14.94,0.16,0,0,0.5,0.0008580177,0.01070753,0.02440818
15467,2023-01-20 10:50:37.199260,157267008,0,0,0,0,0,14.95,0.16,0,0,0.5,0.0003226709,0.009567333,0.02974924
15497,2023-01-20 10:50:37.299253,157366998,0,0,0,0,0,14.97,0.16,0,0,0.5,0.0006826985,0.01008154,0.02867036
15530,2023-01-20 10:50:37.399272,157467015,0,0,0,0,0,14.99,0.16,0,0,0.5,0.0002875376,0.008110343,0.03078827
15562,2023-01-20 10:50:37.499281,157567009,0,0,0,0,0,15.03,0.16,0,0,0.5,0.0006211819,0.003081132,0.02432297
15595,2023-01-20 10:50:37.599283,157666995,0,0,0,0,0,15.06,0.16,0,0,0.5,0.0003858044,0.01325053,0.04739064
15628,2023-01-20 10:50:37.699278,157767005,0,0,0,0,0,15.1,0.16,0,0,0.5,0.0005812127,0.01586682,0.04462215
15661,2023-01-20 10:50:37.799283,157867025,0,0,0,0,0,15.14,0.16,0,0,0.5,0.0003262178,0.02022854,0.06012909
15693,2023-01-20 10:50:37.899210,157966995,0,0,0,0,0,15.19,0.16,0,0,0.5,0.001577785,0.01978418,0.04948802
15726,2023-01-20 10:50:37.999179,158067007,0,0,0,0,0,15.22,0.16,0,0,0.5,0.0007225217,0.00816742,0.0386911
15756,2023-01-20 10:50:38.090253,158166998,0,0,0,0,0,15.27,0.16,0,0,0.5,0.002008914,0.03252491,0.07596965
15789,2023-01-20 10:50:38.181271,158267009,0,0,0,0,0,15.31,0.16,0,0,0.5,0.00097052,0.01090864,0.03749319
15821,2023-01-20 10:50:38.279411,158366998,0,0,0,0,0,15.35,0.16,0,0,0.5,0.002573536,0.04660223,0.1034929
15852,2023-01-20 10:50:38.379427,158467012,0,0,0,0,0,15.39,0.16,0,0,0.5,0.001596749,0.01997734,0.04722782
15887,2023-01-20 10:50:38.479405,158567015,0,0,0,0,0,15.43,0.16,0,0,0.5,0.002117661,0.0363782,0.07945387
15919,2023-01-20 10:50:38.579366,158667008,0,0,0,0,0,15.47,0.16,0,0,0.5,0.0008996218,0.01136257,0.03311922
15954,2023-01-20 10:50:38.679347,158766999,0,0,0,0,0,15.52,0.16,0,0,0.5,0.001429993,0.02157278,0.05166094
15985,2023-01-20 10:50:38.779363,158867020,0,0,0,0,0,15.57,0.16,0,0,0.5,0.0007583275,0.007510831,0.03499728
16020,2023-01-20 10:50:38.888057,158967001,0,0,0,0,0,15.62,0.16,0,0,0.5,0.0007064839,0.02074446,0.05042501
16053,2023-01-20 10:50:38.999037,159066999,0,0,0,0,0,15.67,0.16,0,0,0.5,0.0004497147,0.02442422,0.06594771
16083,2023-01-20 10:50:39.090212,159166999,0,0,0,0,0,15.71,0.16,0,0,0.5,0.0008827555,0.03446436,0.0810645
16117,2023-01-20 10:50:39.181221,159267007,0,0,0,0,0,15.76,0.16,0,0,0.5,0.0004280432,0.03406379,0.09132513
16149,2023-01-20 10:50:39.279324,159366995,0,0,0,0,0,15.81,0.16,0,0,0.5,0.0008915271,0.02238646,0.06373819
16180,2023-01-20 10:50:39.379302,159467008,0,0,0,0,0,15.87,0.16,0,0,0.5,0.000780248,0.02690446,0.08078828
16214,2023-01-20 10:50:39.479268,159566995,0,0,0,0,0,15.93,0.16,0,0,0.5,0.0008656174,0.03583018,0.09197617
16245,2023-01-20 10:50:39.579274,159667017,0,0,0,0,0,16,0.16,0,0,0.5,0.0008885462,0.03626363,0.0987435
16280,2023-01-20 10:50:39.679230,159767022,0,0,0,0,0,16.08,0.16,0,0,0.5,0.000953478,0.01543179,0.05747913
16311,2023-01-20 10:50:39.779173,159867023,0,0,0,0,0,16.15,0.16,0,0,0.5,0.000589623,0.02238505,0.07258976
16345,2023-01-20 10:50:39.879137,159966995,0,0,0,0,0,16.21,0.16,0,0,0.5,0.0004746867,0.03616915,0.09403023
16376,2023-01-20 10:50:39.979149,160067002,0,0,0,0,0,16.28,0.16,0,0,0.5,0.0003674808,0.03550617,0.09670824
16408,2023-01-20 10:50:40.079200,160167008,0,0,0,0,0,16.34,0.16,0,0,0.5,0.000524117,0.03451502,0.09074668
16442,2023-01-20 10:50:40.179258,160267011,0,0,0,0,0,16.41,0.16,0,0,0.5,0.0003745832,0.03262272,0.09183299
16474,2023-01-20 10:50:40.279218,160367001,0,0,0,0,0,16.47,0.16,0,0,0.5,0.0008315777,0.03786238,0.09911118
16505,2023-01-20 10:50:40.379174,160467008,0,0,0,0,0,16.54,0.16,0,0,0.5,0.0005839155,0.03449345,0.09557788
16539,2023-01-20 10:50:40.479160,160566995,0,0,0,0,0,16.61,0.16,0,0,0.5,0.0003063279,0.02738025,0.07909503
16571,2023-01-20 10:50:40.579205,160667027,0,0,0,0,0,16.67,0.16,0,0,0.5,0.0002980005,0.02761406,0.0797893
16606,2023-01-20 10:50:40.679203,160767008,0,0,0,0,0,16.74,0.16,0,0,0.5,0.00125144,0.003157524,0.02469632
16637,2023-01-20 10:50:40.779212,160866999,0,0,0,0,0,16.81,0.16,0,0,0.5,0.0006432257,0.01165773,0.04000773
16671,2023-01-20 10:50:40.879178,160966995,0,0,0,0,0,16.9,0.16,0,0,0.5,0.001738971,0.02451755,0.04542047
16702,2023-01-20 10:50:40.979155,161067015,0,0,0,0,0,16.97,0.16,0,0,0.5,0.0006269706,0.00749711,0.0159564
16734,2023-01-20 10:50:41.079172,161166995,0,0,0,0,0,17.06,0.16,0,0,0.5,0.001378354,0.03262737,0.07044619
16768,2023-01-20 10:50:41.179231,161266995,0,0,0,0,0,17.12,0.16,0,0,0.5,0.0005099521,0.01016817,0.02332221
16800,2023-01-20 10:50:41.279279,161367026,0,0,0,0,0,17.18,0.16,0,0,0.5,0.000531023,0.01002214,0.02145614
16831,2023-01-20 10:50:41.379275,161467015,0,0,0,0,0,17.24,0.16,0,0,0.5,0.0004301396,0.01380104,0.03174514
16865,2023-01-20 10:50:41.479223,161566995,0,0,0,0,0,17.29,0.16,0,0,0.5,0.0005465857,0.02262428,0.05160405
16897,2023-01-20 10:50:41.579227,161667041,0,0,0,0,0,17.35,0.16,0,0,0.5,0.0003638222,0.02499097,0.05943066
16932,2023-01-20 10:50:41.679212,161767004,0,0,0,0,0,17.4,0.16,0,0,0.5,0.0002847144,0.02511384,0.05978757
16963,2023-01-20 10:50:41.779246,161866998,0,0,0,0,0,17.46,0.16,0,0,0.5,0.0004763823,0.02872733,0.06808888
16997,2023-01-20 10:50:41.879214,161966999,0,0,0,0,0,17.51,0.16,0,0,0.5,8.110675E-05,0.02293085,0.05717631
17028,2023-01-20 10:50:41.979162,162066999,0,0,0,0,0,17.56,0.16,0,0,0.5,0.0001987565,0.0260965,0.06598362
17060,2023-01-20 10:50:42.079186,162166995,0,0,0,0,0,17.61,0.16,0,0,0.5,0.0004976664,0.03298876,0.08241629
17094,2023-01-20 10:50:42.179251,162267011,0,0,0,0,0,17.66,0.16,0,0,0.5,0.0005669183,0.03202734,0.0815161
17126,2023-01-20 10:50:42.279223,162367011,0,0,0,0,0,17.7,0.16,0,0,0.5,0.0006158703,0.0325987,0.08471944
17157,2023-01-20 10:50:42.379158,162466995,0,0,0,0,0,17.76,0.16,0,0,0.5,0.0006107678,0.02987515,0.07959516
17191,2023-01-20 10:50:42.479172,162567007,0,0,0,0,0,17.8,0.16,0,0,0.5,0.0009092995,0.05248423,0.1279242
17223,2023-01-20 10:50:42.579208,162667029,0,0,0,0,0,17.86,0.16,0,0,0.5,0.000818817,0.04335243,0.1085621
17258,2023-01-20 10:50:42.679179,162766999,0,0,0,0,0,17.9,0.16,0,0,0.5,0.0007846847,0.03582501,0.09423979
17289,2023-01-20 10:50:42.779176,162866998,0,0,0,0,0,17.96,0.16,0,0,0.5,0.0006208596,0.02946766,0.07913578
17323,2023-01-20 10:50:42.879147,162967000,0,0,0,0,0,17.99,0.16,0,0,0.5,0.0008407704,0.04475609,0.1144046
17354,2023-01-20 10:50:42.979109,163066999,0,0,0,0,0,18.05,0.16,0,0,0.5,0.000540266,0.03496274,0.09186506
17386,2023-01-20 10:50:43.079159,163166995,0,0,0,0,0,18.07,0.16,0,0,0.5,0.0005363593,0.03176065,0.09106249
17420,2023-01-20 10:50:43.179242,163267000,0,0,0,0,0,18.13,0.16,0,0,0.5,0.0007976197,0.02402052,0.07285014
17452,2023-01-20 10:50:43.279275,163367017,0,0,0,0,0,18.17,0.16,0,0,0.5,0.001072788,0.0199354,0.0672201
17483,2023-01-20 10:50:43.379253,163466994,0,0,0,0,0,18.24,0.16,0,0,0.5,0.0008821544,0.01477542,0.05411534
17517,2023-01-20 10:50:43.479235,163567011,0,0,0,0,0,18.29,0.16,0,0,0.5,0.0005558753,0.01335391,0.04826106
17550,2023-01-20 10:50:43.579216,163667036,0,0,0,0,0,18.35,0.16,0,0,0.5,0.0006338203,0.009410113,0.03650574
17585,2023-01-20 10:50:43.679169,163766995,0,0,0,0,0,18.41,0.16,0,0,0.5,0.0008844034,0.02857529,0.05916084
17616,2023-01-20 10:50:43.779175,163866998,0,0,0,0,0,18.49,0.16,0,0,0.5,0.0008801589,0.01802453,0.03740624
17652,2023-01-20 10:50:43.879163,163966999,0,0,0,0,0,18.55,0.16,0,0,0.5,0.0009500888,0.01387715,0.02689885
17683,2023-01-20 10:50:43.979146,164066999,0,0,0,0,0,18.64,0.16,0,0,0.5,0.0007292572,0.007942588,0.01831387
17715,2023-01-20 10:50:44.079194,164167007,0,0,0,0,0,18.75,0.16,0,0,0.5,0.001140682,0.03447627,0.07430178
17749,2023-01-20 10:50:44.179247,164267005,0,0,0,0,0,18.83,0.16,0,0,0.5,0.0008813594,0.01975595,0.04503391
17781,2023-01-20 10:50:44.279254,164367001,0,0,0,0,0,18.94,0.16,0,0,0.5,0.001343537,0.05024368,0.1088292
17812,2023-01-20 10:50:44.379247,164466995,0,0,0,0,0,19.02,0.16,0,0,0.5,0.0006891746,0.02890661,0.06493264
17847,2023-01-20 10:50:44.479269,164567017,0,0,0,0,0,19.11,0.16,0,0,0.5,0.0003537742,0.01396123,0.03525942
17879,2023-01-20 10:50:44.579269,164667018,0,0,0,0,0,19.19,0.16,0,0,0.5,0.0005231943,0.00278502,0.01710965
17914,2023-01-20 10:50:44.679233,164766995,0,0,0,0,0,19.29,0.16,0,0,0.5,0.0006625544,0.01298184,0.02839109
17945,2023-01-20 10:50:44.779219,164866998,0,0,0,0,0,19.38,0.16,0,0,0.5,0.0003049248,0.01024061,0.0219905
17979,2023-01-20 10:50:44.879172,164966999,0,0,0,0,0,19.47,0.16,0,0,0.5,0.0008556012,0.02536426,0.05949493
18010,2023-01-20 10:50:44.979116,165067000,0,0,0,0,0,19.57,0.16,0,0,0.5,0.0008653651,0.02222854,0.05318195
18042,2023-01-20 10:50:45.079178,165167004,0,0,0,0,0,19.68,0.16,0,0,0.5,0.0004646273,0.02312856,0.06367903
18076,2023-01-20 10:50:45.179261,165266999,0,0,0,0,0,19.76,0.16,0,0,0.5,0.0002008723,0.01919162,0.05134248
18108,2023-01-20 10:50:45.279270,165367002,0,0,0,0,0,19.84,0.16,0,0,0.5,0.0002452437,0.01662993,0.04848499
18139,2023-01-20 10:50:45.379257,165467004,0,0,0,0,0,19.89,0.16,0,0,0.5,0.0001968452,0.01467287,0.040036
18173,2023-01-20 10:50:45.479213,165566999,0,0,0,0,0,19.95,0.16,0,0,0.5,0.0001886676,0.01241227,0.04237714
18205,2023-01-20 10:50:45.579194,165667026,0,0,0,0,0,19.99,0.16,0,0,0.5,0.0001396055,0.01271819,0.04379834
18240,2023-01-20 10:50:45.679200,165767004,0,0,0,0,0,20.04,0.16,0,0,0.5,0.0001023821,0.01198052,0.04311758
18271,2023-01-20 10:50:45.779261,165867018,0,0,0,0,0,20.09,0.16,0,0,0.5,0.0002922047,0.0126545,0.04410755
18305,2023-01-20 10:50:45.879222,165967006,0,0,0,0,0,20.15,0.16,0,0,0.5,0.0002920528,0.01988585,0.05349032
18336,2023-01-20 10:50:45.979174,166067004,0,0,0,0,0,20.2,0.16,0,0,0.5,0.0001923494,0.01805799,0.05121977
18368,2023-01-20 10:50:46.079165,166166996,0,0,0,0,0,20.26,0.16,0,0,0.5,0.0002283802,0.01783025,0.05283324
18402,2023-01-20 10:50:46.179181,166266999,0,0,0,0,0,20.31,0.16,0,0,0.5,0.0002815263,0.01727655,0.0527791
18434,2023-01-20 10:50:46.279232,166367007,0,0,0,0,0,20.38,0.16,0,0,0.5,0.0007678178,0.03063549,0.0839747
18465,2023-01-20 10:50:46.379271,166466995,0,0,0,0,0,20.44,0.16,0,0,0.5,0.0004864299,0.02438762,0.06928906
18499,2023-01-20 10:50:46.479272,166566999,0,0,0,0,0,20.5,0.16,0,0,0.5,0.0003485126,0.02389546,0.07227965
18531,2023-01-20 10:50:46.579286,166667030,0,0,0,0,0,20.55,0.16,0,0,0.5,0.000274008,0.01758257,0.05909332
18566,2023-01-20 10:50:46.679219,166766995,0,0,0,0,0,20.63,0.16,0,0,0.5,0.0002419958,0.01035789,0.03626188
18597,2023-01-20 10:50:46.779190,166867003,0,0,0,0,0,20.68,0.16,0,0,0.5,0.0001212847,0.01030306,0.03890456
18631,2023-01-20 10:50:46.872054,166967029,0,0,0,0,0,20.75,0.16,0,0,0.5,0.0002700977,0.01728025,0.05170421
18662,2023-01-20 10:50:46.962998,167067002,0,0,0,0,0,20.81,0.16,0,0,0.5,0.0003537065,0.01555265,0.04649865
18694,2023-01-20 10:50:47.059345,167167001,0,0,0,0,0,20.87,0.16,0,0,0.5,0.001079873,0.0391072,0.1035382
18728,2023-01-20 10:50:47.159389,167267008,0,0,0,0,0,20.91,0.16,0,0,0.5,0.0007831182,0.0300274,0.08670633
18760,2023-01-20 10:50:47.259395,167366997,0,0,0,0,0,20.97,0.16,0,0,0.5,0.0008918009,0.04124883,0.1132431
18791,2023-01-20 10:50:47.359400,167466999,0,0,0,0,0,21.02,0.16,0,0,0.5,0.0004629368,0.03003239,0.09142093
18824,2023-01-20 10:50:47.459409,167567008,0,0,0,0,0,21.06,0.16,0,0,0.5,0.0006351253,0.04135219,0.1194639
18856,2023-01-20 10:50:47.559395,167666997,0,0,0,0,0,21.1,0.16,0,0,0.5,0.0005259041,0.03240848,0.1097728
18891,2023-01-20 10:50:47.659409,167766999,0,0,0,0,0,21.14,0.16,0,0,0.5,0.0008348575,0.02641146,0.1101724
18922,2023-01-20 10:50:47.759433,167867002,0,0,0,0,0,21.17,0.16,0,0,0.5,0.0005916858,0.02379592,0.1101744
18956,2023-01-20 10:50:47.859432,167967016,0,0,0,0,0,21.21,0.16,0,0,0.5,0.0004557119,0.03128734,0.1151052
18987,2023-01-20 10:50:47.959370,168066994,0,0,0,0,0,21.25,0.16,0,0,0.5,0.0003833421,0.02380045,0.09534818
19019,2023-01-20 10:50:48.059368,168167008,0,0,0,0,0,21.28,0.16,0,0,0.5,0.001727949,0.05758224,0.1573612
19053,2023-01-20 10:50:48.159359,168266999,0,0,0,0,0,21.33,0.16,0,0,0.5,0.00131344,0.03842753,0.1151893
19085,2023-01-20 10:50:48.259341,168367001,0,0,0,0,0,21.37,0.16,0,0,0.5,0.0018766,0.06350625,0.1665147
19116,2023-01-20 10:50:48.359307,168466999,0,0,0,0,0,21.43,0.16,0,0,0.5,0.001352687,0.03916639,0.1128452
19150,2023-01-20 10:50:48.459285,168566999,0,0,0,0,0,21.48,0.16,0,0,0.5,0.0006030741,0.02762326,0.0900718
19182,2023-01-20 10:50:48.559275,168667002,0,0,0,0,0,21.55,0.16,0,0,0.5,0.000344164,0.01652366,0.06198964
19218,2023-01-20 10:50:48.659267,168767019,0,0,0,0,0,21.56,0.16,0,0,0.5,0.000775901,0.03892476,0.1073206
19249,2023-01-20 10:50:48.759220,168867006,0,0,0,0,0,21.63,0.16,0,0,0.5,0.0004327041,0.02742213,0.08040193
19285,2023-01-20 10:50:48.859167,168966995,0,0,0,0,0,21.62,0.16,0,0,0.5,0.0006208412,0.0384155,0.1123342
19316,2023-01-20 10:50:48.959124,169067000,0,0,0,0,0,21.7,0.16,0,0,0.5,0.0007066889,0.0250037,0.07426082
19348,2023-01-20 10:50:49.059133,169167000,0,0,0,0,0,21.71,0.16,0,0,0.5,0.00179805,0.05616304,0.1467155
19382,2023-01-20 10:50:49.159182,169267001,0,0,0,0,0,21.79,0.16,0,0,0.5,0.001579546,0.03125789,0.08487099
19414,2023-01-20 10:50:49.259240,169367003,0,0,0,0,0,21.83,0.16,0,0,0.5,0.0006559516,0.035828,0.09454065
19445,2023-01-20 10:50:49.359296,169466999,0,0,0,0,0,21.92,0.16,0,0,0.5,0.000826815,0.01751809,0.04606137
19479,2023-01-20 10:50:49.459271,169566999,0,0,0,0,0,21.99,0.16,0,0,0.5,0.001653892,0.03296987,0.08348356
19511,2023-01-20 10:50:49.559187,169666997,0,0,0,0,0,22.1,0.16,0,0,0.5,0.00138629,0.01367819,0.03520224
19546,2023-01-20 10:50:49.659186,169766999,0,0,0,0,0,22.19,0.16,0,0,0.5,0.0006575439,0.02835282,0.05861013
19577,2023-01-20 10:50:49.759239,169867002,0,0,0,0,0,22.3,0.16,0,0,0.5,0.0007689299,0.02033998,0.04613382
19611,2023-01-20 10:50:49.859222,169966995,0,0,0,0,0,22.4,0.16,0,0,0.5,0.001610005,0.04886967,0.1010676
19642,2023-01-20 10:50:49.959192,170067016,0,0,0,0,0,22.51,0.16,0,0,0.5,0.0007997478,0.03452783,0.07968654
19674,2023-01-20 10:50:50.059158,170167008,0,0,0,0,0,22.63,0.16,0,0,0.5,0.0008347463,0.03052341,0.07033804
19750,2023-01-20 10:50:50.159136,170266994,0,0,0,0,0,22.74,0.16,0,0,0.5,0.0006972777,0.01841696,0.04777908
19782,2023-01-20 10:50:50.259172,170367009,0,0,0,0,0,22.85,0.16,0,0,0.5,0.0003433992,0.009604076,0.02429689
19813,2023-01-20 10:50:50.359215,170467008,0,0,0,0,0,22.95,0.16,0,0,0.5,0.0001820492,0.009515859,0.02719145
19847,2023-01-20 10:50:50.459229,170566995,0,0,0,0,0,23.05,0.16,0,0,0.5,0.0003014288,0.01030612,0.02924074
19879,2023-01-20 10:50:50.559247,170666995,0,0,0,0,0,23.14,0.16,0,0,0.5,0.0002619193,0.01231213,0.03275124
19914,2023-01-20 10:50:50.659271,170767013,0,0,0,0,0,23.23,0.16,0,0,0.5,0.0001636626,0.01807557,0.04662112
19945,2023-01-20 10:50:50.759258,170867002,0,0,0,0,0,23.31,0.16,0,0,0.5,0.0002089398,0.01739071,0.04495117
19979,2023-01-20 10:50:50.859207,170966995,0,0,0,0,0,23.41,0.16,0,0,0.5,0.0007725074,0.02552018,0.06621151
20010,2023-01-20 10:50:50.959148,171067008,0,0,0,0,0,23.49,0.16,0,0,0.5,0.0004888907,0.01921985,0.05041399
20042,2023-01-20 10:50:51.059155,171167002,0,0,0,0,0,23.57,0.16,0,0,0.5,0.0004644547,0.02458948,0.06565076
20076,2023-01-20 10:50:51.159229,171267003,0,0,0,0,0,23.64,0.16,0,0,0.5,0.0002955227,0.01887976,0.04876564
20108,2023-01-20 10:50:51.259288,171367034,0,0,0,0,0,23.73,0.16,0,0,0.5,0.0002249268,0.01690318,0.03902492
20139,2023-01-20 10:50:51.359250,171466999,0,0,0,0,0,23.8,0.16,0,0,0.5,0.0001596112,0.01532421,0.03815742
20173,2023-01-20 10:50:51.459216,171566995,0,0,0,0,0,23.92,0.16,0,0,0.5,0.001412531,0.05854307,0.1286619
20205,2023-01-20 10:50:51.559181,171667007,0,0,0,0,0,23.98,0.16,0,0,0.5,0.0009443326,0.04352069,0.1037734
20240,2023-01-20 10:50:51.659189,171767000,0,0,0,0,0,24.07,0.16,0,0,0.5,0.0001756564,0.02715241,0.06652568
20271,2023-01-20 10:50:51.759246,171866998,0,0,0,0,0,24.14,0.16,0,0,0.5,0.0004972352,0.02143413,0.05814906
20305,2023-01-20 10:50:51.859252,171967019,0,0,0,0,0,24.21,0.16,0,0,0.5,0.001584605,0.03170721,0.081116
20336,2023-01-20 10:50:51.959167,172066999,0,0,0,0,0,24.28,0.16,0,0,0.5,0.001161948,0.02112131,0.05045211
20368,2023-01-20 10:50:52.059134,172166995,0,0,0,0,0,24.35,0.16,0,0,0.5,0.00186005,0.05788005,0.1428606
20402,2023-01-20 10:50:52.159141,172267004,0,0,0,0,0,24.41,0.16,0,0,0.5,0.001123046,0.03673714,0.08986402
20434,2023-01-20 10:50:52.259163,172367001,0,0,0,0,0,24.48,0.16,0,0,0.5,0.0004439017,0.02303779,0.07001667
20465,2023-01-20 10:50:52.359204,172466999,0,0,0,0,0,24.55,0.16,0,0,0.5,0.0001240725,0.01295243,0.03775942
20499,2023-01-20 10:50:52.459237,172567004,0,0,0,0,0,24.63,0.16,0,0,0.5,0.0005657143,0.02435255,0.07079363
20531,2023-01-20 10:50:52.559254,172667004,0,0,0,0,0,24.7,0.16,0,0,0.5,0.000406778,0.01184382,0.03319279
20566,2023-01-20 10:50:52.659223,172766998,0,0,0,0,0,24.78,0.16,0,0,0.5,0.0003749797,0.01147789,0.02723147
20597,2023-01-20 10:50:52.759192,172867022,0,0,0,0,0,24.85,0.16,0,0,0.5,0.001067941,0.009417646,0.02199275
20631,2023-01-20 10:50:52.859144,172966997,0,0,0,0,0,24.93,0.16,0,0,0.5,0.0008635543,0.01950747,0.05281668
