LineNo,UTC_Approx,TimeUS,C,Q1,Q2,Q3,Q4
372,2023-01-20 10:49:56.258497,116247435,0,0.3384375,-0.00454544,0.0105256,-0.9409191
962,2023-01-20 10:49:56.349466,116347450,0,0.3384254,-0.004555919,0.0105076,-0.9409236
1120,2023-01-20 10:49:56.451414,116453964,0,0.3384098,-0.004566744,0.01050884,-0.9409291
1339,2023-01-20 10:49:56.564043,116565584,0,0.3384042,-0.004564749,0.01051529,-0.940931
1557,2023-01-20 10:49:56.664880,116666343,0,0.3384095,-0.004581907,0.01050739,-0.9409292
1879,2023-01-20 10:49:56.764500,116766338,0,0.3383987,-0.00460339,0.01050132,-0.940933
1924,2023-01-20 10:49:56.864372,116866343,0,0.3383735,-0.004603093,0.0104784,-0.9409423
1972,2023-01-20 10:49:56.964368,116966340,0,0.338359,-0.004596154,0.01046298,-0.9409477
2022,2023-01-20 10:49:57.064380,117066339,0,0.3383558,-0.004582176,0.0104461,-0.9409492
2066,2023-01-20 10:49:57.164406,117166344,0,0.3383453,-0.004565148,0.0104438,-0.9409531
2118,2023-01-20 10:49:57.271510,117266340,0,0.3383251,-0.004530862,0.01045491,-0.9409603
2177,2023-01-20 10:49:57.382565,117366367,0,0.3383138,-0.004497236,0.01047153,-0.9409644
2233,2023-01-20 10:49:57.476613,117466341,0,0.3383094,-0.004463677,0.01048639,-0.940966
2292,2023-01-20 10:49:57.567525,117566339,0,0.338291,-0.004455325,0.01047415,-0.9409727
2346,2023-01-20 10:49:57.664269,117666343,0,0.3382655,-0.004461132,0.01045941,-0.9409821
2405,2023-01-20 10:49:57.764245,117766341,0,0.3382519,-0.00447343,0.01046041,-0.9409869
2449,2023-01-20 10:49:57.864220,117866343,0,0.3382618,-0.004482173,0.01045053,-0.9409834
2494,2023-01-20 10:49:57.964187,117966340,0,0.3382463,-0.004510951,0.01044703,-0.9409888
2533,2023-01-20 10:49:58.064248,118066359,0,0.3382225,-0.004535577,0.01044173,-0.9409973
2573,2023-01-20 10:49:58.164315,118166343,0,0.3382104,-0.004534749,0.01044786,-0.9410017
2615,2023-01-20 10:49:58.264328,118266346,0,0.3381962,-0.00454072,0.01046756,-0.9410065
2655,2023-01-20 10:49:58.364299,118366348,0,0.3381188,-0.004460987,0.01043383,-0.9410351
2694,2023-01-20 10:49:58.464282,118466343,0,0.3379916,-0.004533172,0.01040989,-0.9410807
2735,2023-01-20 10:49:58.564280,118566343,0,0.338133,-0.004507393,0.01042383,-0.9410298
2775,2023-01-20 10:49:58.664277,118666358,0,0.3381726,-0.004503494,0.01041659,-0.9410157
2816,2023-01-20 10:49:58.764239,118766347,0,0.3381944,-0.004507881,0.01042308,-0.9410077
2860,2023-01-20 10:49:58.864246,118866362,0,0.3381432,-0.004545009,0.01043591,-0.9410259
2899,2023-01-20 10:49:58.964232,118966347,0,0.3380241,-0.004577508,0.01042389,-0.9410686
2938,2023-01-20 10:49:59.064260,119066357,0,0.3377658,-0.004564847,0.01041326,-0.9411616
2977,2023-01-20 10:49:59.164279,119166350,0,0.3379564,-0.00465715,0.01044727,-0.9410923
3018,2023-01-20 10:49:59.264288,119266350,0,0.3377793,-0.004585076,0.01034101,-0.9411573
3057,2023-01-20 10:49:59.364301,119366364,0,0.3378904,-0.00461249,0.01037519,-0.941117
3097,2023-01-20 10:49:59.464283,119466350,0,0.3380811,-0.004632062,0.01036599,-0.9410486
3138,2023-01-20 10:49:59.564294,119566365,0,0.3378726,-0.004680921,0.01042421,-0.9411225
3177,2023-01-20 10:49:59.664291,119666375,0,0.3378751,-0.004639795,0.01041547,-0.9411219
3218,2023-01-20 10:49:59.764251,119766353,0,0.3381042,-0.004604783,0.01040466,-0.9410399
3257,2023-01-20 10:49:59.864240,119866352,0,0.3379089,-0.004673599,0.01037143,-0.9411101
3296,2023-01-20 10:49:59.964237,119966354,0,0.3378133,-0.004711998,0.01043265,-0.9411436
3335,2023-01-20 10:50:00.064254,120066356,0,0.3380415,-0.004716271,0.01045724,-0.9410613
3375,2023-01-20 10:50:00.164280,120166355,0,0.3378283,-0.004775942,0.01048969,-0.9411372
3416,2023-01-20 10:50:00.264293,120266363,0,0.3376355,-0.004835936,0.01046933,-0.9412063
3455,2023-01-20 10:50:00.364270,120366348,0,0.3379656,-0.004764791,0.01045557,-0.9410884
3495,2023-01-20 10:50:00.464283,120466359,0,0.3379702,-0.004826571,0.01048539,-0.941086
3535,2023-01-20 10:50:00.564280,120566349,0,0.337864,-0.004811443,0.01052534,-0.9411239
3576,2023-01-20 10:50:00.664271,120666346,0,0.3378901,-0.004813308,0.01051642,-0.9411146
3617,2023-01-20 10:50:00.764268,120766355,0,0.3377933,-0.004944282,0.01054899,-0.9411483
3658,2023-01-20 10:50:00.864250,120866353,0,0.3376808,-0.004986329,0.01058686,-0.941188
3695,2023-01-20 10:50:00.964226,120966347,0,0.3378717,-0.004906909,0.01057804,-0.94112
3727,2023-01-20 10:50:01.064251,121066375,0,0.3380452,-0.004957349,0.01061784,-0.9410569
3758,2023-01-20 10:50:01.164248,121166365,0,0.3378915,-0.004949841,0.01055124,-0.9411129
3792,2023-01-20 10:50:01.264210,121266360,0,0.3378401,-0.005063296,0.01058909,-0.9411304
3823,2023-01-20 10:50:01.364148,121366352,0,0.3377973,-0.005125387,0.01053325,-0.941146
3855,2023-01-20 10:50:01.464163,121466353,0,0.3376802,-0.005185957,0.01012221,-0.9411922
3888,2023-01-20 10:50:01.564214,121566352,0,0.3377067,-0.004519096,0.01033606,-0.9411837
3921,2023-01-20 10:50:01.664229,121666348,0,0.3372283,-0.003418704,0.01012277,-0.9413623
3954,2023-01-20 10:50:01.764239,121766356,0,0.3346791,-0.003733871,0.01001414,-0.9422715
3987,2023-01-20 10:50:01.864187,121866351,0,0.3418364,-0.002359545,0.009115889,-0.9397123
4019,2023-01-20 10:50:01.964107,121966347,0,0.3461325,0.002185528,0.002644377,-0.9381795
4051,2023-01-20 10:50:02.064130,122066355,0,0.3479016,0.006201344,-0.002824958,-0.9375064
4082,2023-01-20 10:50:02.164194,122166353,0,0.3480656,0.007426582,-0.009089894,-0.9373968
4116,2023-01-20 10:50:02.264211,122266347,0,0.3471791,-0.0002775512,-0.01022359,-0.9377431
4147,2023-01-20 10:50:02.364215,122366353,0,0.3461415,-0.003840202,-0.009261789,-0.9381288
4179,2023-01-20 10:50:02.463957,122466351,0,0.34738,-0.006199515,-0.01348257,-0.9376071
4212,2023-01-20 10:50:02.563582,122566374,0,0.3505211,-0.007360545,-0.009716441,-0.9364755
4246,2023-01-20 10:50:02.663437,122666351,0,0.3545394,-0.008303748,-0.007250646,-0.9349761
4278,2023-01-20 10:50:02.763489,122766365,0,0.3585716,-0.004718355,-0.007252355,-0.9334621
4312,2023-01-20 10:50:02.863453,122866332,0,0.3611211,0.0002650382,-0.009437155,-0.9324712
4343,2023-01-20 10:50:02.963446,122966350,0,0.3619748,-0.0009901786,-0.01183934,-0.9321122
4376,2023-01-20 10:50:03.063464,123066378,0,0.3611396,-0.003187406,-0.01459514,-0.9323921
4406,2023-01-20 10:50:03.163459,123166375,0,0.3588866,0.002384546,-0.01755691,-0.933213
4441,2023-01-20 10:50:03.263447,123266360,0,0.3568358,0.009660894,-0.01873342,-0.9339293
4471,2023-01-20 10:50:03.363447,123366355,0,0.3575677,0.01357627,-0.02071235,-0.9335588
4504,2023-01-20 10:50:03.463467,123466364,0,0.3602464,0.01354281,-0.02504582,-0.9324226
4536,2023-01-20 10:50:03.563463,123566347,0,0.3646793,0.01280114,-0.02849748,-0.9306089
4570,2023-01-20 10:50:03.663474,123666355,0,0.3696882,0.01081164,-0.02635146,-0.9287193
4602,2023-01-20 10:50:03.763479,123766364,0,0.3743149,0.01021364,-0.02418849,-0.92693
4636,2023-01-20 10:50:03.863665,123866353,0,0.3769931,0.009608055,-0.02000824,-0.9259501
4668,2023-01-20 10:50:03.963980,123966357,0,0.3788118,0.009043272,-0.01452875,-0.9253156
4701,2023-01-20 10:50:04.064140,124066362,0,0.3774746,0.006245509,-0.007002783,-0.9259725
4731,2023-01-20 10:50:04.164192,124166346,0,0.3734212,0.001652276,0.00843179,-0.9276222
4766,2023-01-20 10:50:04.264233,124266366,0,0.3694931,-0.005058598,0.0234543,-0.9289236
4796,2023-01-20 10:50:04.364227,124366364,0,0.3661263,-0.01621579,0.02947108,-0.9299571
4829,2023-01-20 10:50:04.464185,124466350,0,0.3632149,-0.02244957,0.03274952,-0.930859
4862,2023-01-20 10:50:04.564144,124566349,0,0.359685,-0.02220151,0.02534074,-0.9324654
4896,2023-01-20 10:50:04.664165,124666357,0,0.3565128,-0.01564131,0.01346692,-0.9340625
4928,2023-01-20 10:50:04.764212,124766361,0,0.3512405,-0.01126775,0.004789578,-0.9362052
4962,2023-01-20 10:50:04.864187,124866351,0,0.3441816,-0.008217962,0.0002237251,-0.9388671
4992,2023-01-20 10:50:04.964149,124966361,0,0.3416689,-0.007634886,0.005330198,-0.9397743
5025,2023-01-20 10:50:05.064161,125066359,0,0.3450357,-0.007355858,0.0121151,-0.9384826
5055,2023-01-20 10:50:05.164199,125166348,0,0.351759,-0.006645103,0.01488647,-0.9359487
5090,2023-01-20 10:50:05.264224,125266359,0,0.3595117,-0.005269874,0.01452443,-0.9330127
5120,2023-01-20 10:50:05.364216,125366356,0,0.3644736,-0.002821464,0.01149511,-0.9311385
5153,2023-01-20 10:50:05.464215,125466348,0,0.3664556,0.003185511,0.005928155,-0.9304112
5185,2023-01-20 10:50:05.564249,125566368,0,0.3641748,0.004552087,0.002624446,-0.9313158
5220,2023-01-20 10:50:05.664237,125666350,0,0.3596269,-0.003258601,-0.001830649,-0.9330888
5252,2023-01-20 10:50:05.764243,125766353,0,0.3530048,-0.01114146,-0.007002387,-0.935529
5286,2023-01-20 10:50:05.858431,125866372,0,0.3453636,-0.01786336,-0.01152111,-0.9382282
5316,2023-01-20 10:50:05.949344,125966358,0,0.336751,-0.01556273,-0.01622549,-0.9413252
5349,2023-01-20 10:50:06.044301,126066355,0,0.327217,-0.01452232,-0.01637305,-0.9446958
5379,2023-01-20 10:50:06.144339,126166357,0,0.3174043,-0.01442151,-0.01897448,-0.9479908
5414,2023-01-20 10:50:06.243805,126266351,0,0.3094319,-0.01626306,-0.01890029,-0.9505947
5446,2023-01-20 10:50:06.342574,126366355,0,0.2784059,-0.02088724,-0.0135803,-0.9601403
5479,2023-01-20 10:50:06.441850,126466354,0,0.279562,-0.02377159,-0.005673519,-0.9598166
5511,2023-01-20 10:50:06.541842,126566358,0,0.2833699,-0.03039451,0.005473861,-0.9585133
5545,2023-01-20 10:50:06.641816,126666366,0,0.2896364,-0.03769742,0.00674994,-0.9563703
5577,2023-01-20 10:50:06.741744,126766358,0,0.2937215,-0.03859688,0.002091652,-0.9551092
5611,2023-01-20 10:50:06.841663,126866352,0,0.2941231,-0.03536684,-0.006853433,-0.9550885
5641,2023-01-20 10:50:06.941588,126966367,0,0.289426,-0.0259287,-0.01739373,-0.9566911
5674,2023-01-20 10:50:07.041525,127066363,0,0.2832593,-0.02699533,-0.02087706,-0.958436
5704,2023-01-20 10:50:07.141493,127166349,0,0.2787372,-0.02787892,-0.02073839,-0.9597387
5739,2023-01-20 10:50:07.241509,127266350,0,0.276479,-0.02989052,-0.01798506,-0.9603866
5769,2023-01-20 10:50:07.341577,127366355,0,0.2771026,-0.03042596,-0.01374034,-0.9602602
5802,2023-01-20 10:50:07.441568,127466345,0,0.2785169,-0.02645767,-0.01111631,-0.9600025
5834,2023-01-20 10:50:07.541490,127566353,0,0.2802434,-0.02102016,-0.01347335,-0.9596043
5868,2023-01-20 10:50:07.646106,127666349,0,0.2814278,-0.01871533,-0.01317354,-0.9593095
5900,2023-01-20 10:50:07.757380,127766350,0,0.2815586,-0.02074103,-0.01580622,-0.9591897
5934,2023-01-20 10:50:07.856015,127866352,0,0.2821322,-0.02574219,-0.01918718,-0.9588382
5965,2023-01-20 10:50:07.946816,127966367,0,0.2827268,-0.03332746,-0.02195746,-0.9583699
5999,2023-01-20 10:50:08.041395,128066351,0,0.2840458,-0.03476088,-0.02472306,-0.9578615
6029,2023-01-20 10:50:08.141378,128166352,0,0.2860094,-0.02896729,-0.02749057,-0.9573943
6064,2023-01-20 10:50:08.241381,128266349,0,0.2892949,-0.01970334,-0.02798689,-0.956628
6094,2023-01-20 10:50:08.341429,128366354,0,0.2954212,-0.00597942,-0.02473927,-0.9550281
6127,2023-01-20 10:50:08.441443,128466347,0,0.3021389,0.0001131145,-0.02260714,-0.9529958
6159,2023-01-20 10:50:08.541451,128566361,0,0.3064704,-0.001493653,-0.0221561,-0.9516212
6193,2023-01-20 10:50:08.641444,128666362,0,0.3081549,-0.006905383,-0.02371736,-0.9510155
6225,2023-01-20 10:50:08.741436,128766362,0,0.3078351,-0.01299162,-0.02333388,-0.9510648
6259,2023-01-20 10:50:08.841466,128866356,0,0.3048465,-0.01907224,-0.02189667,-0.9519587
6292,2023-01-20 10:50:08.941560,128966352,0,0.3005083,-0.02170977,-0.01587861,-0.9533999
6325,2023-01-20 10:50:09.041633,129066352,0,0.29703,-0.02312093,-0.007929173,-0.9545553
6355,2023-01-20 10:50:09.141672,129166352,0,0.297063,-0.02156354,-0.003061974,-0.9546095
6390,2023-01-20 10:50:09.241616,129266349,0,0.3004159,-0.01304214,-0.0001385345,-0.9537192
6420,2023-01-20 10:50:09.341455,129366368,0,0.3047325,-0.006473279,0.001803076,-0.9524144
6453,2023-01-20 10:50:09.441128,129466653,0,0.3101614,0.008960726,0.004537211,-0.950631
6485,2023-01-20 10:50:09.539901,129566645,0,0.3171518,0.0246656,0.003997188,-0.9480456
6519,2023-01-20 10:50:09.639155,129666642,0,0.3245726,0.03199271,-0.00132064,-0.9453188
6551,2023-01-20 10:50:09.739153,129766641,0,0.3296107,0.030806,-0.004368894,-0.9436041
6585,2023-01-20 10:50:09.839145,129866643,0,0.333257,0.02702896,-0.007195517,-0.9424211
6616,2023-01-20 10:50:09.939125,129966645,0,0.3351794,0.02536753,-0.00799777,-0.9417789
6649,2023-01-20 10:50:10.039118,130066641,0,0.3363212,0.023892,-0.005227639,-0.9414297
6679,2023-01-20 10:50:10.139156,130166654,0,0.3382425,0.01935348,-0.006096934,-0.9408402
6714,2023-01-20 10:50:10.239059,130266643,0,0.340025,0.01391443,-0.007787169,-0.9402813
6744,2023-01-20 10:50:10.338820,130366663,0,0.3408028,0.009853842,-0.007761253,-0.9400511
6777,2023-01-20 10:50:10.438985,130466996,0,0.34021,0.01106755,-0.008802398,-0.9402432
6809,2023-01-20 10:50:10.538961,130567000,0,0.3380872,0.01889428,-0.008480841,-0.9408869
6843,2023-01-20 10:50:10.638947,130667009,0,0.3353458,0.04183234,-0.002813597,-0.9411618
6875,2023-01-20 10:50:10.738916,130766996,0,0.330977,0.07177556,0.006069521,-0.9408856
6909,2023-01-20 10:50:10.838875,130867000,0,0.3271092,0.09188217,0.01473477,-0.9403936
6939,2023-01-20 10:50:10.938795,130967009,0,0.3250142,0.09187365,0.01802029,-0.9410634
6972,2023-01-20 10:50:11.038765,131067000,0,0.3217283,0.07744522,0.01402381,-0.9435553
7002,2023-01-20 10:50:11.138863,131167011,0,0.3171487,0.06476847,0.01014293,-0.9461073
7038,2023-01-20 10:50:11.238911,131267009,0,0.312267,0.05991695,0.006825718,-0.9480784
7068,2023-01-20 10:50:11.338917,131367022,0,0.3070286,0.05445573,0.009039853,-0.9500981
7101,2023-01-20 10:50:11.438890,131466996,0,0.3028809,0.05212434,0.01032112,-0.951546
7132,2023-01-20 10:50:11.538900,131567001,0,0.3000087,0.04928078,0.01139304,-0.9525946
7166,2023-01-20 10:50:11.638903,131667000,0,0.2979778,0.04499406,0.01302793,-0.9534229
7198,2023-01-20 10:50:11.738897,131766995,0,0.2979805,0.04128317,0.008758983,-0.9536386
7232,2023-01-20 10:50:11.838873,131867000,0,0.2995474,0.04000803,0.0107094,-0.9531821
7262,2023-01-20 10:50:11.938798,131967000,0,0.3028652,0.0420561,0.01301878,-0.9520161
7295,2023-01-20 10:50:12.038782,132066999,0,0.309192,0.04258459,0.01563531,-0.9499171
7325,2023-01-20 10:50:12.138860,132166996,0,0.3178538,0.0419221,0.01757842,-0.9470494
7360,2023-01-20 10:50:12.238930,132267017,0,0.3259231,0.03971721,0.02007477,-0.9443484
7390,2023-01-20 10:50:12.338937,132367028,0,0.3289888,0.03470369,0.02341964,-0.9434053
7423,2023-01-20 10:50:12.438899,132466995,0,0.3286288,0.03463712,0.02345224,-0.9435325
7455,2023-01-20 10:50:12.538897,132567000,0,0.3273059,0.03570011,0.02094227,-0.9440116
7489,2023-01-20 10:50:12.638896,132667000,0,0.3276844,0.03449977,0.01915576,-0.9439628
7521,2023-01-20 10:50:12.738907,132767000,0,0.3295294,0.02824499,0.01400704,-0.9436188
7555,2023-01-20 10:50:12.838894,132867010,0,0.3259667,0.02526013,0.007882466,-0.9450109
7585,2023-01-20 10:50:12.938811,132967000,0,0.3169204,0.02590244,0.002325737,-0.9480955
7619,2023-01-20 10:50:13.038794,133066999,0,0.3071058,0.02753701,0.0005381798,-0.9512768
7649,2023-01-20 10:50:13.138870,133167001,0,0.2975285,0.02469553,-0.0008430175,-0.9543931
7684,2023-01-20 10:50:13.238913,133267000,0,0.2864788,0.02143849,0.000584268,-0.9578465
7714,2023-01-20 10:50:13.338930,133367020,0,0.2717031,0.01920632,0.002687668,-0.9621857
7747,2023-01-20 10:50:13.438904,133466996,0,0.2564725,0.02046479,0.004114677,-0.9663261
7779,2023-01-20 10:50:13.538909,133567000,0,0.2443293,0.02499572,-0.001447701,-0.969369
7813,2023-01-20 10:50:13.638903,133666995,0,0.2358766,0.02721988,-0.00730155,-0.9713743
7845,2023-01-20 10:50:13.738905,133766998,0,0.2325842,0.02602271,-0.008131574,-0.9721941
7879,2023-01-20 10:50:13.838880,133867006,0,0.2361053,0.02166314,-0.002108932,-0.9714836
7911,2023-01-20 10:50:13.938794,133967003,0,0.2406648,0.01652537,-0.00810842,-0.9704337
7944,2023-01-20 10:50:14.038783,134067014,0,0.2448467,0.01751138,-0.0162502,-0.9692675
7974,2023-01-20 10:50:14.138845,134167003,0,0.2504475,0.02440731,-0.01518653,-0.9677033
8009,2023-01-20 10:50:14.238890,134267000,0,0.255768,0.02919303,-0.01639427,-0.9661583
8039,2023-01-20 10:50:14.338900,134367002,0,0.259472,0.03105119,-0.01166423,-0.9651809
8072,2023-01-20 10:50:14.438902,134467000,0,0.2618927,0.03371413,-0.006776395,-0.9644842
8105,2023-01-20 10:50:14.538904,134567002,0,0.2649937,0.03427595,-0.00465652,-0.9636295
8139,2023-01-20 10:50:14.638898,134666996,0,0.269316,0.03562147,-0.003953403,-0.9623847
8171,2023-01-20 10:50:14.738902,134767000,0,0.2746532,0.03579309,-0.006563199,-0.9608546
8205,2023-01-20 10:50:14.838871,134867002,0,0.2777985,0.03963758,-0.006247039,-0.9598009
8235,2023-01-20 10:50:14.938800,134967015,0,0.2770118,0.04185668,-0.003504723,-0.959948
8268,2023-01-20 10:50:15.038758,135066999,0,0.274431,0.04126203,-0.003627757,-0.9607143
8298,2023-01-20 10:50:15.138827,135167003,0,0.2701829,0.04160172,-0.00666135,-0.9618868
8333,2023-01-20 10:50:15.238872,135267000,0,0.2680135,0.04573754,-0.005495544,-0.9623132
8363,2023-01-20 10:50:15.338903,135367011,0,0.2675317,0.04449636,-0.005154002,-0.9625074
8396,2023-01-20 10:50:15.438903,135467000,0,0.2672673,0.04279871,-0.003434136,-0.9626654
8428,2023-01-20 10:50:15.538903,135567003,0,0.2663918,0.04001413,-0.003096859,-0.963029
8462,2023-01-20 10:50:15.638904,135667005,0,0.2636,0.04039729,-0.003708466,-0.9637787
8494,2023-01-20 10:50:15.738904,135767003,0,0.2599841,0.03915766,0.002359709,-0.9648157
8528,2023-01-20 10:50:15.838910,135867019,0,0.2527535,0.0414745,0.002229866,-0.9666388
8558,2023-01-20 10:50:15.938862,135967002,0,0.2391294,0.04082954,0.0001943067,-0.970129
8591,2023-01-20 10:50:16.038868,136067015,0,0.2165398,0.04175957,-0.001097817,-0.9753796
8621,2023-01-20 10:50:16.138900,136167016,0,0.1859082,0.04611474,-0.003904052,-0.9814767
8656,2023-01-20 10:50:16.238878,136266996,0,0.1509915,0.04870086,-0.007182543,-0.9873086
8686,2023-01-20 10:50:16.338825,136366998,0,0.1145812,0.05098778,-0.009460605,-0.9920594
8719,2023-01-20 10:50:16.438816,136466999,0,0.07953797,0.05387364,-0.00904884,-0.9953339
8751,2023-01-20 10:50:16.538872,136566998,0,0.04762409,0.05460774,-0.005913904,-0.997354
8785,2023-01-20 10:50:16.638904,136666995,0,0.01785873,0.0538574,-0.003031604,-0.9983844
8817,2023-01-20 10:50:16.738914,136767007,0,-0.009433568,0.05241777,0.001696606,-0.9985793
8851,2023-01-20 10:50:16.838906,136867010,0,-0.03332076,0.05108139,0.004222451,-0.9981296
8881,2023-01-20 10:50:16.938875,136967003,0,-0.05647736,0.04998439,0.008342261,-0.997117
8914,2023-01-20 10:50:17.038871,137067002,0,-0.08174109,0.04658439,0.009365952,-0.9955202
8944,2023-01-20 10:50:17.138909,137167011,0,-0.1061225,0.04556744,0.01264326,-0.993228
8979,2023-01-20 10:50:17.238929,137267017,0,-0.1273919,0.04734822,0.01839959,-0.9905508
9009,2023-01-20 10:50:17.338923,137367020,0,-0.1508532,0.04723331,0.02184011,-0.9871857
9042,2023-01-20 10:50:17.438910,137467008,0,-0.1769913,0.04413846,0.02496102,-0.9829053
9074,2023-01-20 10:50:17.538911,137566998,0,-0.2044905,0.04420338,0.02325412,-0.9775934
9108,2023-01-20 10:50:17.638915,137666995,0,-0.2350339,0.04215435,0.02414242,-0.9707726
9140,2023-01-20 10:50:17.738930,137767012,0,-0.2673602,0.03903585,0.02404906,-0.9625052
9174,2023-01-20 10:50:17.835450,137866999,0,-0.2991674,0.03689831,0.02312961,-0.9532064
9204,2023-01-20 10:50:17.926548,137967004,0,-0.3308739,0.03418498,0.02382554,-0.9427546
9237,2023-01-20 10:50:18.021482,138067027,0,-0.3612706,0.03488453,0.02146769,-0.9315609
9268,2023-01-20 10:50:18.132253,138167002,0,-0.390042,0.03722044,0.0225317,-0.9197686
9303,2023-01-20 10:50:18.238871,138267001,0,-0.4197461,0.03408713,0.02255048,-0.9067209
9333,2023-01-20 10:50:18.338922,138367012,0,-0.4474611,0.03375907,0.0215643,-0.8934058
9366,2023-01-20 10:50:18.435470,138466999,0,-0.4724058,0.03696189,0.01885001,-0.8804041
9398,2023-01-20 10:50:18.526576,138567002,0,-0.4903189,0.04043966,0.01799491,-0.8704184
9432,2023-01-20 10:50:18.619396,138667000,0,-0.4994518,0.04206859,0.01583195,-0.8651748
9464,2023-01-20 10:50:18.719379,138767017,0,-0.502339,0.04106763,0.01874752,-0.8634915
9498,2023-01-20 10:50:18.819326,138866998,0,-0.5005548,0.03902034,0.02004264,-0.8645927
9530,2023-01-20 10:50:18.919290,138966998,0,-0.4977615,0.03556081,0.02044775,-0.8663433
9563,2023-01-20 10:50:19.019273,139067003,0,-0.502076,0.0287291,0.02104227,-0.86409
9593,2023-01-20 10:50:19.119303,139166998,0,-0.513768,0.02384548,0.02076556,-0.8573463
9628,2023-01-20 10:50:19.219324,139266995,0,-0.5234708,0.02476467,0.02018643,-0.8514444
9658,2023-01-20 10:50:19.319306,139367002,0,-0.5287448,0.02471046,0.01937963,-0.8481998
9691,2023-01-20 10:50:19.419272,139466999,0,-0.5311537,0.02399105,0.01479324,-0.8468066
9723,2023-01-20 10:50:19.519240,139567020,0,-0.5319825,0.02452138,0.01308941,-0.846299
9757,2023-01-20 10:50:19.619174,139666998,0,-0.5315281,0.02491421,0.0138658,-0.8465607
9789,2023-01-20 10:50:19.719173,139766999,0,-0.5292063,0.02797681,0.01536991,-0.8478926
9823,2023-01-20 10:50:19.819166,139866997,0,-0.5260099,0.03007513,0.01053809,-0.8498814
9853,2023-01-20 10:50:19.919157,139967005,0,-0.5243953,0.02882974,0.006945653,-0.8509585
9886,2023-01-20 10:50:20.019142,140067002,0,-0.5230925,0.02907424,0.006724097,-0.8517534
9916,2023-01-20 10:50:20.119149,140166999,0,-0.5210066,0.03227117,0.00734799,-0.8529108
9951,2023-01-20 10:50:20.219164,140266994,0,-0.519061,0.03555714,0.009875054,-0.8539402
9984,2023-01-20 10:50:20.319240,140367006,0,-0.5203639,0.03431859,0.0028877,-0.8532499
10017,2023-01-20 10:50:20.419280,140466995,0,-0.5218286,0.03317672,-0.001105123,-0.8524044
10049,2023-01-20 10:50:20.519280,140566999,0,-0.5234787,0.03180365,-0.0009740558,-0.8514445
10083,2023-01-20 10:50:20.619284,140667000,0,-0.5251513,0.02687647,0.005925795,-0.8505638
10115,2023-01-20 10:50:20.719325,140767003,0,-0.5249733,0.02266229,0.01556323,-0.8506746
10149,2023-01-20 10:50:20.819329,140866999,0,-0.52215,0.01983945,0.02330228,-0.8523045
10179,2023-01-20 10:50:20.919219,140967008,0,-0.518333,0.0203195,0.0329189,-0.8543035
10212,2023-01-20 10:50:21.019128,141067002,0,-0.5150185,0.02063833,0.03912067,-0.8560371
10242,2023-01-20 10:50:21.119177,141166996,0,-0.5131811,0.01892764,0.04493811,-0.856894
10277,2023-01-20 10:50:21.219234,141267013,0,-0.5120201,0.01730014,0.0505585,-0.8573097
10307,2023-01-20 10:50:21.319208,141367011,0,-0.5101695,0.01785566,0.0505263,-0.8584028
10340,2023-01-20 10:50:21.419179,141466995,0,-0.5075986,0.02016979,0.04887145,-0.8599701
10372,2023-01-20 10:50:21.519221,141567001,0,-0.5075763,0.01905624,0.04905307,-0.8599982
10406,2023-01-20 10:50:21.619237,141667000,0,-0.5168119,0.01414912,0.04961534,-0.8545429
10438,2023-01-20 10:50:21.719181,141767005,0,-0.5413511,0.01078144,0.0499277,-0.8392437
10472,2023-01-20 10:50:21.819121,141866998,0,-0.5781543,0.01023524,0.05021356,-0.8143166
10502,2023-01-20 10:50:21.919116,141967006,0,-0.6212663,0.00692449,0.05034682,-0.7819497
10535,2023-01-20 10:50:22.019107,142066998,0,-0.6670033,0.001061118,0.05312414,-0.7431578
10565,2023-01-20 10:50:22.119158,142166999,0,-0.7157676,-0.006427667,0.05632047,-0.6960341
10600,2023-01-20 10:50:22.219192,142266999,0,-0.759719,-0.0157272,0.05620751,-0.6476269
10630,2023-01-20 10:50:22.319180,142367022,0,-0.7944362,-0.0232486,0.0571443,-0.6042065
10663,2023-01-20 10:50:22.419134,142466995,0,-0.8177726,-0.03143498,0.06103875,-0.5714317
10695,2023-01-20 10:50:22.519187,142567002,0,-0.8306133,-0.04030862,0.06855418,-0.5511417
10729,2023-01-20 10:50:22.619219,142666999,0,-0.8356784,-0.04897895,0.07842157,-0.5413803
10761,2023-01-20 10:50:22.719202,142766999,0,-0.8353066,-0.05428836,0.09160358,-0.5393742
10795,2023-01-20 10:50:22.819185,142867002,0,-0.8314132,-0.05575212,0.1010939,-0.5435292
10825,2023-01-20 10:50:22.919154,142967003,0,-0.8250817,-0.05788707,0.1083316,-0.5515012
10858,2023-01-20 10:50:23.019150,143067014,0,-0.8170622,-0.06254287,0.11167,-0.5621635
10888,2023-01-20 10:50:23.119206,143167019,0,-0.8110867,-0.06239024,0.1125705,-0.5705907
10924,2023-01-20 10:50:23.219222,143266999,0,-0.8066078,-0.06160419,0.1176083,-0.5759837
10954,2023-01-20 10:50:23.319196,143367002,0,-0.8025586,-0.0658766,0.1238057,-0.5798553
10987,2023-01-20 10:50:23.419168,143466995,0,-0.7986795,-0.07053041,0.1283261,-0.5836686
11019,2023-01-20 10:50:23.519189,143567002,0,-0.795011,-0.07650673,0.131156,-0.5872838
11053,2023-01-20 10:50:23.619204,143667008,0,-0.7920356,-0.08363889,0.1273038,-0.5911667
11085,2023-01-20 10:50:23.719177,143766995,0,-0.7886313,-0.09008161,0.1293014,-0.5943293
11119,2023-01-20 10:50:23.819170,143867002,0,-0.7858271,-0.09433593,0.1297159,-0.5972859
11152,2023-01-20 10:50:23.919178,143967027,0,-0.7855312,-0.08583894,0.1301646,-0.5988569
11185,2023-01-20 10:50:24.019161,144067011,0,-0.7864661,-0.07463749,0.1333056,-0.5984395
11215,2023-01-20 10:50:24.119210,144166999,0,-0.7868334,-0.0679323,0.1372157,-0.5978715
11250,2023-01-20 10:50:24.219257,144267008,0,-0.7867429,-0.06618473,0.1365283,-0.5983437
11280,2023-01-20 10:50:24.319185,144366998,0,-0.7863982,-0.06407692,0.1395441,-0.5983307
11313,2023-01-20 10:50:24.419144,144466995,0,-0.7860966,-0.06226401,0.1419662,-0.5983486
11346,2023-01-20 10:50:24.519226,144567011,0,-0.7894378,-0.05594369,0.1419248,-0.5945718
11381,2023-01-20 10:50:24.619247,144666995,0,-0.793475,-0.05612683,0.1366525,-0.590401
11413,2023-01-20 10:50:24.719166,144766995,0,-0.7961674,-0.05633295,0.1339753,-0.5873626
11447,2023-01-20 10:50:24.819116,144867011,0,-0.8019724,-0.05353518,0.1366118,-0.5790607
11478,2023-01-20 10:50:24.919108,144967002,0,-0.8075541,-0.04724975,0.133035,-0.5726478
11511,2023-01-20 10:50:25.019109,145066998,0,-0.8119854,-0.02915464,0.1061896,-0.5731959
11541,2023-01-20 10:50:25.119153,145167012,0,-0.8144454,0.002171675,0.0637279,-0.5767259
11577,2023-01-20 10:50:25.219168,145267005,0,-0.8140071,0.03552799,0.01152772,-0.5796529
11607,2023-01-20 10:50:25.319158,145367001,0,-0.8096586,0.07609321,-0.04136746,-0.5804753
11640,2023-01-20 10:50:25.419162,145467007,0,-0.8053692,0.1018772,-0.08645368,-0.5775182
11672,2023-01-20 10:50:25.519176,145567008,0,-0.8005017,0.1019021,-0.1025316,-0.581636
11706,2023-01-20 10:50:25.619174,145666997,0,-0.7950732,0.105047,-0.08756671,-0.5908941
11738,2023-01-20 10:50:25.719171,145767007,0,-0.7900859,0.1195323,-0.07830506,-0.5961079
11771,2023-01-20 10:50:25.819156,145867007,0,-0.7876045,0.1298086,-0.08512405,-0.5963076
11803,2023-01-20 10:50:25.919123,145966998,0,-0.7856766,0.1323957,-0.1044511,-0.595209
11836,2023-01-20 10:50:26.019112,146066999,0,-0.7842373,0.1167677,-0.1155533,-0.5983183
11866,2023-01-20 10:50:26.119153,146167002,0,-0.7815034,0.1060875,-0.1093655,-0.6050101
11901,2023-01-20 10:50:26.219173,146266999,0,-0.7819118,0.09779436,-0.08156432,-0.610244
11931,2023-01-20 10:50:26.319138,146367000,0,-0.7830188,0.09395208,-0.06631772,-0.6112747
11964,2023-01-20 10:50:26.419113,146466998,0,-0.7879025,0.09186939,-0.04827374,-0.6069921
11996,2023-01-20 10:50:26.519163,146567018,0,-0.7937053,0.08166856,-0.03361754,-0.6018572
12030,2023-01-20 10:50:26.619179,146667011,0,-0.7973443,0.06753402,-0.02582601,-0.599178
12062,2023-01-20 10:50:26.719165,146767002,0,-0.799753,0.05963791,-0.01843304,-0.5970752
12095,2023-01-20 10:50:26.819160,146867006,0,-0.8033978,0.05098015,-0.005668926,-0.5932292
12126,2023-01-20 10:50:26.919128,146966998,0,-0.807065,0.04886389,0.008664603,-0.5883735
12159,2023-01-20 10:50:27.019115,147067003,0,-0.8103839,0.0422112,0.01634711,-0.5841482
12189,2023-01-20 10:50:27.119123,147167002,0,-0.8126431,0.03517646,0.01617367,-0.5814744
12224,2023-01-20 10:50:27.219127,147266995,0,-0.8130073,0.03767292,0.01361234,-0.580874
12254,2023-01-20 10:50:27.319146,147367000,0,-0.8119077,0.04035084,0.0101413,-0.5823013
12287,2023-01-20 10:50:27.417458,147467020,0,-0.8103771,0.03709564,0.004242661,-0.584718
12319,2023-01-20 10:50:27.508476,147567008,0,-0.8075506,0.03043775,-0.001055112,-0.5890115
12353,2023-01-20 10:50:27.599494,147666995,0,-0.8035037,0.0232002,-0.001684228,-0.5948451
12385,2023-01-20 10:50:27.699444,147767002,0,-0.7998945,0.02077064,0.0007045844,-0.5997809
12418,2023-01-20 10:50:27.799435,147867001,0,-0.798687,0.02305332,0.003774858,-0.6012932
12450,2023-01-20 10:50:27.899368,147966998,0,-0.7993781,0.02900594,0.004009642,-0.6001145
12483,2023-01-20 10:50:27.999305,148066999,0,-0.800669,0.03114412,-0.001267556,-0.5982957
12513,2023-01-20 10:50:28.099333,148167002,0,-0.8012314,0.02761355,-0.007841056,-0.5976657
12548,2023-01-20 10:50:28.199356,148267000,0,-0.8018969,0.01564475,-0.01441463,-0.5970837
12579,2023-01-20 10:50:28.299409,148367028,0,-0.8010733,0.01289345,-0.01256367,-0.5982955
12612,2023-01-20 10:50:28.399425,148467019,0,-0.7993929,0.01329779,-0.009393302,-0.600588
12644,2023-01-20 10:50:28.510302,148566998,0,-0.7974948,0.01396291,-0.006336648,-0.6031311
12678,2023-01-20 10:50:28.617436,148666995,0,-0.7967558,0.01074814,-0.006000152,-0.6041761
12710,2023-01-20 10:50:28.708443,148767002,0,-0.7977405,0.007768023,-0.005390812,-0.6029269
12743,2023-01-20 10:50:28.799439,148866998,0,-0.7997131,0.007516295,-0.006065226,-0.6003046
12776,2023-01-20 10:50:28.899272,148966999,0,-0.8023261,0.009137201,-0.002396052,-0.5968112
12809,2023-01-20 10:50:28.999158,149066999,0,-0.80489,0.007997866,0.0009301084,-0.5933695
12839,2023-01-20 10:50:29.099230,149167018,0,-0.8069746,0.005179314,0.001965839,-0.5905602
12875,2023-01-20 10:50:29.199267,149267001,0,-0.8080649,0.004586447,0.005768853,-0.5890475
12905,2023-01-20 10:50:29.299217,149367015,0,-0.8079834,0.004168022,0.003175404,-0.589182
12938,2023-01-20 10:50:29.399160,149467023,0,-0.8054516,0.002244387,0.004942883,-0.5926366
12970,2023-01-20 10:50:29.499153,149566998,0,-0.8022539,0.005468017,0.01310218,-0.5968142
13004,2023-01-20 10:50:29.599173,149666998,0,-0.8002903,0.007070039,0.0175963,-0.5993128
13036,2023-01-20 10:50:29.699169,149767003,0,-0.8015198,0.01283916,0.01941039,-0.5975151
13069,2023-01-20 10:50:29.799155,149866998,0,-0.8042943,0.01714685,0.01777609,-0.5937176
13100,2023-01-20 10:50:29.899134,149966999,0,-0.8068114,0.01594563,0.01545681,-0.5903918
13133,2023-01-20 10:50:29.999113,150067001,0,-0.8084426,0.01293303,0.009692589,-0.588353
13163,2023-01-20 10:50:30.099144,150166998,0,-0.8070198,0.004855548,0.005088799,-0.5904827
13198,2023-01-20 10:50:30.199175,150266995,0,-0.8028016,-0.003918718,3.731527E-05,-0.5962335
13228,2023-01-20 10:50:30.299201,150367020,0,-0.7980242,-0.005474977,0.0004649286,-0.6026003
13261,2023-01-20 10:50:30.399197,150467015,0,-0.7941455,-0.001602596,0.003682757,-0.6077145
13293,2023-01-20 10:50:30.499176,150566999,0,-0.7917087,0.00354897,0.004541954,-0.6108717
13327,2023-01-20 10:50:30.599179,150667008,0,-0.7894583,0.003019992,0.004212411,-0.6137823
13360,2023-01-20 10:50:30.699171,150767002,0,-0.7869031,-0.0003387283,0.002607349,-0.617071
13393,2023-01-20 10:50:30.799165,150866998,0,-0.7853512,-0.007433526,-0.001240566,-0.6190047
13424,2023-01-20 10:50:30.899136,150967002,0,-0.7856051,-0.01209537,-0.002668644,-0.6186043
13457,2023-01-20 10:50:30.999107,151067007,0,-0.7878718,-0.01493873,-0.0007679501,-0.6156576
13487,2023-01-20 10:50:31.099185,151166998,0,-0.7912443,-0.01559419,0.004378667,-0.6112857
13522,2023-01-20 10:50:31.199270,151266995,0,-0.7944278,-0.01779382,0.005939432,-0.607069
13552,2023-01-20 10:50:31.299237,151367011,0,-0.797148,-0.01903524,0.007088121,-0.6034423
13585,2023-01-20 10:50:31.399178,151467001,0,-0.7989371,-0.01802974,0.01162294,-0.6010321
13617,2023-01-20 10:50:31.499176,151567019,0,-0.7990459,-0.01694315,0.013356,-0.6008829
13650,2023-01-20 10:50:31.599145,151667008,0,-0.7971007,-0.00946458,0.01717909,-0.603528
13683,2023-01-20 10:50:31.699149,151766999,0,-0.7926117,-0.004492247,0.02249731,-0.609295
13716,2023-01-20 10:50:31.799161,151866998,0,-0.7873969,-0.003895574,0.02428029,-0.6159557
13748,2023-01-20 10:50:31.899148,151967008,0,-0.7842715,0.001298361,0.02393661,-0.6199546
13781,2023-01-20 10:50:31.999119,152067002,0,-0.782489,0.007501243,0.02070486,-0.6222749
13811,2023-01-20 10:50:32.099144,152167000,0,-0.7813199,0.009996098,0.02118865,-0.6236911
13846,2023-01-20 10:50:32.199179,152267008,0,-0.7819636,0.01129474,0.02338132,-0.6227831
13876,2023-01-20 10:50:32.299180,152367002,0,-0.7837413,0.01071784,0.02257457,-0.6205846
13909,2023-01-20 10:50:32.399195,152467011,0,-0.7861083,0.007798835,0.02094093,-0.6176848
13941,2023-01-20 10:50:32.499164,152567005,0,-0.788192,0.003563856,0.01667611,-0.6151931
13974,2023-01-20 10:50:32.599133,152666999,0,-0.7906334,0.003503635,0.01622096,-0.6120649
14007,2023-01-20 10:50:32.699142,152766995,0,-0.7925533,0.007580054,0.01715293,-0.6095142
14040,2023-01-20 10:50:32.799167,152867006,0,-0.7936897,0.01190609,0.01688602,-0.6079717
14071,2023-01-20 10:50:32.899139,152966999,0,-0.7945471,0.01479795,0.01745685,-0.6067712
14104,2023-01-20 10:50:32.999121,153067002,0,-0.7946621,0.01851056,0.02066066,-0.606418
14134,2023-01-20 10:50:33.099151,153167004,0,-0.7943792,0.02307922,0.02154783,-0.606601
14169,2023-01-20 10:50:33.199174,153266999,0,-0.7934468,0.02722612,0.0260617,-0.6074717
14199,2023-01-20 10:50:33.299181,153367002,0,-0.7914365,0.02830414,0.02840199,-0.6099349
14233,2023-01-20 10:50:33.399187,153467004,0,-0.7881829,0.02623862,0.02949578,-0.6141738
14266,2023-01-20 10:50:33.499185,153567006,0,-0.7848472,0.02078783,0.02647121,-0.6187747
14300,2023-01-20 10:50:33.599173,153666999,0,-0.7818189,0.01879648,0.02563841,-0.6226948
14333,2023-01-20 10:50:33.699172,153767004,0,-0.7793004,0.01780172,0.02425473,-0.6259279
14366,2023-01-20 10:50:33.799159,153866998,0,-0.7772303,0.01774381,0.02431088,-0.6284961
14399,2023-01-20 10:50:33.899140,153967005,0,-0.7761257,0.01974867,0.02344525,-0.6298327
14432,2023-01-20 10:50:33.999115,154067007,0,-0.7750313,0.02396891,0.02652412,-0.6309108
14462,2023-01-20 10:50:34.099117,154166995,0,-0.7751446,0.0257161,0.02785181,-0.6306456
14497,2023-01-20 10:50:34.199140,154267004,0,-0.7770727,0.03116485,0.03267214,-0.6277892
14527,2023-01-20 10:50:34.299169,154367009,0,-0.7795897,0.03515794,0.03307984,-0.6244276
14560,2023-01-20 10:50:34.399179,154466995,0,-0.7822759,0.03817056,0.03569214,-0.6207362
14593,2023-01-20 10:50:34.499219,154566999,0,-0.7858812,0.0408041,0.03301897,-0.6161459
14625,2023-01-20 10:50:34.599256,154666999,0,-0.7882949,0.04199877,0.032185,-0.6130183
14659,2023-01-20 10:50:34.699203,154766995,0,-0.7904508,0.03736229,0.02961162,-0.6106675
14692,2023-01-20 10:50:34.799161,154867002,0,-0.7922952,0.03199688,0.03149202,-0.6084841
14725,2023-01-20 10:50:34.899132,154967006,0,-0.7932659,0.02685959,0.0337829,-0.6073439
14758,2023-01-20 10:50:34.999091,155066998,0,-0.794306,0.02081748,0.03681883,-0.6060437
14788,2023-01-20 10:50:35.099185,155167007,0,-0.7954336,0.01439467,0.03613697,-0.6047912
14823,2023-01-20 10:50:35.199262,155266999,0,-0.7962355,0.007002676,0.03539316,-0.6039101
14853,2023-01-20 10:50:35.299260,155366998,0,-0.7973886,0.001862941,0.03619322,-0.602377
14886,2023-01-20 10:50:35.399254,155466995,0,-0.7981272,-0.004075414,0.03772958,-0.6012927
14918,2023-01-20 10:50:35.499281,155567021,0,-0.8005939,-0.007439517,0.03463928,-0.5981592
14951,2023-01-20 10:50:35.599270,155667009,0,-0.8036747,-0.00602783,0.03836842,-0.5938
14984,2023-01-20 10:50:35.699236,155766995,0,-0.8055197,-0.01145661,0.04411208,-0.5908138
15017,2023-01-20 10:50:35.799222,155867002,0,-0.8055432,-0.01832287,0.04932247,-0.5901964
15048,2023-01-20 10:50:35.899178,155966999,0,-0.8033321,-0.02628458,0.05136156,-0.5927298
15081,2023-01-20 10:50:35.999136,156066998,0,-0.8004774,-0.03124538,0.05338208,-0.5961627
15111,2023-01-20 10:50:36.099195,156167000,0,-0.7968362,-0.0339458,0.0543359,-0.600789
15146,2023-01-20 10:50:36.199253,156266999,0,-0.7929537,-0.03378565,0.0613772,-0.6052403
15176,2023-01-20 10:50:36.299216,156367010,0,-0.790293,-0.03296136,0.07015453,-0.6078066
15209,2023-01-20 10:50:36.399158,156467000,0,-0.7889536,-0.03121756,0.07874046,-0.6085865
15241,2023-01-20 10:50:36.499228,156567015,0,-0.7892758,-0.03339782,0.08372109,-0.6073872
15274,2023-01-20 10:50:36.599272,156667003,0,-0.7911785,-0.03432873,0.0910873,-0.603789
15307,2023-01-20 10:50:36.699269,156766995,0,-0.7931862,-0.03556529,0.095354,-0.6004152
15340,2023-01-20 10:50:36.799283,156867005,0,-0.7927729,-0.04061091,0.1036824,-0.5992595
15371,2023-01-20 10:50:36.899200,156967014,0,-0.7918966,-0.04773989,0.1058187,-0.599519
15404,2023-01-20 10:50:36.999097,157067004,0,-0.791378,-0.05295459,0.1071685,-0.5995262
15434,2023-01-20 10:50:37.099170,157166999,0,-0.7913646,-0.05551187,0.1039714,-0.5998756
15469,2023-01-20 10:50:37.199260,157267008,0,-0.7910284,-0.05694398,0.1059484,-0.5998386
15499,2023-01-20 10:50:37.299253,157366998,0,-0.7909826,-0.05651956,0.1070418,-0.5997451
15532,2023-01-20 10:50:37.399272,157467015,0,-0.7910606,-0.05896627,0.1128053,-0.5983487
15564,2023-01-20 10:50:37.499281,157567009,0,-0.7924334,-0.0566274,0.115859,-0.5961706
15597,2023-01-20 10:50:37.599283,157666995,0,-0.7916718,-0.06036764,0.1216329,-0.5956654
15630,2023-01-20 10:50:37.699278,157767005,0,-0.7893295,-0.06381518,0.1248986,-0.5977348
15663,2023-01-20 10:50:37.799283,157867025,0,-0.7848054,-0.07516795,0.1281847,-0.6016635
15695,2023-01-20 10:50:37.899210,157966995,0,-0.7816657,-0.07783868,0.1361261,-0.6036635
15728,2023-01-20 10:50:37.999179,158067007,0,-0.7796439,-0.07605234,0.1477889,-0.6037632
15758,2023-01-20 10:50:38.090253,158166998,0,-0.7790059,-0.06934957,0.1616243,-0.6018456
15791,2023-01-20 10:50:38.181271,158267009,0,-0.7798773,-0.0590246,0.1712055,-0.5991629
15823,2023-01-20 10:50:38.279411,158366998,0,-0.7794074,-0.05657266,0.1713525,-0.5999683
15854,2023-01-20 10:50:38.379427,158467012,0,-0.7787157,-0.05375138,0.1755766,-0.5999047
15889,2023-01-20 10:50:38.479405,158567015,0,-0.7793676,-0.0472966,0.1818376,-0.5977327
15921,2023-01-20 10:50:38.579366,158667008,0,-0.7810268,-0.04102245,0.1804508,-0.5964493
15956,2023-01-20 10:50:38.679347,158766999,0,-0.7812959,-0.04187624,0.1826685,-0.5953616
15987,2023-01-20 10:50:38.779363,158867020,0,-0.7810998,-0.04201008,0.1842631,-0.5951181
16022,2023-01-20 10:50:38.888057,158967001,0,-0.7787086,-0.05343441,0.1802021,-0.5985691
16055,2023-01-20 10:50:38.999037,159066999,0,-0.7764434,-0.05961393,0.1739382,-0.6027664
16085,2023-01-20 10:50:39.090212,159166999,0,-0.7752109,-0.06284101,0.1628651,-0.6071029
16119,2023-01-20 10:50:39.181221,159267007,0,-0.7760369,-0.06194894,0.1576218,-0.6075233
16151,2023-01-20 10:50:39.279324,159366995,0,-0.7766702,-0.06135183,0.1491835,-0.6089037
16182,2023-01-20 10:50:39.379302,159467008,0,-0.7759208,-0.0631285,0.145883,-0.6104753
16216,2023-01-20 10:50:39.479268,159566995,0,-0.7773811,-0.05882339,0.1416743,-0.6100385
16247,2023-01-20 10:50:39.579274,159667017,0,-0.7795981,-0.05678044,0.1348568,-0.6089471
16282,2023-01-20 10:50:39.679230,159767022,0,-0.7811861,-0.05642955,0.1319363,-0.6075828
16313,2023-01-20 10:50:39.779173,159867023,0,-0.7822679,-0.05842651,0.1332707,-0.6057082
16347,2023-01-20 10:50:39.879137,159966995,0,-0.7831254,-0.0586672,0.133421,-0.6045425
16378,2023-01-20 10:50:39.979149,160067002,0,-0.7837486,-0.06241813,0.1296527,-0.6041791
16410,2023-01-20 10:50:40.079200,160167008,0,-0.7844485,-0.06417284,0.1219036,-0.6046999
16444,2023-01-20 10:50:40.179258,160267011,0,-0.7855781,-0.06299169,0.1120232,-0.6052685
16476,2023-01-20 10:50:40.279218,160367001,0,-0.7874215,-0.05954731,0.1028406,-0.6048515
16507,2023-01-20 10:50:40.379174,160467008,0,-0.7886856,-0.05664057,0.1001966,-0.6039268
16541,2023-01-20 10:50:40.479160,160566995,0,-0.7893077,-0.06104172,0.09924228,-0.602842
16573,2023-01-20 10:50:40.579205,160667027,0,-0.7900308,-0.05908883,0.09390384,-0.6029446
16608,2023-01-20 10:50:40.679203,160767008,0,-0.7900776,-0.0554885,0.08934114,-0.6039178
16639,2023-01-20 10:50:40.779212,160866999,0,-0.7901412,-0.05198129,0.09094926,-0.6039066
16673,2023-01-20 10:50:40.879178,160966995,0,-0.7907507,-0.04910453,0.09573556,-0.6026084
16704,2023-01-20 10:50:40.979155,161067015,0,-0.7909135,-0.04358042,0.1006509,-0.6020184
16736,2023-01-20 10:50:41.079172,161166995,0,-0.7896013,-0.04394434,0.1055771,-0.6028701
16770,2023-01-20 10:50:41.179231,161266995,0,-0.788147,-0.04179477,0.1119472,-0.603776
16802,2023-01-20 10:50:41.279279,161367026,0,-0.7867491,-0.04186323,0.1162145,-0.6047872
16833,2023-01-20 10:50:41.379275,161467015,0,-0.7853384,-0.0439657,0.1142298,-0.6068461
16867,2023-01-20 10:50:41.479223,161566995,0,-0.7848546,-0.0449112,0.1101707,-0.6081519
16899,2023-01-20 10:50:41.579227,161667041,0,-0.7843366,-0.0475441,0.1080213,-0.6090052
16934,2023-01-20 10:50:41.679212,161767004,0,-0.7827904,-0.05070997,0.1107078,-0.6102552
16965,2023-01-20 10:50:41.779246,161866998,0,-0.7831039,-0.04472326,0.1146936,-0.6095847
16999,2023-01-20 10:50:41.879214,161966999,0,-0.7852895,-0.03732354,0.1152879,-0.6071541
17030,2023-01-20 10:50:41.979162,162066999,0,-0.7884029,-0.03458875,0.1147301,-0.6033751
17062,2023-01-20 10:50:42.079186,162166995,0,-0.7914215,-0.03283336,0.1132893,-0.5997828
17096,2023-01-20 10:50:42.179251,162267011,0,-0.7933959,-0.03487795,0.1150844,-0.5967093
17128,2023-01-20 10:50:42.279223,162367011,0,-0.7945275,-0.03430165,0.1141121,-0.5954226
17159,2023-01-20 10:50:42.379158,162466995,0,-0.7948881,-0.03078533,0.1156543,-0.5948355
17193,2023-01-20 10:50:42.479172,162567007,0,-0.7953067,-0.02628949,0.1169061,-0.5942467
17225,2023-01-20 10:50:42.579208,162667029,0,-0.7950362,-0.02299813,0.11537,-0.5950449
17260,2023-01-20 10:50:42.679179,162766999,0,-0.7926672,-0.02447797,0.110984,-0.5989676
17291,2023-01-20 10:50:42.779176,162866998,0,-0.7918169,-0.02110651,0.1075251,-0.6008485
17325,2023-01-20 10:50:42.879147,162967000,0,-0.7909539,-0.02076015,0.1048336,-0.6024708
17356,2023-01-20 10:50:42.979109,163066999,0,-0.7899368,-0.02330477,0.105723,-0.6035557
17388,2023-01-20 10:50:43.079159,163166995,0,-0.7895852,-0.02338256,0.1043846,-0.6042452
17422,2023-01-20 10:50:43.179242,163267000,0,-0.7888536,-0.02885311,0.1006827,-0.6055911
17454,2023-01-20 10:50:43.279275,163367017,0,-0.7884713,-0.02960132,0.1028294,-0.6056921
17485,2023-01-20 10:50:43.379253,163466994,0,-0.7888319,-0.02825198,0.1082723,-0.604337
17519,2023-01-20 10:50:43.479235,163567011,0,-0.7880914,-0.03458445,0.1100583,-0.6046512
17552,2023-01-20 10:50:43.579216,163667036,0,-0.7868196,-0.03876645,0.114422,-0.6052435
17587,2023-01-20 10:50:43.679169,163766995,0,-0.785606,-0.03684448,0.1136833,-0.6070765
17618,2023-01-20 10:50:43.779175,163866998,0,-0.7853059,-0.03212951,0.1137449,-0.6077208
17654,2023-01-20 10:50:43.879163,163966999,0,-0.7857829,-0.02702641,0.1191753,-0.6063101
17685,2023-01-20 10:50:43.979146,164066999,0,-0.7868283,-0.02497639,0.121433,-0.604592
17717,2023-01-20 10:50:44.079194,164167007,0,-0.787311,-0.02908411,0.1205148,-0.6039634
17751,2023-01-20 10:50:44.179247,164267005,0,-0.7865917,-0.03791404,0.1219506,-0.6041226
17783,2023-01-20 10:50:44.279254,164367001,0,-0.7856265,-0.0459424,0.1284525,-0.6034735
17814,2023-01-20 10:50:44.379247,164466995,0,-0.7854058,-0.04512506,0.1429033,-0.6005666
17849,2023-01-20 10:50:44.479269,164567017,0,-0.7850912,-0.04513857,0.1522543,-0.598676
17881,2023-01-20 10:50:44.579269,164667018,0,-0.7847893,-0.04612942,0.1475207,-0.6001795
17916,2023-01-20 10:50:44.679233,164766995,0,-0.7850288,-0.04467805,0.141429,-0.6014411
17947,2023-01-20 10:50:44.779219,164866998,0,-0.7824701,-0.05363965,0.1380773,-0.6048125
17981,2023-01-20 10:50:44.879172,164966999,0,-0.7792224,-0.05810237,0.1461656,-0.6066895
18012,2023-01-20 10:50:44.979116,165067000,0,-0.7805603,-0.05336375,0.150817,-0.6042618
18044,2023-01-20 10:50:45.079178,165167004,0,-0.7843584,-0.04964653,0.15592,-0.5983361
18078,2023-01-20 10:50:45.179261,165266999,0,-0.7881617,-0.04983884,0.1537426,-0.593869
18110,2023-01-20 10:50:45.279270,165367002,0,-0.7921259,-0.04692621,0.1485851,-0.590133
18141,2023-01-20 10:50:45.379257,165467004,0,-0.7943097,-0.04660078,0.151819,-0.5863884
18175,2023-01-20 10:50:45.479213,165566999,0,-0.7939264,-0.04902222,0.1433342,-0.5888404
18207,2023-01-20 10:50:45.579194,165667026,0,-0.7931702,-0.04767844,0.1367933,-0.5915196
18242,2023-01-20 10:50:45.679200,165767004,0,-0.7917176,-0.04635871,0.129937,-0.5951055
18273,2023-01-20 10:50:45.779261,165867018,0,-0.7898303,-0.04359529,0.125195,-0.5988271
18307,2023-01-20 10:50:45.879222,165967006,0,-0.7884176,-0.04065252,0.1207687,-0.6017974
18338,2023-01-20 10:50:45.979174,166067004,0,-0.7876092,-0.03729801,0.1152137,-0.6041576
18370,2023-01-20 10:50:46.079165,166166996,0,-0.7867572,-0.03755658,0.1112588,-0.6059904
18404,2023-01-20 10:50:46.179181,166266999,0,-0.7860065,-0.03824827,0.1112294,-0.6069258
18436,2023-01-20 10:50:46.279232,166367007,0,-0.7851876,-0.03849485,0.118095,-0.6066729
18467,2023-01-20 10:50:46.379271,166466995,0,-0.7845188,-0.04114137,0.118595,-0.6072668
18501,2023-01-20 10:50:46.479272,166566999,0,-0.7846882,-0.04141384,0.1148742,-0.6077443
18533,2023-01-20 10:50:46.579286,166667030,0,-0.7851543,-0.03800911,0.1091581,-0.608418
18568,2023-01-20 10:50:46.679219,166766995,0,-0.7852596,-0.03345028,0.1061077,-0.6090892
18599,2023-01-20 10:50:46.779190,166867003,0,-0.784029,-0.03129135,0.1075046,-0.6105425
18633,2023-01-20 10:50:46.872054,166967029,0,-0.7828202,-0.02799673,0.1147373,-0.6109371
18664,2023-01-20 10:50:46.962998,167067002,0,-0.7831767,-0.02645653,0.1166322,-0.6101896
18696,2023-01-20 10:50:47.059345,167167001,0,-0.7849849,-0.02450822,0.1201341,-0.607261
18730,2023-01-20 10:50:47.159389,167267008,0,-0.7873591,-0.02491461,0.1175468,-0.6046717
18762,2023-01-20 10:50:47.259395,167366997,0,-0.7883449,-0.02976243,0.1121551,-0.6041921
18793,2023-01-20 10:50:47.359400,167466999,0,-0.790406,-0.02296551,0.103163,-0.6033974
18826,2023-01-20 10:50:47.459409,167567008,0,-0.7929316,-0.01788949,0.09105231,-0.6022035
18858,2023-01-20 10:50:47.559395,167666997,0,-0.7941522,-0.02178424,0.08973162,-0.6006631
18893,2023-01-20 10:50:47.659409,167766999,0,-0.7935951,-0.02549195,0.08982489,-0.6012391
18924,2023-01-20 10:50:47.759433,167867002,0,-0.7902063,-0.03056506,0.08187553,-0.6065774
18958,2023-01-20 10:50:47.859432,167967016,0,-0.7872912,-0.0334475,0.08462287,-0.6098303
18989,2023-01-20 10:50:47.959370,168066994,0,-0.7867331,-0.02893986,0.08400931,-0.610865
19021,2023-01-20 10:50:48.059368,168167008,0,-0.7878149,-0.02113013,0.08936596,-0.609028
19055,2023-01-20 10:50:48.159359,168266999,0,-0.7892724,-0.02075276,0.09125218,-0.6068704
19087,2023-01-20 10:50:48.259341,168367001,0,-0.7905996,-0.02009929,0.09032788,-0.605301
19118,2023-01-20 10:50:48.359307,168466999,0,-0.7924712,-0.01897521,0.08727475,-0.6033345
19152,2023-01-20 10:50:48.459285,168566999,0,-0.7936561,-0.01878964,0.08859847,-0.6015873
19184,2023-01-20 10:50:48.559275,168667002,0,-0.7940152,-0.0156723,0.09509736,-0.6002089
19220,2023-01-20 10:50:48.659267,168767019,0,-0.793524,-0.01421547,0.1029709,-0.5995954
19251,2023-01-20 10:50:48.759220,168867006,0,-0.7915072,-0.01214818,0.1123984,-0.6006125
19287,2023-01-20 10:50:48.859167,168966995,0,-0.7890348,-0.01163489,0.1203134,-0.6023398
19318,2023-01-20 10:50:48.959124,169067000,0,-0.7869703,-0.00957359,0.1242429,-0.6042762
19350,2023-01-20 10:50:49.059133,169167000,0,-0.7845921,-0.01470194,0.1258741,-0.6069225
19384,2023-01-20 10:50:49.159182,169267001,0,-0.7827566,-0.01635217,0.1196685,-0.6104952
19416,2023-01-20 10:50:49.259240,169367003,0,-0.7814015,-0.01634563,0.1167974,-0.6127831
19447,2023-01-20 10:50:49.359296,169466999,0,-0.7795104,-0.01680276,0.1185677,-0.6148356
19481,2023-01-20 10:50:49.459271,169566999,0,-0.7770597,-0.01706681,0.1259189,-0.6164668
19513,2023-01-20 10:50:49.559187,169666997,0,-0.7771261,-0.01428169,0.1256314,-0.6165127
19548,2023-01-20 10:50:49.659186,169766999,0,-0.7780551,-0.02072166,0.1277194,-0.6147266
19579,2023-01-20 10:50:49.759239,169867002,0,-0.7799996,-0.02220747,0.1278692,-0.6121742
19613,2023-01-20 10:50:49.859222,169966995,0,-0.7811468,-0.02505706,0.1314304,-0.6098426
19644,2023-01-20 10:50:49.959192,170067016,0,-0.7812634,-0.02538554,0.1369828,-0.6084561
19676,2023-01-20 10:50:50.059158,170167008,0,-0.7798119,-0.02359187,0.1416601,-0.6093189
19752,2023-01-20 10:50:50.159136,170266994,0,-0.778355,-0.02078497,0.1416287,-0.6112879
19784,2023-01-20 10:50:50.259172,170367009,0,-0.7779652,-0.02125608,0.139811,-0.6121857
19815,2023-01-20 10:50:50.359215,170467008,0,-0.7779263,-0.02188521,0.1359697,-0.6130776
19849,2023-01-20 10:50:50.459229,170566995,0,-0.7770314,-0.02709959,0.1346605,-0.6142919
19881,2023-01-20 10:50:50.559247,170666995,0,-0.7766469,-0.03175465,0.1300907,-0.6155386
19916,2023-01-20 10:50:50.659271,170767013,0,-0.7764167,-0.03422515,0.1282693,-0.6160786
19947,2023-01-20 10:50:50.759258,170867002,0,-0.777564,-0.03182025,0.1258941,-0.6152499
19981,2023-01-20 10:50:50.859207,170966995,0,-0.7799922,-0.02822258,0.1262027,-0.6122813
20012,2023-01-20 10:50:50.959148,171067008,0,-0.7825295,-0.0256284,0.1281299,-0.6087476
20044,2023-01-20 10:50:51.059155,171167002,0,-0.7852163,-0.02431726,0.1241293,-0.6061649
20078,2023-01-20 10:50:51.159229,171267003,0,-0.7881899,-0.01977917,0.1234836,-0.6025922
20110,2023-01-20 10:50:51.259288,171367034,0,-0.7899519,-0.01855378,0.1234466,-0.6003271
20141,2023-01-20 10:50:51.359250,171466999,0,-0.7900902,-0.01866184,0.1242898,-0.5999677
20175,2023-01-20 10:50:51.459216,171566995,0,-0.7895445,-0.01907456,0.1244176,-0.6006463
20207,2023-01-20 10:50:51.559181,171667007,0,-0.7882406,-0.01936907,0.1282255,-0.6015479
20242,2023-01-20 10:50:51.659189,171767000,0,-0.7863816,-0.02163013,0.1328039,-0.6029091
20273,2023-01-20 10:50:51.759246,171866998,0,-0.7842122,-0.02502822,0.137518,-0.6045442
20307,2023-01-20 10:50:51.859252,171967019,0,-0.783384,-0.02336727,0.136495,-0.6059148
20338,2023-01-20 10:50:51.959167,172066999,0,-0.7823857,-0.02701474,0.1318589,-0.6080756
20370,2023-01-20 10:50:52.059134,172166995,0,-0.7816784,-0.03156985,0.1253261,-0.6101439
20404,2023-01-20 10:50:52.159141,172267004,0,-0.7812793,-0.03721637,0.117757,-0.6118423
20436,2023-01-20 10:50:52.259163,172367001,0,-0.7811279,-0.04302544,0.1137333,-0.6124155
20467,2023-01-20 10:50:52.359204,172466999,0,-0.7815616,-0.04279766,0.1140561,-0.6118181
20501,2023-01-20 10:50:52.459237,172567004,0,-0.7807826,-0.04318317,0.1159639,-0.6124265
20533,2023-01-20 10:50:52.559254,172667004,0,-0.7797541,-0.04234096,0.1150859,-0.6139593
20568,2023-01-20 10:50:52.659223,172766998,0,-0.7793918,-0.04143349,0.1146346,-0.6145654
20599,2023-01-20 10:50:52.759192,172867022,0,-0.7804558,-0.03923666,0.1182182,-0.6126776
20633,2023-01-20 10:50:52.859144,172966997,0,-0.781988,-0.0386101,0.1217465,-0.6100672
20664,2023-01-20 10:50:52.959144,173066999,0,-0.7841382,-0.03588564,0.121021,-0.607613
20696,2023-01-20 10:50:53.059171,173167004,0,-0.7859894,-0.0377662,0.1172796,-0.6058383
20730,2023-01-20 10:50:53.159202,173266995,0,-0.7870643,-0.03773097,0.117143,-0.60447
20762,2023-01-20 10:50:53.259234,173367003,0,-0.7873445,-0.03582309,0.1208247,-0.6034955
20793,2023-01-20 10:50:53.359254,173467009,0,-0.7876551,-0.03378966,0.1214137,-0.6030892
20827,2023-01-20 10:50:53.459215,173566994,0,-0.7889681,-0.02912411,0.1231982,-0.6012514
20859,2023-01-20 10:50:53.559175,173667002,0,-0.7906327,-0.02797363,0.1163221,-0.6004887
20894,2023-01-20 10:50:53.659195,173767005,0,-0.7912629,-0.02868597,0.1060925,-0.6015187
20926,2023-01-20 10:50:53.759252,173866998,0,-0.7914037,-0.02293646,0.09961672,-0.6026861
20962,2023-01-20 10:50:53.859258,173967018,0,-0.7911205,-0.01669026,0.09912001,-0.6033451
20993,2023-01-20 10:50:53.959172,174066999,0,-0.7914077,-0.01049883,0.0927446,-0.604121
21025,2023-01-20 10:50:54.053754,174166995,0,-0.7920427,-0.006402181,0.0857135,-0.6043844
21059,2023-01-20 10:50:54.144651,174266999,0,-0.7925795,-0.006846622,0.0830508,-0.6040477
21091,2023-01-20 10:50:54.243493,174367005,0,-0.792204,-0.01079259,0.08566222,-0.6041178
21122,2023-01-20 10:50:54.354686,174466995,0,-0.7915584,-0.01410736,0.08777035,-0.604593
21157,2023-01-20 10:50:54.459241,174566995,0,-0.7907848,-0.01560697,0.09105404,-0.6050827
21189,2023-01-20 10:50:54.559233,174667005,0,-0.7907046,-0.01553309,0.09432136,-0.6046889
21224,2023-01-20 10:50:54.659195,174766995,0,-0.7908239,-0.01422359,0.09761656,-0.6040417
21255,2023-01-20 10:50:54.759189,174867023,0,-0.7917548,-0.01054146,0.1014654,-0.6022609
21289,2023-01-20 10:50:54.859146,174966999,0,-0.7925695,-0.01169977,0.1023749,-0.6010127
21320,2023-01-20 10:50:54.959137,175066999,0,-0.7938184,-0.009560824,0.1079458,-0.5984221
21352,2023-01-20 10:50:55.059165,175167004,0,-0.7945076,-0.008217311,0.1130566,-0.5965806
21386,2023-01-20 10:50:55.159206,175267000,0,-0.7941961,-0.007353902,0.1211835,-0.59541
21418,2023-01-20 10:50:55.259197,175367002,0,-0.7929433,-0.004508568,0.1278819,-0.595707
21449,2023-01-20 10:50:55.359149,175467004,0,-0.7904858,-0.009509362,0.1291271,-0.5986385
21483,2023-01-20 10:50:55.459161,175567000,0,-0.7879208,-0.01549867,0.1314465,-0.6013838
21515,2023-01-20 10:50:55.559224,175667001,0,-0.7841643,-0.01441144,0.1385269,-0.6047223
21550,2023-01-20 10:50:55.659256,175767004,0,-0.7812807,-0.01166219,0.1459676,-0.6067602
21581,2023-01-20 10:50:55.759271,175867014,0,-0.7820278,-0.005742469,0.1461596,-0.6058358
21615,2023-01-20 10:50:55.859241,175967015,0,-0.7835522,-0.006956478,0.144424,-0.6042675
21646,2023-01-20 10:50:55.959175,176067004,0,-0.7838121,-0.01677114,0.1415205,-0.6044247
21678,2023-01-20 10:50:56.059136,176166995,0,-0.7838265,-0.02002161,0.1460197,-0.6032357
21712,2023-01-20 10:50:56.159129,176266999,0,-0.7835612,-0.0171374,0.1555611,-0.6012812
21744,2023-01-20 10:50:56.253758,176367011,0,-0.7843796,-0.01313332,0.1575011,-0.599808
21775,2023-01-20 10:50:56.344649,176466995,0,-0.7846258,-0.01818617,0.1509533,-0.6010365
21809,2023-01-20 10:50:56.439108,176566999,0,-0.7850903,-0.02250749,0.1411642,-0.6026602
21841,2023-01-20 10:50:56.539099,176667009,0,-0.7853727,-0.02783399,0.1351153,-0.6034559
21876,2023-01-20 10:50:56.639074,176766995,0,-0.7842938,-0.03244682,0.1353133,-0.6045833
21907,2023-01-20 10:50:56.739097,176867017,0,-0.7832214,-0.03811189,0.1362041,-0.6054421
21941,2023-01-20 10:50:56.839062,176966999,0,-0.7833679,-0.03634507,0.1415328,-0.6041378
21972,2023-01-20 10:50:56.939011,177066995,0,-0.7838684,-0.0328492,0.1410917,-0.6037916
22004,2023-01-20 10:50:57.043371,177166995,0,-0.7847409,-0.02884926,0.1404249,-0.6030177
22038,2023-01-20 10:50:57.154631,177266999,0,-0.7844486,-0.02932902,0.1409716,-0.6032473
22070,2023-01-20 10:50:57.253800,177366998,0,-0.7838765,-0.03276356,0.1366535,-0.6048057
22100,2023-01-20 10:50:57.344651,177467000,0,-0.7838345,-0.03167094,0.1313503,-0.606092
22134,2023-01-20 10:50:57.439062,177566999,0,-0.783883,-0.02943206,0.1263547,-0.6072032
22166,2023-01-20 10:50:57.539034,177667002,0,-0.7844684,-0.02981009,0.1211525,-0.6074889
22201,2023-01-20 10:50:57.639015,177766995,0,-0.785561,-0.0306156,0.1141379,-0.6073955
22232,2023-01-20 10:50:57.739064,177867026,0,-0.786516,-0.02776459,0.1114662,-0.6067924
22266,2023-01-20 10:50:57.839037,177967015,0,-0.7870148,-0.02449577,0.1132144,-0.6059623
22297,2023-01-20 10:50:57.938953,178066999,0,-0.7874688,-0.02337817,0.1181669,-0.6044691
22329,2023-01-20 10:50:58.038917,178166999,0,-0.7877235,-0.02380545,0.1240315,-0.6029438
22363,2023-01-20 10:50:58.138928,178266999,0,-0.78816,-0.02578027,0.1224228,-0.6026209
22395,2023-01-20 10:50:58.238946,178367013,0,-0.7883515,-0.02797868,0.1189092,-0.6029757
22426,2023-01-20 10:50:58.338920,178466996,0,-0.7881148,-0.02729338,0.1137089,-0.6043181
22460,2023-01-20 10:50:58.438931,178567000,0,-0.7876785,-0.02500049,0.1119473,-0.6053144
22492,2023-01-20 10:50:58.538968,178667006,0,-0.7877274,-0.02128399,0.1100066,-0.6057484
22527,2023-01-20 10:50:58.638973,178766995,0,-0.7879152,-0.01827933,0.1130685,-0.605038
22558,2023-01-20 10:50:58.738973,178867002,0,-0.7876886,-0.01493918,0.1173226,-0.6046149
22593,2023-01-20 10:50:58.838955,178967008,0,-0.7870182,-0.0128209,0.120871,-0.6048375
22626,2023-01-20 10:50:58.938893,179066995,0,-0.7869838,-0.01214261,0.1188911,-0.6052884
22658,2023-01-20 10:50:59.038879,179166999,0,-0.7871559,-0.01373402,0.1154189,-0.6057026
22692,2023-01-20 10:50:59.138922,179267008,0,-0.78729,-0.01645776,0.1116572,-0.6061652
22724,2023-01-20 10:50:59.238937,179367003,0,-0.7872295,-0.01754824,0.1053734,-0.607337
22755,2023-01-20 10:50:59.338954,179467023,0,-0.7872072,-0.01859659,0.1041289,-0.6075493
22789,2023-01-20 10:50:59.438929,179567009,0,-0.7870136,-0.0195865,0.1082963,-0.6070403
22821,2023-01-20 10:50:59.538900,179667003,0,-0.786559,-0.02105992,0.1110059,-0.6070907
22856,2023-01-20 10:50:59.638906,179767002,0,-0.7856216,-0.02117618,0.1117811,-0.6081573
22887,2023-01-20 10:50:59.738970,179867011,0,-0.7845135,-0.02173187,0.1105227,-0.6097959
22921,2023-01-20 10:50:59.838967,179966995,0,-0.7834359,-0.02173561,0.108947,-0.6114625
22952,2023-01-20 10:50:59.938916,180066995,0,-0.7828237,-0.02048124,0.107774,-0.612497
22984,2023-01-20 10:51:00.038895,180167008,0,-0.7821584,-0.01872292,0.1080351,-0.6133564
23018,2023-01-20 10:51:00.138873,180266995,0,-0.7810819,-0.02123938,0.1130842,-0.6137362
23050,2023-01-20 10:51:00.238886,180367001,0,-0.7802764,-0.02263881,0.1190084,-0.6135904
23081,2023-01-20 10:51:00.338941,180467024,0,-0.779637,-0.01969038,0.1228972,-0.6137382
23115,2023-01-20 10:51:00.438944,180567015,0,-0.7799605,-0.01518205,0.1289679,-0.612208
23147,2023-01-20 10:51:00.538910,180666998,0,-0.7805059,-0.01340206,0.1387744,-0.6094036
23182,2023-01-20 10:51:00.638912,180767009,0,-0.7811332,-0.01637068,0.1429789,-0.6075525
23213,2023-01-20 10:51:00.738911,180867002,0,-0.7817971,-0.01716414,0.1454463,-0.6060892
23247,2023-01-20 10:51:00.838909,180967000,0,-0.7816549,-0.01900234,0.15,-0.6051072
23278,2023-01-20 10:51:00.938906,181067008,0,-0.7823595,-0.0192314,0.1550614,-0.6029093
23310,2023-01-20 10:51:01.038899,181166999,0,-0.7836413,-0.01836393,0.1584928,-0.6003743
23344,2023-01-20 10:51:01.138923,181267001,0,-0.7835537,-0.02166521,0.1597464,-0.6000462
23376,2023-01-20 10:51:01.238940,181367007,0,-0.782524,-0.02745689,0.158926,-0.6013692
23407,2023-01-20 10:51:01.338926,181467000,0,-0.7814966,-0.03099653,0.157623,-0.6028741
23441,2023-01-20 10:51:01.438919,181566995,0,-0.7807847,-0.03257656,0.1552231,-0.6043342
23473,2023-01-20 10:51:01.538930,181667003,0,-0.7803363,-0.0331122,0.1536833,-0.6052772
23508,2023-01-20 10:51:01.638944,181767015,0,-0.7802663,-0.03593132,0.1499287,-0.6061476
23539,2023-01-20 10:51:01.738929,181867002,0,-0.7809485,-0.03626312,0.1437196,-0.606753
23573,2023-01-20 10:51:01.838908,181966995,0,-0.782015,-0.03693832,0.1359154,-0.6071368
23604,2023-01-20 10:51:01.938882,182066999,0,-0.7821541,-0.03803121,0.1314949,-0.6078634
23636,2023-01-20 10:51:02.038868,182166999,0,-0.7814525,-0.03701765,0.130147,-0.6091169
23670,2023-01-20 10:51:02.138879,182266995,0,-0.7805318,-0.034728,0.1315065,-0.6101395
23702,2023-01-20 10:51:02.238902,182367001,0,-0.780611,-0.03247202,0.1333535,-0.6097615
23733,2023-01-20 10:51:02.338940,182467015,0,-0.78169,-0.03160571,0.1349263,-0.6080763
23767,2023-01-20 10:51:02.438942,182567011,0,-0.7822562,-0.03308714,0.1352941,-0.6071869
23799,2023-01-20 10:51:02.538909,182666998,0,-0.7824326,-0.03430043,0.1337315,-0.6072385
23834,2023-01-20 10:51:02.638894,182766999,0,-0.7826654,-0.03389117,0.132765,-0.6071736
23865,2023-01-20 10:51:02.738882,182866998,0,-0.7829369,-0.03128564,0.1306095,-0.6074307
23899,2023-01-20 10:51:02.838875,182966994,0,-0.7834201,-0.02953906,0.1307981,-0.6068544
23930,2023-01-20 10:51:02.938904,183067013,0,-0.7839701,-0.03030614,0.1293088,-0.6064255
23962,2023-01-20 10:51:03.038918,183167016,0,-0.7843943,-0.03233186,0.1250268,-0.60667
23996,2023-01-20 10:51:03.138909,183266994,0,-0.7846363,-0.03537515,0.1241932,-0.6063585
24028,2023-01-20 10:51:03.238947,183367027,0,-0.7844328,-0.03506652,0.1263173,-0.6062009
24059,2023-01-20 10:51:03.338926,183467015,0,-0.7849522,-0.03250035,0.1284332,-0.6052261
24093,2023-01-20 10:51:03.438906,183566995,0,-0.7848848,-0.0322812,0.1268086,-0.6056677
24125,2023-01-20 10:51:03.538922,183666999,0,-0.784333,-0.03358136,0.1272611,-0.6062167
