LineNo,UTC_Approx,TimeUS,C,V00,V01,V02,V03,V04,V05,V06,V07,V08,V09,V10,V11
1558,2023-01-20 10:49:56.664880,116666343,0,0.0002379293,7.078503E-06,7.048654E-06,3.589581E-05,0.04905101,0.0490513,0.01512436,0.4252145,0.4252151,0.1787619,4.21342E-11,4.216109E-11
2067,2023-01-20 10:49:57.164406,117166344,0,0.0002374148,7.319946E-06,7.290243E-06,3.577572E-05,0.07166692,0.07166667,0.01624609,0.4468372,0.446838,0.2042356,4.245895E-11,4.248549E-11
2347,2023-01-20 10:49:57.664269,117666343,0,0.0002369115,7.479743E-06,7.450165E-06,3.565496E-05,0.08529325,0.08529211,0.01683444,0.4339496,0.4339504,0.2269142,4.266082E-11,4.268724E-11
2574,2023-01-20 10:49:58.164315,118166343,0,0.0002364149,7.97596E-06,7.946623E-06,3.554011E-05,0.1028545,0.1028527,0.01765108,0.4610253,0.4610261,0.2522721,4.329989E-11,4.332625E-11
2776,2023-01-20 10:49:58.664277,118666358,0,0.0002359076,8.513434E-06,8.484004E-06,3.544404E-05,0.09644849,0.09644695,0.01781238,0.4440808,0.4440812,0.2717486,4.395082E-11,4.397747E-11
2978,2023-01-20 10:49:59.164279,119166350,0,0.0002354765,9.227789E-06,9.198362E-06,3.528596E-05,0.09991352,0.09991204,0.01825378,0.4695688,0.4695691,0.2935869,4.481772E-11,4.484458E-11
3178,2023-01-20 10:49:59.664291,119666375,0,0.0002349861,9.981295E-06,9.952015E-06,3.519801E-05,0.08648899,0.08648743,0.01808224,0.4486608,0.448661,0.3082403,4.569509E-11,4.572255E-11
3376,2023-01-20 10:50:00.164280,120166355,0,0.000234571,1.081645E-05,1.078652E-05,3.504562E-05,0.08564076,0.08563974,0.01828183,0.4721237,0.4721234,0.3256098,4.663998E-11,4.666786E-11
3577,2023-01-20 10:50:00.664271,120666346,0,0.0002340889,1.1682E-05,1.165131E-05,3.496911E-05,0.07300283,0.07300236,0.01788316,0.4482843,0.4482841,0.3347465,4.757427E-11,4.760316E-11
3759,2023-01-20 10:50:01.164248,121166365,0,0.0002336867,1.260517E-05,1.25737E-05,3.482444E-05,0.07188077,0.07187938,0.01795722,0.470484,0.4704833,0.3478143,4.853765E-11,4.856722E-11
3922,2023-01-20 10:50:01.664229,121666348,0,0.0002332783,1.356096E-05,1.352692E-05,3.469563E-05,0.06302122,0.06301925,0.0175522,0.4495516,0.4495508,0.3536667,4.948333E-11,4.951428E-11
4083,2023-01-20 10:50:02.164194,122166353,0,0.0002309313,1.455919E-05,1.457149E-05,3.666196E-05,0.06144833,0.06144487,0.01751828,0.469359,0.469358,0.3632142,5.044582E-11,5.047776E-11
4247,2023-01-20 10:50:02.663437,122666351,0,0.0002299713,1.561372E-05,1.559094E-05,3.710048E-05,0.0542386,0.05423424,0.01702458,0.4466559,0.4466549,0.364994,5.136127E-11,5.139479E-11
4407,2023-01-20 10:50:03.163459,123166375,0,0.0002273588,1.672037E-05,1.666478E-05,3.918697E-05,0.05319777,0.05318868,0.01695037,0.4640959,0.464095,0.3708706,5.229336E-11,5.232773E-11
4571,2023-01-20 10:50:03.663474,123666355,0,0.0002260343,1.794688E-05,1.782413E-05,3.981995E-05,0.04751949,0.04750665,0.01462485,0.4416327,0.4416323,0.2939754,5.318444E-11,5.322103E-11
4732,2023-01-20 10:50:04.164192,124166346,0,0.0002229853,1.892623E-05,1.893123E-05,4.252823E-05,0.04908689,0.04909332,0.01360607,0.4658614,0.4658595,0.2432093,5.40613E-11,5.409988E-11
4897,2023-01-20 10:50:04.664165,124666357,0,0.0002260039,2.020555E-05,2.013336E-05,3.880389E-05,0.04613999,0.04614073,0.0129283,0.4524153,0.4524142,0.2111402,5.4838E-11,5.487871E-11
5056,2023-01-20 10:50:05.164199,125166348,0,0.0002287939,2.125141E-05,2.120363E-05,3.574316E-05,0.04687561,0.04691635,0.01270292,0.4733313,0.4733309,0.1912327,5.560983E-11,5.565049E-11
5221,2023-01-20 10:50:05.664237,125666350,0,0.0002244103,2.229797E-05,2.229678E-05,3.959189E-05,0.04356604,0.04364375,0.01238194,0.4545013,0.4545019,0.1762836,5.617797E-11,5.62171E-11
5380,2023-01-20 10:50:06.144339,126166357,0,0.0002311602,2.352515E-05,2.34922E-05,3.237508E-05,0.04445094,0.0446033,0.01239595,0.4766128,0.4766215,0.1679402,5.685426E-11,5.689178E-11
5546,2023-01-20 10:50:06.641816,126666366,0,0.01020543,0.0001029294,0.0001108729,0.0009507744,0.04271922,0.04371432,0.01221247,0.4586538,0.4586663,0.1604594,5.744007E-11,5.747523E-11
5705,2023-01-20 10:50:07.141493,127166349,0,0.008420437,8.234668E-05,0.0001077403,0.0007204463,0.05610216,0.06488727,0.01237364,0.4770823,0.4772541,0.1562508,5.83513E-11,5.838477E-11
5869,2023-01-20 10:50:07.646106,127666349,0,0.007623381,7.69494E-05,9.75937E-05,0.0006351444,0.06777857,0.07885537,0.01229457,0.4567855,0.4570451,0.1522363,5.929982E-11,5.933517E-11
6030,2023-01-20 10:50:08.141378,128166352,0,0.007157518,6.529488E-05,8.317911E-05,0.0006243183,0.08626321,0.09887765,0.01245753,0.4771477,0.4783243,0.1506993,6.021695E-11,6.02529E-11
6194,2023-01-20 10:50:08.641444,128666362,0,0.006680424,5.321246E-05,8.893768E-05,0.0006935982,0.0867173,0.0932223,0.01218542,0.4579975,0.4589843,0.1484706,6.104634E-11,6.106975E-11
6356,2023-01-20 10:50:09.141672,129166352,0,0.006528188,5.041163E-05,6.28792E-05,0.0006580797,0.09282092,0.09730575,0.01206938,0.4773402,0.4787979,0.1476217,6.189023E-11,6.18947E-11
6520,2023-01-20 10:50:09.639155,129666642,0,0.006235614,4.652215E-05,9.524317E-05,0.0007201534,0.08458608,0.08481132,0.01161176,0.4590171,0.4600472,0.146257,6.272206E-11,6.269481E-11
6680,2023-01-20 10:50:10.139156,130166654,0,0.005797645,3.792384E-05,8.378513E-05,0.0007808409,0.0918658,0.09189507,0.01137905,0.4830532,0.4839028,0.1460853,6.361643E-11,6.356651E-11
6844,2023-01-20 10:50:10.638947,130667009,0,0.005137661,3.226747E-05,6.21506E-05,0.0007017559,0.08331647,0.08469565,0.01104616,0.4648716,0.4655588,0.1446433,6.450183E-11,6.441754E-11
7003,2023-01-20 10:50:11.138863,131167011,0,0.004492452,3.626365E-05,0.0001068176,0.000570179,0.09271733,0.103966,0.01093574,0.4892265,0.4895813,0.1446494,6.54372E-11,6.532852E-11
7167,2023-01-20 10:50:11.638903,131667000,0,0.003585549,3.121885E-05,5.485554E-05,0.0003966263,0.08209924,0.09493011,0.01070447,0.4700977,0.4704714,0.1434035,6.636666E-11,6.624262E-11
7326,2023-01-20 10:50:12.138860,132166996,0,0.003045814,3.018814E-05,4.344285E-05,0.000358456,0.08146332,0.09301732,0.01065255,0.4934109,0.4939083,0.1434241,6.729187E-11,6.716396E-11
7490,2023-01-20 10:50:12.638896,132667000,0,0.00246737,2.884944E-05,3.402726E-05,0.0003339671,0.07118765,0.07434539,0.01042768,0.473199,0.4736069,0.1422016,6.81836E-11,6.806027E-11
7650,2023-01-20 10:50:13.138870,133167001,0,0.002245054,2.606773E-05,3.01106E-05,0.0002677717,0.06965442,0.06974284,0.01037404,0.4947817,0.4952601,0.1421757,6.905618E-11,6.892835E-11
7814,2023-01-20 10:50:13.638903,133666995,0,0.002067175,2.531837E-05,2.752071E-05,0.0001581066,0.05604403,0.05464269,0.01007015,0.4666225,0.466969,0.1403636,6.982312E-11,6.970238E-11
7975,2023-01-20 10:50:14.138845,134167003,0,0.001933585,2.576039E-05,2.64908E-05,0.0001463729,0.05067507,0.05086321,0.009944279,0.4784327,0.4787215,0.1396755,7.053361E-11,7.04126E-11
8140,2023-01-20 10:50:14.638898,134666996,0,0.001844342,2.547701E-05,2.764427E-05,0.0001637657,0.04657271,0.04727609,0.00986501,0.4691213,0.469395,0.1391931,7.116131E-11,7.102412E-11
8299,2023-01-20 10:50:15.138827,135167003,0,0.00180841,2.577111E-05,2.841419E-05,0.0001691349,0.04675073,0.04744723,0.009869079,0.4886723,0.489023,0.1391919,7.171406E-11,7.154866E-11
8463,2023-01-20 10:50:15.638904,135667005,0,0.001794011,2.570052E-05,2.781423E-05,0.0001564335,0.04333788,0.04390765,0.009763111,0.4725766,0.4728951,0.1382945,7.199331E-11,7.178944E-11
8622,2023-01-20 10:50:16.138900,136167016,0,0.001822569,2.604747E-05,2.816465E-05,0.0001045352,0.04427904,0.04463715,0.009807966,0.492666,0.4931466,0.1384541,7.229999E-11,7.206508E-11
8786,2023-01-20 10:50:16.638904,136666995,0,0.001722896,2.621938E-05,2.972324E-05,7.245312E-06,0.0436042,0.04418499,0.009798327,0.4835905,0.4841121,0.1382409,7.225509E-11,7.208945E-11
8945,2023-01-20 10:50:17.138909,137167011,0,0.00132526,2.640339E-05,2.864285E-05,5.69443E-06,0.04783019,0.04839471,0.009913942,0.5097975,0.5106838,0.1389777,7.228577E-11,7.226186E-11
9109,2023-01-20 10:50:17.638915,137666995,0,0.0009549718,2.609542E-05,2.729155E-05,3.285675E-05,0.04891682,0.04941615,0.009859198,0.4963111,0.4971215,0.1386751,7.160023E-11,7.161247E-11
9269,2023-01-20 10:50:18.132253,138167002,0,0.0006579576,2.507807E-05,2.563978E-05,8.228097E-05,0.0545585,0.0548576,0.009879015,0.5160382,0.5168597,0.1389724,7.102582E-11,7.098414E-11
9433,2023-01-20 10:50:18.619396,138667000,0,0.0004522333,2.189359E-05,2.277729E-05,0.0001219752,0.05358049,0.05374897,0.009635712,0.4857394,0.486329,0.1374801,6.896767E-11,6.876262E-11
9594,2023-01-20 10:50:19.119303,139166998,0,0.000373862,2.022318E-05,2.042818E-05,0.0001066492,0.06016721,0.06033262,0.009637029,0.5017077,0.5021866,0.1374359,6.806521E-11,6.772477E-11
9758,2023-01-20 10:50:19.619174,139666998,0,0.0003176957,1.735429E-05,1.757257E-05,0.000105336,0.06036868,0.0603266,0.009495976,0.4818228,0.4821834,0.1366177,6.651969E-11,6.604935E-11
9917,2023-01-20 10:50:20.119149,140166999,0,0.0002924195,1.584427E-05,1.638468E-05,9.262516E-05,0.06634045,0.06599557,0.009539934,0.5034618,0.5036533,0.1369085,6.603471E-11,6.547759E-11
10084,2023-01-20 10:50:20.619284,140667000,0,0.0002718416,1.375877E-05,1.442333E-05,8.612849E-05,0.06365396,0.06353612,0.009467433,0.4855157,0.4856154,0.1363366,6.510446E-11,6.446694E-11
10243,2023-01-20 10:50:21.119177,141166996,0,0.000258425,1.361755E-05,1.305855E-05,7.809041E-05,0.06576978,0.06548334,0.009462338,0.5044063,0.5044028,0.1364698,6.491943E-11,6.423142E-11
10407,2023-01-20 10:50:21.619237,141667000,0,0.0002471388,1.211237E-05,1.12647E-05,7.168965E-05,0.05683105,0.05628076,0.009203491,0.4710892,0.4711431,0.1349245,6.43159E-11,6.360519E-11
10566,2023-01-20 10:50:22.119158,142166999,0,0.0001798772,1.138408E-05,1.030595E-05,0.000122893,0.05476273,0.05384343,0.009099886,0.4758057,0.4758219,0.134172,6.440676E-11,6.369733E-11
10730,2023-01-20 10:50:22.619219,142666999,0,9.684096E-05,1.018613E-05,9.220698E-06,0.0001847177,0.04521419,0.0440678,0.00871414,0.4322322,0.432369,0.1312234,6.428028E-11,6.36062E-11
10889,2023-01-20 10:50:23.119206,143167019,0,9.359881E-05,1.117408E-05,9.073059E-06,0.0001676854,0.04521662,0.04298778,0.008619971,0.4324727,0.4325808,0.1299512,6.46667E-11,6.404158E-11
11054,2023-01-20 10:50:23.619204,143667008,0,9.496795E-05,1.085285E-05,8.796381E-06,0.0001486691,0.04284414,0.03929442,0.00852619,0.4073733,0.4074737,0.1279897,6.504808E-11,6.449308E-11
11216,2023-01-20 10:50:24.119210,144166999,0,9.239576E-05,1.023509E-05,8.457259E-06,0.0001373573,0.0445493,0.03920419,0.008643343,0.4121529,0.4121964,0.1271952,6.564031E-11,6.516602E-11
11382,2023-01-20 10:50:24.619247,144666995,0,8.50783E-05,9.698718E-06,7.647312E-06,0.0001293461,0.04074743,0.03573399,0.008615294,0.3911254,0.3911735,0.1255719,6.621895E-11,6.584654E-11
11542,2023-01-20 10:50:25.119153,145167012,0,7.575694E-05,8.464346E-06,7.469477E-06,0.0001299668,0.04072002,0.0366242,0.008774327,0.4006447,0.40045,0.1255122,6.691903E-11,6.66516E-11
11707,2023-01-20 10:50:25.619174,145666997,0,7.318838E-05,1.198716E-05,1.045834E-05,0.0001174468,0.03494059,0.03426124,0.008529628,0.3873645,0.3870941,0.1248169,6.762209E-11,6.743072E-11
11867,2023-01-20 10:50:26.119153,146167002,0,7.487502E-05,1.267632E-05,1.1303E-05,0.0001091893,0.03756034,0.0360663,0.008558076,0.40387,0.4035278,0.1255363,6.839262E-11,6.825985E-11
12031,2023-01-20 10:50:26.619179,146667011,0,7.320708E-05,9.271577E-06,9.801664E-06,0.000108906,0.04113005,0.03595486,0.008649831,0.398057,0.3977883,0.1255547,6.90256E-11,6.89733E-11
12190,2023-01-20 10:50:27.119123,147167002,0,6.703741E-05,8.922109E-06,9.110962E-06,0.0001106812,0.04718718,0.03979553,0.008893455,0.4211853,0.4205643,0.1267397,6.966863E-11,6.970752E-11
12354,2023-01-20 10:50:27.599494,147666995,0,6.561428E-05,9.542619E-06,9.390296E-06,0.0001072859,0.05280175,0.04501459,0.009117807,0.4546128,0.4524567,0.1284497,7.026133E-11,7.039416E-11
12514,2023-01-20 10:50:28.099333,148167002,0,6.51615E-05,9.783994E-06,9.630235E-06,0.0001020907,0.05245209,0.04614033,0.009168418,0.4586476,0.4557033,0.1294801,7.055619E-11,7.073165E-11
12679,2023-01-20 10:50:28.617436,148666995,0,6.396985E-05,1.007451E-05,9.748064E-06,9.906443E-05,0.05144046,0.04666451,0.009205839,0.4629519,0.4594194,0.1305672,7.07141E-11,7.089581E-11
12840,2023-01-20 10:50:29.099230,149167018,0,6.094483E-05,1.054937E-05,1.020836E-05,9.971276E-05,0.05354311,0.05014893,0.009297232,0.5006042,0.4955135,0.1322371,7.09847E-11,7.120433E-11
13005,2023-01-20 10:50:29.599173,149666998,0,6.081793E-05,1.112292E-05,1.072059E-05,9.822747E-05,0.05631575,0.05413475,0.009385945,0.5447603,0.5383109,0.1339921,7.12323E-11,7.14979E-11
13164,2023-01-20 10:50:30.099144,150166998,0,5.845122E-05,1.141312E-05,1.095272E-05,9.911381E-05,0.05441492,0.05329371,0.009337793,0.545805,0.5401535,0.1348183,7.097676E-11,7.120951E-11
13328,2023-01-20 10:50:30.599179,150667008,0,6.253489E-05,1.190076E-05,1.143644E-05,9.455992E-05,0.05666691,0.05625088,0.009382135,0.5875068,0.5818263,0.1361059,7.094928E-11,7.120608E-11
13488,2023-01-20 10:50:31.099185,151166998,0,6.336246E-05,1.210361E-05,1.1753E-05,9.342666E-05,0.05464928,0.05484147,0.009338262,0.583101,0.578658,0.1366102,7.037427E-11,7.058135E-11
13651,2023-01-20 10:50:31.599145,151667008,0,6.047747E-05,1.277224E-05,1.224911E-05,9.643208E-05,0.05749122,0.05815712,0.009381413,0.6258488,0.622131,0.1376575,7.018762E-11,7.0433E-11
13812,2023-01-20 10:50:32.099144,152167000,0,6.468844E-05,1.311876E-05,1.226833E-05,9.27567E-05,0.0557173,0.05650659,0.009345953,0.6196083,0.6171864,0.1380424,6.935957E-11,6.960305E-11
13975,2023-01-20 10:50:32.599133,152666999,0,6.369911E-05,1.356515E-05,1.272407E-05,9.453779E-05,0.0569756,0.05783965,0.009376054,0.6600687,0.658768,0.138811,6.897196E-11,6.929238E-11
14135,2023-01-20 10:50:33.099151,153167004,0,6.219872E-05,1.383983E-05,1.283784E-05,9.680846E-05,0.0553235,0.05621908,0.009328365,0.6483198,0.6479136,0.1389219,6.796846E-11,6.832452E-11
14301,2023-01-20 10:50:33.599173,153666999,0,6.484135E-05,1.436623E-05,1.321594E-05,9.499134E-05,0.05836597,0.05954603,0.009344821,0.6849232,0.6855613,0.1394506,6.737233E-11,6.781516E-11
14463,2023-01-20 10:50:34.099117,154166995,0,6.754813E-05,1.438066E-05,1.323839E-05,9.315333E-05,0.05726664,0.05863195,0.009290179,0.6665298,0.6676441,0.1392787,6.598123E-11,6.645633E-11
14626,2023-01-20 10:50:34.599256,154666999,0,6.475332E-05,1.487397E-05,1.358691E-05,9.6684E-05,0.06033896,0.06228119,0.0093155,0.7016472,0.7038182,0.1396276,6.519549E-11,6.575125E-11
14789,2023-01-20 10:50:35.099185,155167007,0,6.289454E-05,1.465294E-05,1.326069E-05,9.915049E-05,0.05758409,0.05982563,0.009242149,0.673143,0.6752934,0.1391215,6.335635E-11,6.390746E-11
14952,2023-01-20 10:50:35.599270,155667009,0,6.16074E-05,1.458054E-05,1.338526E-05,0.000101061,0.05901751,0.06115892,0.009224005,0.6946079,0.6973987,0.138968,6.213374E-11,6.272211E-11
15112,2023-01-20 10:50:36.099195,156167000,0,6.116719E-05,1.457613E-05,1.332791E-05,0.0001012597,0.05677556,0.05820716,0.009153455,0.6656328,0.6682199,0.1383832,6.035086E-11,6.095103E-11
15275,2023-01-20 10:50:36.599272,156667003,0,6.339095E-05,1.537216E-05,1.329767E-05,9.877918E-05,0.05890456,0.05951757,0.009164937,0.6870126,0.6901304,0.1382388,5.922898E-11,5.989469E-11
15435,2023-01-20 10:50:37.099170,157166999,0,6.159249E-05,1.512384E-05,1.285449E-05,9.917031E-05,0.0542993,0.05387031,0.009060463,0.6416587,0.6439192,0.1369457,5.693916E-11,5.764799E-11
15598,2023-01-20 10:50:37.599283,157666995,0,6.060739E-05,1.493822E-05,1.255339E-05,9.917178E-05,0.05544813,0.05339296,0.009086457,0.647266,0.6494991,0.1362434,5.555829E-11,5.632266E-11
15759,2023-01-20 10:50:38.090253,158166998,0,6.114662E-05,1.486965E-05,1.199327E-05,9.485092E-05,0.05085403,0.04736538,0.008998859,0.6013864,0.6028588,0.1345327,5.35598E-11,5.428971E-11
15922,2023-01-20 10:50:38.579366,158667008,0,5.916064E-05,1.572457E-05,1.113842E-05,9.376771E-05,0.05163627,0.04703758,0.009085137,0.6048844,0.606298,0.1337644,5.25684E-11,5.324591E-11
16086,2023-01-20 10:50:39.090212,159166999,0,5.838579E-05,1.401049E-05,1.067364E-05,9.070383E-05,0.04742033,0.04332715,0.009022514,0.5674223,0.5683594,0.1321236,5.125784E-11,5.167919E-11
16248,2023-01-20 10:50:39.579274,159667017,0,5.843666E-05,1.251549E-05,1.067846E-05,8.937775E-05,0.04839085,0.04404704,0.009122663,0.5770491,0.5780184,0.1317986,5.084191E-11,5.106246E-11
16411,2023-01-20 10:50:40.079200,160167008,0,5.596598E-05,1.145958E-05,1.026675E-05,8.897224E-05,0.04367811,0.04042903,0.008985548,0.5472423,0.5479066,0.1305135,5.001889E-11,4.983013E-11
16574,2023-01-20 10:50:40.579205,160667027,0,5.505331E-05,1.101305E-05,1.034039E-05,8.965608E-05,0.04382635,0.04130774,0.009015073,0.5591615,0.5597216,0.1304512,4.982303E-11,4.942301E-11
16737,2023-01-20 10:50:41.079172,161166995,0,5.470624E-05,1.058887E-05,1.002843E-05,8.959616E-05,0.03918748,0.03807164,0.008818057,0.5318934,0.5322743,0.1291561,4.909075E-11,4.836062E-11
16900,2023-01-20 10:50:41.579227,161667041,0,5.629397E-05,1.071749E-05,1.009472E-05,8.905442E-05,0.04009138,0.03967432,0.008881232,0.5464824,0.5467497,0.1293545,4.896463E-11,4.816031E-11
17063,2023-01-20 10:50:42.079186,162166995,0,5.608479E-05,1.044668E-05,9.952343E-06,9.037087E-05,0.03777201,0.03777382,0.008799498,0.525584,0.5257536,0.128467,4.830803E-11,4.739016E-11
17226,2023-01-20 10:50:42.579208,162667029,0,5.487407E-05,1.055113E-05,1.014445E-05,9.276842E-05,0.03927433,0.03949556,0.008906126,0.5406113,0.5407764,0.1288074,4.812313E-11,4.7232E-11
17389,2023-01-20 10:50:43.079159,163166995,0,5.661366E-05,1.021198E-05,9.919391E-06,9.225022E-05,0.03781768,0.03793511,0.00883134,0.5214872,0.5216128,0.1281032,4.74203E-11,4.656333E-11
17553,2023-01-20 10:50:43.579216,163667036,0,5.712897E-05,1.029097E-05,9.798332E-06,9.298563E-05,0.03953947,0.03934421,0.008922371,0.5360636,0.5363237,0.128464,4.718044E-11,4.641938E-11
17718,2023-01-20 10:50:44.079194,164167007,0,5.741605E-05,1.008522E-05,9.485774E-06,9.309824E-05,0.03734913,0.03686811,0.008820214,0.5135106,0.5136942,0.1275204,4.632358E-11,4.566249E-11
17882,2023-01-20 10:50:44.579269,164667018,0,5.712485E-05,1.058626E-05,9.123884E-06,9.388033E-05,0.03776205,0.03721145,0.008855146,0.522925,0.5232236,0.1275365,4.599306E-11,4.54214E-11
18045,2023-01-20 10:50:45.079178,165167004,0,5.811581E-05,1.034756E-05,8.788514E-06,9.351744E-05,0.03544555,0.03484144,0.008814284,0.5020448,0.5022983,0.1266504,4.536294E-11,4.484802E-11
18208,2023-01-20 10:50:45.579194,165667026,0,5.53237E-05,1.031451E-05,8.823688E-06,9.713941E-05,0.035719,0.03513299,0.008907405,0.5114604,0.5118303,0.1268266,4.520653E-11,4.474993E-11
18371,2023-01-20 10:50:46.079165,166166996,0,5.76883E-05,9.681327E-06,8.709019E-06,9.55897E-05,0.03402358,0.03340172,0.008820093,0.4915366,0.4918587,0.1259933,4.474218E-11,4.43022E-11
18534,2023-01-20 10:50:46.579286,166667030,0,5.857334E-05,9.770024E-06,8.711942E-06,9.539884E-05,0.03510115,0.03434788,0.008900757,0.5014783,0.5018926,0.126308,4.47021E-11,4.428054E-11
18697,2023-01-20 10:50:47.059345,167167001,0,5.906588E-05,9.766021E-06,8.633898E-06,9.483407E-05,0.03447684,0.03348234,0.008856419,0.4855663,0.4859606,0.1259023,4.442339E-11,4.398812E-11
18859,2023-01-20 10:50:47.559395,167666997,0,5.729393E-05,9.700475E-06,8.951696E-06,9.74086E-05,0.03749075,0.03632174,0.008999267,0.5044602,0.5049371,0.1271233,4.466546E-11,4.4236E-11
19022,2023-01-20 10:50:48.059368,168167008,0,5.872876E-05,9.580478E-06,8.714621E-06,9.583197E-05,0.03691013,0.03561301,0.008961689,0.4930228,0.4934762,0.1272065,4.448491E-11,4.398447E-11
19185,2023-01-20 10:50:48.559275,168667002,0,5.671586E-05,9.781092E-06,8.779744E-06,9.751762E-05,0.03883514,0.0371862,0.009054613,0.507242,0.5076683,0.1278598,4.455136E-11,4.399223E-11
19351,2023-01-20 10:50:49.059133,169167000,0,5.697715E-05,1.037433E-05,8.445501E-06,9.512327E-05,0.03636225,0.03469208,0.008903152,0.4876705,0.4881002,0.1270663,4.424761E-11,4.352156E-11
19514,2023-01-20 10:50:49.559187,169666997,0,5.896972E-05,1.067276E-05,8.461908E-06,9.311933E-05,0.03834551,0.03650444,0.008991425,0.5034257,0.5037737,0.1278541,4.447217E-11,4.364293E-11
19677,2023-01-20 10:50:50.059158,170167008,0,5.721597E-05,1.102576E-05,8.145542E-06,9.391768E-05,0.03572217,0.03443627,0.008839382,0.4849861,0.4853486,0.1271231,4.429187E-11,4.322715E-11
19882,2023-01-20 10:50:50.559247,170666995,0,5.848445E-05,1.111366E-05,8.214131E-06,9.34171E-05,0.03608489,0.03524062,0.00887519,0.4980836,0.4984278,0.1276034,4.449172E-11,4.329172E-11
20045,2023-01-20 10:50:51.059155,171167002,0,5.761962E-05,1.091103E-05,8.11324E-06,9.53219E-05,0.03416629,0.03385178,0.008786552,0.4841522,0.4844974,0.1272353,4.444718E-11,4.307705E-11
20208,2023-01-20 10:50:51.559181,171667007,0,5.645915E-05,1.100522E-05,8.221515E-06,9.779277E-05,0.03529767,0.03506079,0.008845604,0.4984605,0.4988507,0.1277737,4.466583E-11,4.320663E-11
20371,2023-01-20 10:50:52.059134,172166995,0,5.816822E-05,1.128815E-05,8.109796E-06,9.69195E-05,0.03406644,0.0339344,0.008778243,0.4845145,0.4849072,0.1274105,4.461756E-11,4.300835E-11
20534,2023-01-20 10:50:52.559254,172667004,0,5.936625E-05,1.09339E-05,8.35784E-06,9.759912E-05,0.03530577,0.03531317,0.008831499,0.4983974,0.4988654,0.1278861,4.48112E-11,4.312961E-11
20697,2023-01-20 10:50:53.059171,173167004,0,5.902057E-05,1.099168E-05,8.043813E-06,9.919764E-05,0.03246904,0.03258895,0.008643919,0.4762857,0.4767217,0.1266628,4.454576E-11,4.272278E-11
20860,2023-01-20 10:50:53.559175,173667002,0,5.851126E-05,1.132759E-05,8.122598E-06,0.0001012881,0.03382583,0.03403899,0.008702936,0.4900291,0.4905564,0.1271573,4.477051E-11,4.291902E-11
21026,2023-01-20 10:50:54.053754,174166995,0,5.944566E-05,1.038151E-05,8.090614E-06,0.000102784,0.03381205,0.03399057,0.00866076,0.4793935,0.479939,0.1269883,4.478362E-11,4.28738E-11
21190,2023-01-20 10:50:54.559233,174667005,0,5.995951E-05,1.058642E-05,8.256639E-06,0.0001033934,0.03634605,0.03646077,0.008740361,0.4974386,0.4981043,0.1278048,4.505565E-11,4.31114E-11
21353,2023-01-20 10:50:55.059165,175167004,0,5.913572E-05,1.113138E-05,8.057669E-06,0.0001046701,0.03511659,0.03516698,0.008639215,0.4832988,0.4839292,0.1273436,4.494335E-11,4.286883E-11
21516,2023-01-20 10:50:55.559224,175667001,0,6.018277E-05,1.221447E-05,8.053839E-06,0.0001038359,0.03570629,0.03581728,0.008649417,0.4954557,0.4961502,0.1275244,4.508105E-11,4.291135E-11
21679,2023-01-20 10:50:56.059136,176166995,0,6.113157E-05,1.26216E-05,7.816664E-06,0.000103484,0.03342925,0.0338488,0.008483398,0.4763905,0.4770016,0.1265337,4.488231E-11,4.254805E-11
21842,2023-01-20 10:50:56.539099,176667009,0,6.13279E-05,1.271579E-05,7.937948E-06,0.0001045812,0.03384198,0.03452236,0.008519498,0.4882694,0.4890054,0.1266837,4.501498E-11,4.262668E-11
22005,2023-01-20 10:50:57.043371,177166995,0,6.197876E-05,1.249986E-05,7.873923E-06,0.0001051043,0.03192679,0.03255182,0.008388406,0.4699783,0.4706094,0.1257054,4.477076E-11,4.231676E-11
22167,2023-01-20 10:50:57.539034,177667002,0,6.323354E-05,1.196604E-05,7.989443E-06,0.0001058722,0.03290121,0.03350945,0.00844464,0.4824163,0.4832325,0.1259869,4.491101E-11,4.248249E-11
22330,2023-01-20 10:50:58.038917,178166999,0,6.310277E-05,1.149555E-05,7.850729E-06,0.0001075222,0.03165048,0.03207449,0.008351065,0.4664303,0.4671692,0.1252269,4.469485E-11,4.228821E-11
22493,2023-01-20 10:50:58.538968,178667006,0,6.372728E-05,1.149647E-05,8.116395E-06,0.0001083848,0.03429947,0.03477258,0.008487997,0.4857245,0.4867476,0.1261812,4.500034E-11,4.264862E-11
22659,2023-01-20 10:50:59.038879,179166999,0,6.411954E-05,1.165601E-05,7.888187E-06,0.0001088375,0.03311457,0.03353539,0.0084053,0.4716006,0.472538,0.1257059,4.478172E-11,4.245301E-11
22822,2023-01-20 10:50:59.538900,179667003,0,6.480658E-05,1.1285E-05,7.982188E-06,0.000109429,0.03376536,0.0342056,0.008405292,0.4817112,0.482741,0.1257774,4.480001E-11,4.249814E-11
22985,2023-01-20 10:51:00.038895,180167008,0,6.6234E-05,1.112144E-05,7.784456E-06,0.0001089084,0.03170565,0.0320642,0.008269408,0.4621802,0.4630383,0.1247663,4.451929E-11,4.219106E-11
23148,2023-01-20 10:51:00.538910,180666998,0,6.643862E-05,1.217394E-05,7.759648E-06,0.0001087791,0.03240695,0.03277778,0.008286357,0.4711016,0.472028,0.1247495,4.460863E-11,4.228131E-11
23311,2023-01-20 10:51:01.038899,181166999,0,6.472033E-05,1.332636E-05,7.481757E-06,0.0001100623,0.02947548,0.02991032,0.008088618,0.4476225,0.4483281,0.1231784,4.428541E-11,4.189095E-11
23474,2023-01-20 10:51:01.538930,181667003,0,6.527494E-05,1.344853E-05,7.701214E-06,0.0001103601,0.03034044,0.03099556,0.008136216,0.4560988,0.4569129,0.1232157,4.443546E-11,4.203673E-11
23637,2023-01-20 10:51:02.038868,182166999,0,6.621869E-05,1.197746E-05,7.694197E-06,0.0001113509,0.0286089,0.0291499,0.008013835,0.4369943,0.4376623,0.1220271,4.417703E-11,4.178211E-11
23800,2023-01-20 10:51:02.538909,182666998,0,6.636058E-05,1.225496E-05,7.766023E-06,0.0001119742,0.02973288,0.03018923,0.008086133,0.4460005,0.4468045,0.1222091,4.431091E-11,4.197192E-11
23963,2023-01-20 10:51:03.038918,183167016,0,6.644902E-05,1.177533E-05,7.625686E-06,0.0001130527,0.02849834,0.0288566,0.007996584,0.4294384,0.4301383,0.1213363,4.410584E-11,4.179992E-11
24126,2023-01-20 10:51:03.538922,183666999,0,6.639723E-05,1.184736E-05,7.794467E-06,0.0001140154,0.03021712,0.03057148,0.008097395,0.4403436,0.4411705,0.1217865,4.429022E-11,4.203306E-11
24292,2023-01-20 10:51:04.038878,184166995,0,6.715916E-05,1.255841E-05,7.64072E-06,0.0001134457,0.02991958,0.03024543,0.008079779,0.4294262,0.4302138,0.1215869,4.421702E-11,4.199337E-11
24458,2023-01-20 10:51:04.538916,184667014,0,6.769589E-05,1.252956E-05,7.686876E-06,0.0001138231,0.03145672,0.03185065,0.008166052,0.4416531,0.4425825,0.1221475,4.436131E-11,4.218071E-11
24621,2023-01-20 10:51:05.038898,185166995,0,6.784806E-05,1.214112E-05,7.540889E-06,0.0001142317,0.02979957,0.03017513,0.008048947,0.4251876,0.4259653,0.1213083,4.406606E-11,4.187201E-11
24784,2023-01-20 10:51:05.538908,185667001,0,6.741696E-05,1.224404E-05,7.688106E-06,0.0001152403,0.03145229,0.03185484,0.008156338,0.438517,0.4394494,0.1220148,4.427598E-11,4.210787E-11
24947,2023-01-20 10:51:06.038904,186166995,0,6.732046E-05,1.16912E-05,7.669832E-06,0.0001161951,0.03069945,0.03105508,0.008121772,0.4276739,0.4285554,0.1218215,4.417808E-11,4.199461E-11
25110,2023-01-20 10:51:06.526531,186667002,0,6.682942E-05,1.158577E-05,7.750107E-06,0.000117347,0.0318354,0.03217306,0.008182017,0.4391131,0.4401015,0.1222928,4.430969E-11,4.213228E-11
25322,2023-01-20 10:51:07.019326,187166995,0,6.809373E-05,1.209173E-05,7.395635E-06,0.0001158207,0.02963324,0.02991215,0.008037824,0.4212024,0.42203,0.1213486,4.405841E-11,4.18332E-11
25485,2023-01-20 10:51:07.532322,187667002,0,6.700504E-05,1.244119E-05,7.511543E-06,0.0001169628,0.03076162,0.03106918,0.008086688,0.4313809,0.4322865,0.121676,4.422254E-11,4.19888E-11
25648,2023-01-20 10:51:08.019291,188167004,0,6.663135E-05,1.309931E-05,7.627584E-06,0.0001167782,0.02890065,0.02919194,0.007971449,0.4151438,0.4159096,0.1208244,4.405697E-11,4.174299E-11
25811,2023-01-20 10:51:08.519198,188667003,0,6.853764E-05,1.354994E-05,7.597102E-06,0.0001155341,0.02984479,0.03020263,0.008036962,0.4254526,0.4263187,0.1211781,4.423958E-11,4.193125E-11
25976,2023-01-20 10:51:09.019161,189166999,0,6.793225E-05,1.234736E-05,7.479775E-06,0.000117844,0.02850643,0.02884481,0.007940467,0.4113504,0.4121089,0.1205062,4.407116E-11,4.177112E-11
26139,2023-01-20 10:51:09.519259,189667007,0,6.881109E-05,1.184702E-05,7.632007E-06,0.0001180031,0.02985786,0.03018213,0.008009908,0.4226507,0.4235308,0.1209918,4.422245E-11,4.198809E-11
26302,2023-01-20 10:51:10.019161,190167015,0,6.744477E-05,1.17728E-05,7.414641E-06,0.0001196891,0.02850804,0.02879833,0.007903819,0.4084319,0.4092041,0.1202737,4.401284E-11,4.181687E-11
26465,2023-01-20 10:51:10.519188,190666998,0,6.7251E-05,1.17364E-05,7.454008E-06,0.0001201947,0.02975917,0.03009558,0.007971501,0.4195553,0.420428,0.1206901,4.415657E-11,4.202182E-11
26628,2023-01-20 10:51:11.019175,191167020,0,6.874155E-05,1.143903E-05,7.369096E-06,0.0001187466,0.02889128,0.02923724,0.007887547,0.4073251,0.40811,0.1201949,4.400594E-11,4.188133E-11
26791,2023-01-20 10:51:11.519213,191666998,0,6.725268E-05,1.201109E-05,7.482543E-06,0.0001197626,0.03042133,0.03080267,0.007963919,0.4197165,0.4206364,0.120719,4.418976E-11,4.208287E-11
26954,2023-01-20 10:51:12.019139,192166998,0,6.799843E-05,1.166217E-05,7.540393E-06,0.0001191547,0.02976245,0.0301626,0.007913397,0.409767,0.4106306,0.1204552,4.410396E-11,4.195449E-11
27117,2023-01-20 10:51:12.519184,192666997,0,6.959053E-05,1.192011E-05,7.82224E-06,0.0001175342,0.03138939,0.03180734,0.007996121,0.4244969,0.4255445,0.1211749,4.429985E-11,4.217225E-11
27280,2023-01-20 10:51:13.019150,193166999,0,6.92088E-05,1.185199E-05,7.632887E-06,0.0001182788,0.03026461,0.03061388,0.007942269,0.4139721,0.4149382,0.1208389,4.4141E-11,4.20159E-11
27443,2023-01-20 10:51:13.519228,193666999,0,6.915678E-05,1.169462E-05,7.73281E-06,0.000118956,0.03186694,0.03225685,0.008026153,0.4293912,0.4305138,0.1215806,4.433499E-11,4.22551E-11
27608,2023-01-20 10:51:14.019114,194166999,0,6.972358E-05,1.170177E-05,7.661821E-06,0.0001183388,0.03066912,0.03106857,0.007937433,0.4183617,0.4193775,0.1211884,4.414116E-11,4.207888E-11
27773,2023-01-20 10:51:14.519195,194667011,0,7.00602E-05,1.111181E-05,7.797996E-06,0.000118856,0.03236815,0.0327977,0.008007792,0.4338876,0.4350782,0.12183,4.4291E-11,4.228555E-11
27936,2023-01-20 10:51:15.019153,195166995,0,6.999161E-05,1.096111E-05,7.805081E-06,0.0001189886,0.03213131,0.03254843,0.007985279,0.4276035,0.4287632,0.121907,4.420611E-11,4.225593E-11
28099,2023-01-20 10:51:15.519258,195667002,0,6.9304E-05,1.089272E-05,8.072429E-06,0.0001198661,0.03409957,0.03452766,0.00807889,0.4467722,0.448164,0.1227734,4.439304E-11,4.251731E-11
28262,2023-01-20 10:51:16.019127,196166999,0,6.926578E-05,1.214914E-05,7.570357E-06,0.0001188261,0.031994,0.03236977,0.007964445,0.4327239,0.4339135,0.122167,4.406177E-11,4.222218E-11
28425,2023-01-20 10:51:16.508504,196667002,0,7.016743E-05,1.343728E-05,7.554459E-06,0.0001169645,0.03307351,0.03356244,0.008010313,0.4475248,0.4488505,0.1226089,4.417427E-11,4.238625E-11
28588,2023-01-20 10:51:16.999153,197166995,0,7.092784E-05,1.35326E-05,7.675436E-06,0.0001162841,0.03485831,0.03557989,0.008085218,0.4655054,0.4670916,0.1232578,4.433944E-11,4.25896E-11
28751,2023-01-20 10:51:17.499343,197667002,0,6.991169E-05,1.343343E-05,7.476322E-06,0.0001166495,0.03257604,0.03343892,0.007966124,0.4484382,0.4497467,0.1224724,4.396528E-11,4.221905E-11
28914,2023-01-20 10:51:17.999334,198166995,0,7.014171E-05,1.290971E-05,7.692976E-06,0.0001165243,0.03374051,0.03475955,0.008019382,0.4631127,0.4646859,0.1228444,4.405512E-11,4.234512E-11
29077,2023-01-20 10:51:18.499263,198667001,0,6.916882E-05,1.164985E-05,7.615967E-06,0.000117677,0.03194511,0.03278412,0.007919332,0.4473538,0.4486756,0.1221071,4.373922E-11,4.204568E-11
29242,2023-01-20 10:51:18.999167,199167008,0,6.844252E-05,1.148137E-05,7.803646E-06,0.0001182216,0.03311097,0.03388555,0.007971697,0.4611464,0.4627001,0.1224373,4.384012E-11,4.219704E-11
29406,2023-01-20 10:51:19.499219,199667011,0,6.831319E-05,1.145263E-05,7.567593E-06,0.0001177974,0.03131617,0.03189019,0.007863067,0.4444192,0.4457105,0.1215766,4.355181E-11,4.191921E-11
29569,2023-01-20 10:51:19.999106,200167000,0,6.839596E-05,1.255598E-05,7.678254E-06,0.0001167924,0.03401107,0.03479937,0.008000691,0.4650041,0.4666779,0.122516,4.38832E-11,4.229193E-11
29732,2023-01-20 10:51:20.499237,200666998,0,6.870986E-05,1.20831E-05,7.770901E-06,0.0001164264,0.03427806,0.03511955,0.008015371,0.4596463,0.4613495,0.1227071,4.386132E-11,4.227343E-11
29895,2023-01-20 10:51:20.999162,201167009,0,6.818008E-05,1.212654E-05,7.839719E-06,0.0001166574,0.03582315,0.03669601,0.008081049,0.4768817,0.4788924,0.1233005,4.397583E-11,4.241133E-11
30057,2023-01-20 10:51:21.499256,201666996,0,6.721309E-05,1.226912E-05,7.700498E-06,0.0001167299,0.0342266,0.03501603,0.008012198,0.4627285,0.4644777,0.1228831,4.37175E-11,4.212182E-11
30212,2023-01-20 10:51:21.999326,202167000,0,6.904342E-05,9.242513E-06,7.776494E-06,0.0001175207,0.03513649,0.03572808,0.008053241,0.4762573,0.4781693,0.1231797,4.37735E-11,4.218965E-11
30360,2023-01-20 10:51:22.499328,202666995,0,7.056042E-05,8.732603E-06,7.531087E-06,0.0001135735,0.03334884,0.03337033,0.007946244,0.4571052,0.4586633,0.1222779,4.351686E-11,4.186387E-11
30507,2023-01-20 10:51:22.999263,203166999,0,6.769195E-05,8.830254E-06,7.592613E-06,0.0001134345,0.03471996,0.03433628,0.008023251,0.4686687,0.4701895,0.1224169,4.373375E-11,4.20129E-11
30654,2023-01-20 10:51:23.499382,203667003,0,6.555844E-05,8.692893E-06,7.317056E-06,0.000111448,0.03173744,0.03128821,0.007859566,0.4457725,0.4470491,0.1209918,4.366946E-11,4.171986E-11
30804,2023-01-20 10:51:23.999303,204166998,0,6.599342E-05,8.948849E-06,7.381049E-06,0.0001076624,0.03233191,0.03161358,0.00789254,0.4542941,0.4554666,0.1208785,4.398394E-11,4.190989E-11
31013,2023-01-20 10:51:24.499224,204667004,0,6.489889E-05,8.757221E-06,7.494129E-06,0.0001048787,0.03021982,0.02930997,0.00776509,0.4356868,0.4366994,0.1196313,4.411215E-11,4.179197E-11
31175,2023-01-20 10:51:24.999159,205167011,0,6.110609E-05,9.676945E-06,8.833502E-06,0.0001030053,0.03283451,0.03041037,0.007871743,0.4478891,0.4488373,0.1198856,4.455418E-11,4.207387E-11
31337,2023-01-20 10:51:25.499281,205666999,0,5.855244E-05,1.123783E-05,7.715683E-06,0.0001004682,0.03233067,0.02983257,0.007832011,0.4356186,0.4364441,0.1192786,4.484864E-11,4.193453E-11
31497,2023-01-20 10:51:25.981227,206167024,0,5.176355E-05,1.351774E-05,7.454536E-06,0.0001031936,0.03318342,0.03236893,0.007892395,0.4502836,0.4511249,0.119782,4.527587E-11,4.209746E-11
31661,2023-01-20 10:51:26.479345,206667002,0,5.108174E-05,1.557766E-05,7.760936E-06,9.9155E-05,0.03055459,0.03181713,0.007742952,0.4383811,0.4391479,0.1192355,4.528474E-11,4.1788E-11
31821,2023-01-20 10:51:26.979169,207167008,0,5.237198E-05,1.681687E-05,8.747229E-06,9.531649E-05,0.03193201,0.03459806,0.007758575,0.4536783,0.4549029,0.1197752,4.539631E-11,4.192655E-11
31985,2023-01-20 10:51:27.479332,207667002,0,5.056817E-05,1.711248E-05,9.048264E-06,9.410648E-05,0.03253615,0.03440757,0.007711792,0.4443154,0.4455993,0.1194657,4.485638E-11,4.168471E-11
32145,2023-01-20 10:51:27.979161,208166995,0,5.159963E-05,1.616017E-05,9.148573E-06,9.171912E-05,0.03630491,0.03651335,0.007833778,0.4604999,0.4626566,0.1200704,4.460612E-11,4.183079E-11
32309,2023-01-20 10:51:28.479287,208667005,0,5.038466E-05,1.492788E-05,8.161158E-06,8.798847E-05,0.03524886,0.03384045,0.007766398,0.4443842,0.4459853,0.1192661,4.346827E-11,4.140003E-11
32472,2023-01-20 10:51:28.979151,209166994,0,4.724949E-05,1.470879E-05,7.943273E-06,8.781663E-05,0.03737072,0.035421,0.007884918,0.4585813,0.4607386,0.1197536,4.319854E-11,4.15428E-11
32638,2023-01-20 10:51:29.479273,209667010,0,4.53006E-05,1.264383E-05,7.706898E-06,8.587391E-05,0.03569319,0.03388436,0.007850388,0.4470201,0.4489055,0.1194897,4.254156E-11,4.134443E-11
32799,2023-01-20 10:51:29.979137,210166995,0,4.344882E-05,1.129325E-05,7.783871E-06,8.608362E-05,0.03636653,0.03496274,0.007917811,0.4617194,0.4638666,0.1200886,4.246067E-11,4.150558E-11
32964,2023-01-20 10:51:30.479244,210667002,0,4.262177E-05,1.042369E-05,7.684736E-06,8.417962E-05,0.03385039,0.03292942,0.007826794,0.4490101,0.45084,0.1197716,4.206062E-11,4.132165E-11
33125,2023-01-20 10:51:30.979151,211166998,0,4.276312E-05,1.02522E-05,7.863769E-06,8.30979E-05,0.03485556,0.03416458,0.007889591,0.4646271,0.4665751,0.1204494,4.21733E-11,4.15349E-11
33282,2023-01-20 10:51:31.479350,211666998,0,4.380981E-05,8.782983E-06,7.526341E-06,8.24517E-05,0.03242087,0.03211349,0.0077888,0.4500602,0.4517185,0.1199555,4.18942E-11,4.132523E-11
33428,2023-01-20 10:51:31.979315,212167008,0,4.420893E-05,8.846493E-06,7.732541E-06,8.170152E-05,0.03442185,0.03473817,0.007897744,0.4711167,0.4728602,0.1210401,4.224867E-11,4.170314E-11
33577,2023-01-20 10:51:32.479361,212666997,0,4.352713E-05,8.780549E-06,7.683333E-06,8.188974E-05,0.03382869,0.03431358,0.007905648,0.4630111,0.4646061,0.1210879,4.2244E-11,4.166245E-11
33722,2023-01-20 10:51:32.979344,213167028,0,4.407976E-05,8.871349E-06,7.763447E-06,8.076302E-05,0.0353063,0.03573267,0.008000722,0.4782717,0.4798888,0.121604,4.245764E-11,4.182609E-11
33870,2023-01-20 10:51:33.479332,213666997,0,4.340685E-05,8.64278E-06,7.503667E-06,8.01999E-05,0.03271375,0.03289682,0.007896879,0.4582254,0.4596083,0.1207156,4.229265E-11,4.152318E-11
34027,2023-01-20 10:51:33.979169,214167019,0,4.336848E-05,8.812363E-06,7.704176E-06,7.920962E-05,0.03418584,0.03401393,0.007982458,0.4713521,0.4727465,0.1210899,4.258564E-11,4.174147E-11
34193,2023-01-20 10:51:34.479268,214667013,0,4.15691E-05,8.89041E-06,8.15697E-06,7.833286E-05,0.03357528,0.03221729,0.007918439,0.4557042,0.4569215,0.1204999,4.263173E-11,4.15964E-11
34353,2023-01-20 10:51:34.979156,215166999,0,4.077882E-05,1.021178E-05,7.695205E-06,7.720968E-05,0.03525354,0.03337636,0.007965418,0.4677436,0.4690408,0.1208242,4.294704E-11,4.173337E-11
34518,2023-01-20 10:51:35.459428,215666998,0,3.502739E-05,1.148343E-05,7.456563E-06,8.115814E-05,0.03407783,0.03322466,0.007894892,0.4593646,0.4605731,0.1208534,4.310447E-11,4.167133E-11
34679,2023-01-20 10:51:35.959394,216167014,0,3.511583E-05,1.302856E-05,7.63637E-06,7.963541E-05,0.03432006,0.03484339,0.007877779,0.4735575,0.4749151,0.1213247,4.333603E-11,4.178482E-11
34842,2023-01-20 10:51:36.459303,216667002,0,3.63884E-05,1.36245E-05,7.848795E-06,7.752689E-05,0.03290554,0.03417607,0.007780382,0.4619817,0.463242,0.1210201,4.321028E-11,4.160332E-11
35004,2023-01-20 10:51:36.959294,217167014,0,3.608941E-05,1.457481E-05,7.919851E-06,7.695345E-05,0.03455577,0.0357016,0.007824126,0.4746549,0.4762144,0.1212563,4.319715E-11,4.167221E-11
35153,2023-01-20 10:51:37.459325,217667007,0,3.838749E-05,8.921861E-06,7.571673E-06,7.971617E-05,0.03353035,0.03422292,0.007782424,0.462382,0.463857,0.1209322,4.288221E-11,4.152204E-11
35310,2023-01-20 10:51:37.959164,218167017,0,3.857065E-05,8.933327E-06,7.762101E-06,7.944068E-05,0.03528763,0.03585132,0.007854103,0.4817314,0.4836626,0.1217198,4.307979E-11,4.181124E-11
35469,2023-01-20 10:51:38.459352,218667002,0,3.858358E-05,8.833057E-06,7.643265E-06,7.921134E-05,0.0338196,0.03432247,0.007814327,0.4696226,0.4713662,0.1215039,4.290367E-11,4.166858E-11
35616,2023-01-20 10:51:38.959320,219166996,0,3.66303E-05,9.004336E-06,7.76423E-06,8.129233E-05,0.03483164,0.03523562,0.00787568,0.483845,0.4856938,0.1218931,4.304499E-11,4.181108E-11
35769,2023-01-20 10:51:39.459324,219666999,0,3.730623E-05,8.842726E-06,7.528126E-06,8.080799E-05,0.03189214,0.03223777,0.007750248,0.4628812,0.4643971,0.1208863,4.277112E-11,4.14859E-11
35929,2023-01-20 10:51:39.959152,220166995,0,3.777846E-05,9.374906E-06,7.633129E-06,8.022723E-05,0.03294063,0.0332194,0.007805268,0.4752157,0.4767421,0.1211144,4.297537E-11,4.167377E-11
36092,2023-01-20 10:51:40.459174,220667002,0,3.795103E-05,1.067117E-05,7.653238E-06,7.933632E-05,0.0343253,0.03459766,0.007865155,0.4735633,0.4750722,0.1215748,4.318251E-11,4.185481E-11
36253,2023-01-20 10:51:40.959134,221167009,0,3.552025E-05,1.146389E-05,7.831378E-06,8.164947E-05,0.03662048,0.03731015,0.0079442,0.495216,0.4970286,0.1224199,4.345716E-11,4.212491E-11
36416,2023-01-20 10:51:41.459177,221667002,0,3.094377E-05,1.148517E-05,7.7599E-06,8.620072E-05,0.03490784,0.03588168,0.007855279,0.4818694,0.4834523,0.1220919,4.31816E-11,4.183649E-11
36576,2023-01-20 10:51:41.959176,222167003,0,3.179696E-05,1.245447E-05,7.880667E-06,8.463886E-05,0.03628316,0.03763179,0.007895077,0.4979424,0.4998529,0.1224931,4.324152E-11,4.19433E-11
36740,2023-01-20 10:51:42.459189,222667015,0,3.240673E-05,1.254315E-05,8.001958E-06,8.308487E-05,0.03568314,0.03689467,0.007861786,0.4860231,0.4878013,0.1222701,4.29454E-11,4.175793E-11
36900,2023-01-20 10:51:42.959120,223167000,0,3.240283E-05,1.313413E-05,8.194879E-06,8.18379E-05,0.03840756,0.03900352,0.007960797,0.5030583,0.5053104,0.1227851,4.295628E-11,4.190496E-11
37064,2023-01-20 10:51:43.459220,223667003,0,3.182368E-05,1.21576E-05,7.888219E-06,8.074829E-05,0.03670241,0.03661774,0.007903676,0.4834645,0.4852659,0.1221098,4.237282E-11,4.155043E-11
37226,2023-01-20 10:51:43.959174,224166999,0,3.111664E-05,1.166443E-05,7.900298E-06,8.028732E-05,0.03839625,0.03786716,0.00799427,0.4961615,0.4982589,0.1224212,4.232777E-11,4.165475E-11
37392,2023-01-20 10:51:44.459193,224667004,0,3.065864E-05,1.085872E-05,7.594127E-06,7.847529E-05,0.03592383,0.0351502,0.007910389,0.4758538,0.4775335,0.1217158,4.189433E-11,4.137606E-11
37545,2023-01-20 10:51:44.959334,225167001,0,3.142067E-05,8.867838E-06,7.578955E-06,7.837703E-05,0.03628146,0.0354861,0.007938027,0.4871966,0.4890261,0.1219797,4.195968E-11,4.151437E-11
37709,2023-01-20 10:51:45.439101,225666995,0,3.115951E-05,8.574488E-06,7.570175E-06,7.747581E-05,0.03277209,0.03270693,0.007754413,0.4677524,0.4692736,0.1213413,4.175542E-11,4.134129E-11
37868,2023-01-20 10:51:45.939053,226167013,0,3.010932E-05,8.752325E-06,8.025168E-06,7.817764E-05,0.03395519,0.03438085,0.007803399,0.4827347,0.4844009,0.1218878,4.204877E-11,4.163635E-11
38032,2023-01-20 10:51:46.443400,226666995,0,2.889185E-05,8.718376E-06,8.025429E-06,7.934858E-05,0.03361819,0.03385748,0.007790457,0.4692868,0.4708032,0.1216849,4.204922E-11,4.159185E-11
38192,2023-01-20 10:51:46.938908,227166998,0,2.859833E-05,9.248306E-06,7.812366E-06,7.984298E-05,0.03664535,0.03659134,0.007928042,0.4885038,0.4903689,0.1225072,4.241341E-11,4.192272E-11
38356,2023-01-20 10:51:47.438912,227667005,0,2.870539E-05,9.881609E-06,7.709394E-06,7.922131E-05,0.03653443,0.03663335,0.007928834,0.4788716,0.4806717,0.1226709,4.244229E-11,4.187618E-11
38516,2023-01-20 10:51:47.938898,228166995,0,2.855089E-05,1.020704E-05,7.888179E-06,7.939009E-05,0.03806283,0.03854041,0.007978402,0.4960514,0.4981125,0.1233561,4.264985E-11,4.204277E-11
38680,2023-01-20 10:51:48.438931,228666998,0,2.928565E-05,1.01447E-05,7.722517E-06,7.887325E-05,0.03616566,0.03675603,0.00790508,0.4796814,0.4814969,0.1230962,4.245414E-11,4.179716E-11
38842,2023-01-20 10:51:48.938892,229167004,0,2.920923E-05,1.020313E-05,7.761818E-06,7.939319E-05,0.03734662,0.03800646,0.007947732,0.4942931,0.4963086,0.1235361,4.258839E-11,4.192303E-11
39006,2023-01-20 10:51:49.438903,229666999,0,2.928847E-05,9.825452E-06,7.582004E-06,7.985211E-05,0.03528759,0.03588049,0.007875729,0.4759439,0.4776842,0.1231257,4.237049E-11,4.169267E-11
39168,2023-01-20 10:51:49.938885,230166996,0,2.903388E-05,9.797169E-06,7.687871E-06,8.057996E-05,0.03654704,0.03716967,0.007923224,0.4901042,0.4920504,0.1235187,4.253484E-11,4.186009E-11
39332,2023-01-20 10:51:50.438950,230667014,0,2.945945E-05,9.180148E-06,7.601698E-06,8.092038E-05,0.03499252,0.0355315,0.007864433,0.4729383,0.4746536,0.1231498,4.2384E-11,4.169647E-11
39492,2023-01-20 10:51:50.938877,231166995,0,2.956648E-05,8.955016E-06,7.818952E-06,8.132521E-05,0.03613986,0.03660731,0.007913115,0.486239,0.4880946,0.1234914,4.255846E-11,4.185858E-11
39656,2023-01-20 10:51:51.438881,231666999,0,3.636296E-05,8.837352E-06,7.674935E-06,7.444275E-05,0.03422371,0.03433795,0.007844642,0.46494,0.466498,0.1227475,4.237518E-11,4.159904E-11
39821,2023-01-20 10:51:51.938868,232166995,0,6.163949E-05,9.602162E-06,7.699711E-06,4.85109E-05,0.03729614,0.03691617,0.008043134,0.4821958,0.483816,0.123388,4.273651E-11,4.189874E-11
39984,2023-01-20 10:51:52.438938,232667009,0,9.047773E-05,8.837673E-06,8.212709E-06,1.835941E-05,0.03998112,0.03948627,0.008316775,0.4806222,0.4819961,0.1241165,4.307791E-11,4.214405E-11
40144,2023-01-20 10:51:52.938873,233166995,0,0.0001045173,8.41503E-06,8.376978E-06,2.013414E-06,0.04407042,0.04423561,0.008591851,0.5091257,0.5101951,0.125498,4.357587E-11,4.259151E-11
40307,2023-01-20 10:51:53.438895,233667006,0,9.938486E-05,7.624378E-06,8.814233E-06,2.488833E-06,0.04387046,0.04413488,0.008568733,0.5004903,0.5012861,0.1260608,4.372793E-11,4.261476E-11
40469,2023-01-20 10:51:53.938802,234167000,0,8.809652E-05,7.203645E-06,9.042109E-06,1.006475E-05,0.04643691,0.04750287,0.008574165,0.5267292,0.5273564,0.1272127,4.415188E-11,4.299955E-11
40634,2023-01-20 10:51:54.435459,234667012,0,8.881534E-05,6.768155E-06,7.924115E-06,6.84715E-06,0.04440675,0.04643194,0.008445487,0.5106485,0.5111464,0.1272389,4.428639E-11,4.304672E-11
40795,2023-01-20 10:51:54.919295,235167000,0,8.787063E-05,6.611172E-06,7.161764E-06,6.21746E-06,0.04576122,0.04868414,0.00845436,0.5294048,0.5300983,0.1278218,4.471985E-11,4.347396E-11
40959,2023-01-20 10:51:55.419325,235667005,0,8.559305E-05,6.321375E-06,6.492865E-06,6.972337E-06,0.04336796,0.04649087,0.008353642,0.5094987,0.5101007,0.1275178,4.505432E-11,4.381146E-11
41124,2023-01-20 10:51:55.919238,236167001,0,8.508383E-05,6.175642E-06,6.220454E-06,6.516104E-06,0.0450389,0.04855885,0.008387998,0.528568,0.5297429,0.1280317,4.566494E-11,4.447007E-11
41288,2023-01-20 10:51:56.419174,236666996,0,8.443335E-05,5.843958E-06,5.699284E-06,6.68996E-06,0.04381984,0.04707741,0.008357419,0.5139144,0.5152159,0.1280211,4.625463E-11,4.511735E-11
41448,2023-01-20 10:51:56.919241,237167000,0,8.343036E-05,5.823951E-06,5.792051E-06,7.122532E-06,0.04655583,0.04993927,0.008439437,0.5390303,0.5412927,0.1288072,4.699942E-11,4.592046E-11
41612,2023-01-20 10:51:57.419130,237666995,0,8.322312E-05,5.727369E-06,5.688828E-06,6.839503E-06,0.04476727,0.04772966,0.008415066,0.5224999,0.5245838,0.1287498,4.768637E-11,4.668786E-11
41773,2023-01-20 10:51:57.919189,238166999,0,8.337577E-05,5.86283E-06,5.825415E-06,6.362703E-06,0.04627118,0.0492309,0.008483068,0.5431898,0.5458289,0.1292497,4.84398E-11,4.751072E-11
41937,2023-01-20 10:51:58.419175,238667001,0,8.386633E-05,5.930514E-06,5.854101E-06,5.614319E-06,0.04404921,0.04659661,0.008439481,0.5247287,0.5270115,0.1290423,4.911506E-11,4.827486E-11
42101,2023-01-20 10:51:58.919171,239167011,0,8.382047E-05,6.184161E-06,6.119683E-06,5.543763E-06,0.04529555,0.04778825,0.008480309,0.5446409,0.5473995,0.1295112,4.983912E-11,4.906073E-11
42266,2023-01-20 10:51:59.419128,239667000,0,8.35937E-05,6.292755E-06,6.303411E-06,5.7146E-06,0.04306229,0.04517784,0.008411552,0.5252306,0.5275883,0.1292251,5.043075E-11,4.971801E-11
42428,2023-01-20 10:51:59.919160,240166996,0,8.363121E-05,6.598498E-06,6.612461E-06,5.735091E-06,0.04408621,0.0461462,0.008424308,0.5430231,0.5457963,0.1295384,5.106294E-11,5.038293E-11
42593,2023-01-20 10:52:00.419217,240667008,0,8.392028E-05,6.770741E-06,6.765591E-06,5.566296E-06,0.0420986,0.04385754,0.008348992,0.5231489,0.5255337,0.1291934,5.152136E-11,5.086092E-11
42796,2023-01-20 10:52:00.919183,241166996,0,8.419096E-05,7.044158E-06,7.167714E-06,5.493734E-06,0.04369514,0.04545712,0.008378597,0.5423135,0.5452099,0.1295388,5.205348E-11,5.13887E-11
42962,2023-01-20 10:52:01.419172,241667000,0,8.429678E-05,7.162449E-06,7.37568E-06,5.567759E-06,0.04219552,0.04379195,0.008316373,0.5241612,0.5267392,0.1292582,5.234842E-11,5.165557E-11
43123,2023-01-20 10:52:01.919146,242166996,0,8.450076E-05,7.48023E-06,7.730919E-06,5.635709E-06,0.04422018,0.04592953,0.008359531,0.5450435,0.548205,0.1296794,5.276345E-11,5.203685E-11
43288,2023-01-20 10:52:02.419164,242667000,0,8.457644E-05,7.573035E-06,7.884901E-06,5.74638E-06,0.0429749,0.04454504,0.008309138,0.5273007,0.5301177,0.1293945,5.284726E-11,5.205726E-11
43449,2023-01-20 10:52:02.919174,243166996,0,8.479272E-05,7.879305E-06,8.267407E-06,5.753157E-06,0.04505998,0.04674392,0.008349078,0.5479687,0.5513151,0.1297843,5.309702E-11,5.225434E-11
43615,2023-01-20 10:52:03.419138,243667005,0,8.494146E-05,7.940262E-06,8.358094E-06,5.73786E-06,0.04351485,0.04506641,0.008295194,0.5289766,0.5318936,0.1294271,5.293903E-11,5.200994E-11
43778,2023-01-20 10:52:03.919162,244167005,0,8.525086E-05,8.186315E-06,8.66169E-06,5.727282E-06,0.04554026,0.04713812,0.008330381,0.5489343,0.5523199,0.1297208,5.302317E-11,5.203182E-11
43944,2023-01-20 10:52:04.399522,244667014,0,8.550214E-05,8.471322E-06,9.002068E-06,5.805332E-06,0.04803643,0.0497029,0.008386991,0.572983,0.576987,0.1301807,5.312051E-11,5.207218E-11
44106,2023-01-20 10:52:04.908432,245167006,0,8.551119E-05,8.445553E-06,9.035541E-06,6.028796E-06,0.04654739,0.04802431,0.008342671,0.5536957,0.5572171,0.1298843,5.270229E-11,5.157078E-11
44271,2023-01-20 10:52:05.399334,245667005,0,8.580116E-05,8.648051E-06,9.287016E-06,6.108431E-06,0.04852343,0.04999942,0.00837731,0.5747737,0.5787205,0.1301884,5.259487E-11,5.141123E-11
44432,2023-01-20 10:52:05.899214,246167000,0,8.618381E-05,8.522597E-06,9.202535E-06,5.999417E-06,0.0460853,0.04735848,0.008308494,0.5507479,0.5540357,0.1296875,5.191928E-11,5.06657E-11
44599,2023-01-20 10:52:06.399221,246666996,0,8.628808E-05,8.695151E-06,9.433266E-06,6.381255E-06,0.04795193,0.04916923,0.008348792,0.5716394,0.5752919,0.1299586,5.175598E-11,5.047357E-11
44760,2023-01-20 10:52:06.899189,247167000,0,8.656931E-05,8.576414E-06,9.355372E-06,6.480086E-06,0.04573227,0.04674423,0.008289567,0.5489075,0.5519908,0.1294921,5.10389E-11,4.972284E-11
44925,2023-01-20 10:52:07.399313,247666996,0,8.745738E-05,8.72615E-06,9.527145E-06,6.187745E-06,0.04743372,0.0483852,0.008329955,0.5690699,0.5724211,0.1297505,5.081888E-11,4.950006E-11
45087,2023-01-20 10:52:07.899165,248167000,0,8.795626E-05,8.588489E-06,9.428789E-06,6.249306E-06,0.04557052,0.04640669,0.008283059,0.5483188,0.5512012,0.1293529,5.011901E-11,4.880278E-11
45252,2023-01-20 10:52:08.399266,248667000,0,8.852904E-05,8.745636E-06,9.618556E-06,6.33543E-06,0.0477804,0.04866564,0.008333973,0.5707829,0.5739467,0.1297363,4.994362E-11,4.864275E-11
45415,2023-01-20 10:52:08.899201,249167009,0,8.903236E-05,8.560773E-06,9.46786E-06,6.43397E-06,0.0456642,0.04646495,0.008279493,0.5490038,0.5517141,0.1293013,4.918086E-11,4.790597E-11
45580,2023-01-20 10:52:09.399262,249667012,0,8.952362E-05,8.676126E-06,9.643318E-06,6.603716E-06,0.04743575,0.04827174,0.008321622,0.5697309,0.5726798,0.129569,4.89537E-11,4.771026E-11
45743,2023-01-20 10:52:09.899200,250167000,0,9.007668E-05,8.588661E-06,9.509758E-06,6.780342E-06,0.04634922,0.04716346,0.008303339,0.5538698,0.5565411,0.1294463,4.838478E-11,4.718648E-11
45908,2023-01-20 10:52:10.399259,250667009,0,9.107439E-05,8.733149E-06,9.65901E-06,6.535253E-06,0.04875484,0.04967398,0.008354113,0.5784375,0.5814621,0.1298721,4.823097E-11,4.707505E-11
46069,2023-01-20 10:52:10.899195,251167003,0,9.182821E-05,8.567382E-06,9.546437E-06,6.455306E-06,0.04712655,0.0479955,0.008319956,0.5606312,0.563364,0.129655,4.759544E-11,4.649576E-11
46234,2023-01-20 10:52:11.399226,251667000,0,9.208461E-05,8.677382E-06,9.663366E-06,6.953608E-06,0.04898878,0.04992043,0.008363753,0.5843014,0.5873727,0.130058,4.742224E-11,4.637013E-11
46395,2023-01-20 10:52:11.899195,252167005,0,9.273359E-05,8.485445E-06,9.449286E-06,7.056527E-06,0.04705214,0.04790433,0.008320922,0.5644408,0.5671694,0.1297697,4.677712E-11,4.579168E-11
46561,2023-01-20 10:52:12.399251,252667000,0,9.364673E-05,8.595505E-06,9.51941E-06,6.972219E-06,0.04895847,0.04987648,0.00836412,0.5882627,0.5913428,0.1301517,4.664992E-11,4.571483E-11
46722,2023-01-20 10:52:12.899186,253166995,0,9.449226E-05,8.430388E-06,9.370146E-06,6.872564E-06,0.04749824,0.04838945,0.008332101,0.5705188,0.573329,0.1299839,4.612383E-11,4.525045E-11
46887,2023-01-20 10:52:13.399262,253667009,0,9.523485E-05,8.516335E-06,9.431865E-06,6.941733E-06,0.04915542,0.05011042,0.00836572,0.5934078,0.5965663,0.130292,4.600045E-11,4.517336E-11
47050,2023-01-20 10:52:13.899162,254167012,0,9.550127E-05,8.334522E-06,9.216618E-06,7.43205E-06,0.04714257,0.04805909,0.008321699,0.5729136,0.5757329,0.1300297,4.547816E-11,4.470913E-11
47217,2023-01-20 10:52:14.399219,254667015,0,9.625085E-05,8.436046E-06,9.299908E-06,7.473284E-06,0.04894378,0.04995202,0.008357557,0.5957978,0.5989938,0.130337,4.540955E-11,4.468074E-11
47379,2023-01-20 10:52:14.879362,255166996,0,9.714667E-05,8.243515E-06,9.056386E-06,7.346381E-06,0.0469491,0.04790453,0.008310925,0.5741763,0.5770272,0.1299951,4.492514E-11,4.424773E-11
47542,2023-01-20 10:52:15.381238,255667014,0,9.763044E-05,8.336386E-06,9.185666E-06,7.60595E-06,0.04872871,0.04976735,0.008351936,0.5972546,0.6005216,0.1303381,4.49105E-11,4.426649E-11
47705,2023-01-20 10:52:15.879313,256167000,0,9.834542E-05,8.10467E-06,8.913472E-06,7.623327E-06,0.04628403,0.04722277,0.008292576,0.5728799,0.5757145,0.1298854,4.441953E-11,4.382161E-11
47869,2023-01-20 10:52:16.379254,256666996,0,9.890101E-05,8.178305E-06,9.002984E-06,7.795082E-06,0.04766949,0.04864455,0.008321074,0.5928477,0.5960129,0.1300731,4.43903E-11,4.382362E-11
48032,2023-01-20 10:52:16.879220,257167012,0,9.974587E-05,7.990597E-06,8.774323E-06,7.669741E-06,0.04546893,0.0463476,0.008269625,0.5693523,0.5721238,0.1296659,4.39937E-11,4.346816E-11
48244,2023-01-20 10:52:17.379216,257666996,0,0.000100517,8.108517E-06,8.894598E-06,7.640896E-06,0.04724666,0.04820327,0.008311867,0.5911841,0.5943396,0.1299481,4.405386E-11,4.355493E-11
48407,2023-01-20 10:52:17.879148,258167000,0,0.0001013642,7.941772E-06,8.69418E-06,7.494383E-06,0.04533202,0.04621698,0.008264261,0.5687923,0.5715768,0.1295567,4.370966E-11,4.324589E-11
48571,2023-01-20 10:52:18.379224,258666996,0,0.0001018606,8.057337E-06,8.802625E-06,7.730734E-06,0.04711876,0.04809942,0.0083076,0.5902069,0.5933763,0.129868,4.378686E-11,4.33461E-11
48735,2023-01-20 10:52:18.879216,259167000,0,0.0001023935,7.895907E-06,8.680476E-06,7.8096E-06,0.04512202,0.04598092,0.008263848,0.5683345,0.5711581,0.1295016,4.347952E-11,4.306844E-11
48898,2023-01-20 10:52:19.379268,259667012,0,0.0001029375,8.027519E-06,8.747247E-06,8.010885E-06,0.04685768,0.04776748,0.00830527,0.589469,0.5926551,0.1297967,4.356735E-11,4.317631E-11
49061,2023-01-20 10:52:19.879147,260167000,0,0.0001034597,7.862262E-06,8.57739E-06,8.120855E-06,0.04487299,0.04573145,0.008255393,0.5664456,0.5692521,0.1294085,4.326036E-11,4.289712E-11
49225,2023-01-20 10:52:20.379168,260667005,0,0.0001040673,7.941856E-06,8.689492E-06,8.179154E-06,0.04630259,0.04719901,0.008285249,0.5851501,0.5882648,0.1295948,4.332131E-11,4.297632E-11
49389,2023-01-20 10:52:20.879193,261167000,0,0.0001046827,7.765779E-06,8.471806E-06,8.211313E-06,0.04405657,0.04484826,0.008227017,0.5605341,0.5632287,0.1291123,4.301291E-11,4.269363E-11
49552,2023-01-20 10:52:21.379253,261667001,0,0.0001052158,7.884136E-06,8.597272E-06,8.336981E-06,0.04566525,0.04652336,0.008266361,0.5799194,0.5829312,0.1293617,4.312595E-11,4.282164E-11
49715,2023-01-20 10:52:21.879188,262166996,0,0.0001060367,7.7438E-06,8.408118E-06,8.15114E-06,0.04371737,0.0445388,0.008215588,0.5572106,0.5598674,0.1289324,4.287048E-11,4.258714E-11
49878,2023-01-20 10:52:22.379176,262667008,0,0.0001065071,7.874782E-06,8.551543E-06,8.303283E-06,0.04551401,0.04640991,0.00826248,0.5774913,0.5805064,0.1292492,4.301304E-11,4.274036E-11
50042,2023-01-20 10:52:22.879209,263166996,0,0.0001073063,7.753039E-06,8.401536E-06,8.094798E-06,0.04398476,0.04486073,0.008222876,0.5569415,0.5596618,0.1289143,4.280452E-11,4.254766E-11
50205,2023-01-20 10:52:23.363102,263667005,0,0.0001077369,7.877596E-06,8.543699E-06,8.243022E-06,0.04580179,0.04680933,0.008267091,0.5778923,0.5810168,0.1292229,4.294604E-11,4.269596E-11
50370,2023-01-20 10:52:23.859343,264166996,0,0.000108023,7.722598E-06,8.369595E-06,8.451892E-06,0.04380586,0.04475437,0.008218412,0.5554377,0.5582035,0.1288708,4.269429E-11,4.245538E-11
50534,2023-01-20 10:52:24.359289,264666999,0,0.0001085139,7.82172E-06,8.491522E-06,8.474394E-06,0.04531575,0.04632312,0.008253192,0.574257,0.5773696,0.1291109,4.280314E-11,4.256862E-11
50697,2023-01-20 10:52:24.859229,265166995,0,0.0001093423,7.649425E-06,8.321671E-06,8.085044E-06,0.04307407,0.04392918,0.008191295,0.5501942,0.5528972,0.1286127,4.253416E-11,4.230971E-11
50862,2023-01-20 10:52:25.359272,265667009,0,0.0001097096,7.775292E-06,8.476901E-06,8.217745E-06,0.04477206,0.0456438,0.008237166,0.5699529,0.5730233,0.1289381,4.268893E-11,4.246942E-11
51024,2023-01-20 10:52:25.859151,266167012,0,0.0001103943,7.65491E-06,8.304281E-06,8.014098E-06,0.04306675,0.04388569,0.008191242,0.54879,0.5515119,0.1285672,4.248757E-11,4.227704E-11
51188,2023-01-20 10:52:26.359161,266666999,0,0.0001108729,7.786378E-06,8.43393E-06,8.012201E-06,0.04478447,0.04571512,0.008234816,0.5685927,0.5716731,0.1288823,4.264149E-11,4.243432E-11
51350,2023-01-20 10:52:26.859185,267167000,0,0.000110863,7.644716E-06,8.314111E-06,8.404262E-06,0.042945,0.04376745,0.008186554,0.5472052,0.5499321,0.1285167,4.242804E-11,4.222875E-11
51515,2023-01-20 10:52:27.359249,267666996,0,0.0001115848,7.760246E-06,8.423311E-06,8.142215E-06,0.04446474,0.04531556,0.008221054,0.5656418,0.5686777,0.1287482,4.255205E-11,4.235728E-11
51677,2023-01-20 10:52:27.859213,268167000,0,0.000112165,7.589455E-06,8.242074E-06,7.958882E-06,0.04217534,0.04294424,0.008156915,0.5419529,0.5445606,0.1282402,4.229962E-11,4.2114E-11
51841,2023-01-20 10:52:28.359153,268666996,0,0.0001122272,7.703747E-06,8.340804E-06,8.349571E-06,0.04368065,0.04451735,0.008192686,0.5596702,0.5625529,0.1284603,4.243662E-11,4.225422E-11
52005,2023-01-20 10:52:28.859183,269167000,0,0.0001122602,7.566788E-06,8.193237E-06,8.670059E-06,0.04174784,0.04257476,0.008136317,0.5376067,0.5401371,0.1279857,4.222442E-11,4.204874E-11
52170,2023-01-20 10:52:29.359248,269666996,0,0.0001126643,7.707202E-06,8.364831E-06,8.639139E-06,0.04353103,0.04440861,0.008186301,0.5571289,0.5600169,0.1283075,4.240882E-11,4.223423E-11
52332,2023-01-20 10:52:29.859213,270167000,0,0.0001127703,7.629722E-06,8.267692E-06,8.863492E-06,0.04236235,0.04321264,0.008157703,0.5392544,0.5418994,0.1280732,4.228183E-11,4.211254E-11
52496,2023-01-20 10:52:30.359240,270666996,0,0.0001126664,7.78045E-06,8.416977E-06,9.332196E-06,0.04429037,0.04521273,0.00820975,0.5600404,0.5630841,0.128445,4.24639E-11,4.229579E-11
52658,2023-01-20 10:52:30.859192,271167006,0,0.0001128885,7.667053E-06,8.281037E-06,9.416696E-06,0.04288918,0.04376042,0.008174242,0.5411653,0.5439177,0.1282044,4.228878E-11,4.212729E-11
52823,2023-01-20 10:52:31.359251,271666996,0,0.0001134373,7.827349E-06,8.439207E-06,9.199302E-06,0.04495969,0.04596293,0.008230674,0.5634134,0.5666292,0.1286376,4.248482E-11,4.232397E-11
52985,2023-01-20 10:52:31.859198,272167000,0,0.0001135722,7.701363E-06,8.308947E-06,9.285708E-06,0.04344808,0.04444984,0.008192815,0.544799,0.5477224,0.1283862,4.229682E-11,4.214097E-11
53149,2023-01-20 10:52:32.359237,272667000,0,0.0001134647,7.855133E-06,8.462355E-06,9.652966E-06,0.04549554,0.04665279,0.008249744,0.5676557,0.5710841,0.1288626,4.249186E-11,4.233477E-11
53311,2023-01-20 10:52:32.859126,273166996,0,0.0001138548,7.733481E-06,8.333439E-06,9.373264E-06,0.04394361,0.04505084,0.008212549,0.5492216,0.5523441,0.1286261,4.230437E-11,4.215016E-11
53476,2023-01-20 10:52:33.359255,273667010,0,0.0001139736,7.864081E-06,8.478358E-06,9.440698E-06,0.04584947,0.04707367,0.008260692,0.5716288,0.5752854,0.1290244,4.247638E-11,4.232055E-11
53638,2023-01-20 10:52:33.839036,274166996,0,0.0001138748,7.690601E-06,8.343582E-06,9.56834E-06,0.04376316,0.04479547,0.008210569,0.5506009,0.5538234,0.1287303,4.224265E-11,4.209077E-11
53854,2023-01-20 10:52:34.338959,274666999,0,0.0001133086,7.79745E-06,8.463002E-06,1.029207E-05,0.0450934,0.04606432,0.008242756,0.569865,0.5734493,0.1290025,4.236371E-11,4.221288E-11
54016,2023-01-20 10:52:34.838925,275167005,0,0.0001142132,7.63521E-06,8.303363E-06,9.533756E-06,0.04309217,0.04392066,0.008188048,0.547971,0.5510933,0.1286138,4.213998E-11,4.199749E-11
54181,2023-01-20 10:52:35.338934,275667016,0,0.0001140013,7.744548E-06,8.374801E-06,9.981309E-06,0.04439653,0.04522672,0.00822194,0.5664219,0.5698074,0.1288759,4.227097E-11,4.213152E-11
54344,2023-01-20 10:52:35.838885,276166996,0,0.0001143879,7.599069E-06,8.315581E-06,9.707302E-06,0.04263827,0.043393,0.008172731,0.5453866,0.5483569,0.1284968,4.208683E-11,4.195629E-11
54508,2023-01-20 10:52:36.338911,276667005,0,0.0001150226,7.704591E-06,8.394306E-06,9.327949E-06,0.04391551,0.04465353,0.008206941,0.5633681,0.5665712,0.12872,4.222359E-11,4.209658E-11
54670,2023-01-20 10:52:36.838866,277166996,0,0.0001149361,7.580313E-06,8.205567E-06,9.647742E-06,0.04200608,0.04268883,0.00815365,0.5415258,0.5443038,0.1282999,4.203194E-11,4.191425E-11
54836,2023-01-20 10:52:37.338916,277667000,0,0.0001151839,7.73082E-06,8.360629E-06,9.628769E-06,0.04382483,0.04461828,0.008201953,0.561842,0.564937,0.1286281,4.223317E-11,4.211564E-11
