LineNo,UTC_Approx,TimeUS,C,V12,V13,V14,V15,V16,V17,V18,V19,V20,V21,V22,V23
1559,2023-01-20 10:49:56.664880,116666343,0,1.161908E-10,6.066555E-06,6.06655E-06,6.08493E-08,0,0,0,0,0,0,0,0
2068,2023-01-20 10:49:57.164406,117166344,0,1.159291E-10,5.759266E-06,5.759235E-06,5.92423E-08,0,0,0,0,0,0,0,0
2348,2023-01-20 10:49:57.664269,117666343,0,1.156689E-10,4.924636E-06,4.924506E-06,5.685851E-08,0,0,0,0,0,0,0,0
2575,2023-01-20 10:49:58.164315,118166343,0,1.154221E-10,4.249786E-06,4.249556E-06,5.491225E-08,0,0,0,0,0,0,0,0
2777,2023-01-20 10:49:58.664277,118666358,0,1.151648E-10,3.292887E-06,3.292518E-06,5.221133E-08,0,0,0,0,0,0,0,0
2979,2023-01-20 10:49:59.164279,119166350,0,1.149369E-10,2.767589E-06,2.767134E-06,5.004009E-08,0,0,0,0,0,0,0,0
3179,2023-01-20 10:49:59.664291,119666375,0,1.147127E-10,2.188286E-06,2.187756E-06,4.72839E-08,0,0,0,0,0,0,0,0
3377,2023-01-20 10:50:00.164280,120166355,0,1.145032E-10,1.897308E-06,1.896725E-06,4.514907E-08,0,0,0,0,0,0,0,0
3578,2023-01-20 10:50:00.664271,120666346,0,1.142937E-10,1.579338E-06,1.578704E-06,4.25185E-08,0,0,0,0,0,0,0,0
3760,2023-01-20 10:50:01.164248,121166365,0,1.140971E-10,1.425405E-06,1.42473E-06,4.056772E-08,0,0,0,0,0,0,0,0
3923,2023-01-20 10:50:01.664229,121666348,0,1.138998E-10,1.257918E-06,1.257193E-06,3.828259E-08,0,0,0,0,0,0,0,0
4084,2023-01-20 10:50:02.164194,122166353,0,1.137171E-10,1.164778E-06,1.164007E-06,3.646894E-08,0,0,0,0,0,0,0,0
4248,2023-01-20 10:50:02.663437,122666351,0,1.135248E-10,1.070864E-06,1.070083E-06,3.442256E-08,0,0,0,0,0,0,0,0
4408,2023-01-20 10:50:03.163459,123166375,0,1.133451E-10,1.019948E-06,1.019166E-06,3.286578E-08,0,0,0,0,0,0,0,0
4572,2023-01-20 10:50:03.663474,123666355,0,1.131739E-10,9.637625E-07,9.629857E-07,2.997986E-08,0,0,0,0,0,0,0,0
4733,2023-01-20 10:50:04.164192,124166346,0,1.129758E-10,9.411834E-07,9.404251E-07,2.819713E-08,0,0,0,0,0,0,0,0
4898,2023-01-20 10:50:04.664165,124666357,0,1.128104E-10,9.150535E-07,9.143707E-07,2.665378E-08,0,0,0,0,0,0,0,0
5057,2023-01-20 10:50:05.164199,125166348,0,1.126384E-10,9.006967E-07,9.000798E-07,2.548164E-08,0,0,0,0,0,0,0,0
5222,2023-01-20 10:50:05.664237,125666350,0,1.124425E-10,8.853345E-07,8.847933E-07,2.427455E-08,0,0,0,0,0,0,0,0
5381,2023-01-20 10:50:06.144339,126166357,0,1.122913E-10,8.780188E-07,8.775027E-07,2.332203E-08,0,0,0,0,0,0,0,0
5547,2023-01-20 10:50:06.641816,126666366,0,1.129997E-10,8.671972E-07,8.666963E-07,2.229754E-08,0.001436244,0.001017567,0.001433363,0.001590604,0.00185703,0.001432002,0,0
5706,2023-01-20 10:50:07.141493,127166349,0,1.139498E-10,8.534039E-07,8.531237E-07,2.145565E-08,0.001323669,0.000636075,0.001326923,0.001513064,0.001767247,0.00132492,0,0
5870,2023-01-20 10:50:07.646106,127666349,0,1.149129E-10,8.23642E-07,8.257743E-07,2.051767E-08,0.001293869,0.0004636857,0.001298377,0.001468137,0.001700316,0.001295949,0,0
6031,2023-01-20 10:50:08.141378,128166352,0,1.158866E-10,8.035755E-07,8.090958E-07,1.976234E-08,0.001279399,0.0003670671,0.001284278,0.001442722,0.00165021,0.001281693,0,0
6195,2023-01-20 10:50:08.641444,128666362,0,1.168653E-10,7.773498E-07,7.902094E-07,1.892531E-08,0.001264162,0.0003047007,0.001270526,0.001419021,0.001582189,0.001267813,0,0
6357,2023-01-20 10:50:09.141672,129166352,0,1.178168E-10,7.641184E-07,7.815697E-07,1.822689E-08,0.001251935,0.0002615659,0.001262842,0.001409683,0.001548755,0.001260179,0,0
6521,2023-01-20 10:50:09.639155,129666642,0,1.187752E-10,7.518826E-07,7.738878E-07,1.74753E-08,0.001241356,0.0002295138,0.001251001,0.001392602,0.001523186,0.001249099,0,0
6681,2023-01-20 10:50:10.139156,130166654,0,1.197207E-10,7.466754E-07,7.699519E-07,1.687297E-08,0.001201471,0.0002044991,0.001222763,0.001342922,0.001469134,0.001222066,0,0
6845,2023-01-20 10:50:10.638947,130667009,0,1.20642E-10,7.414257E-07,7.659838E-07,1.622731E-08,0.001171421,0.0001844503,0.001212293,0.001289834,0.001365051,0.00121194,0,0
7004,2023-01-20 10:50:11.138863,131167011,0,1.21563E-10,7.386699E-07,7.64192E-07,1.569572E-08,0.001110562,0.0001674775,0.001143076,0.001182524,0.00127408,0.001143188,0,0
7168,2023-01-20 10:50:11.638903,131667000,0,1.224583E-10,7.362122E-07,7.626582E-07,1.5129E-08,0.001081929,0.0001530021,0.001105305,0.001088486,0.001117032,0.001104961,0,0
7327,2023-01-20 10:50:12.138860,132166996,0,1.23339E-10,7.35079E-07,7.618667E-07,1.465931E-08,0.001070718,0.0001415066,0.001087864,0.0010433,0.001029424,0.001087441,0,0
7491,2023-01-20 10:50:12.638896,132667000,0,1.241953E-10,7.338585E-07,7.60963E-07,1.416163E-08,0.00106109,0.0001316217,0.001073837,0.0009992555,0.0009308255,0.001072955,0,0
7651,2023-01-20 10:50:13.138870,133167001,0,1.25028E-10,7.329476E-07,7.601462E-07,1.374919E-08,0.001054789,0.0001234336,0.001067957,0.0009770419,0.0008794109,0.001066683,0,0
7815,2023-01-20 10:50:13.638903,133666995,0,1.258188E-10,7.317242E-07,7.585706E-07,1.32901E-08,0.001042085,0.0001162092,0.001065623,0.0009510436,0.0008254538,0.001063907,0,0
7976,2023-01-20 10:50:14.138845,134167003,0,1.265747E-10,7.304959E-07,7.566223E-07,1.29116E-08,0.001002711,0.0001096008,0.001062921,0.0009128203,0.0007832753,0.001061008,0,0
8141,2023-01-20 10:50:14.638898,134666996,0,1.273161E-10,7.286866E-07,7.542387E-07,1.256175E-08,0.000983304,0.0001039446,0.001058698,0.0008952124,0.0007617279,0.001056577,0,0
8300,2023-01-20 10:50:15.138827,135167003,0,1.280204E-10,7.264814E-07,7.516797E-07,1.225037E-08,0.0009742431,9.897975E-05,0.001052936,0.0008869199,0.0007525352,0.001050936,0,0
8464,2023-01-20 10:50:15.638904,135667005,0,1.287003E-10,7.22729E-07,7.47531E-07,1.192497E-08,0.0009627425,9.444563E-05,0.001045666,0.0008769068,0.0007432375,0.001043851,0,0
8623,2023-01-20 10:50:16.138900,136167016,0,1.29352E-10,7.194263E-07,7.438168E-07,1.165313E-08,0.0009456503,9.02354E-05,0.001039789,0.0008621762,0.0007315293,0.001038452,0,0
8787,2023-01-20 10:50:16.638904,136666995,0,1.300841E-10,7.143804E-07,7.365922E-07,1.138265E-08,0.0007894996,8.471902E-05,0.001028958,0.0007301722,0.0006287986,0.00102906,0,0
8946,2023-01-20 10:50:17.138909,137167011,0,1.309891E-10,7.084225E-07,7.270216E-07,1.11506E-08,0.0005173766,7.780563E-05,0.001019419,0.0004917578,0.0004351664,0.001022262,0,0
9110,2023-01-20 10:50:17.638915,137666995,0,1.319416E-10,6.927995E-07,7.090716E-07,1.090187E-08,0.0003258187,7.184426E-05,0.00101419,0.0003148449,0.0002853229,0.001019086,0,0
9270,2023-01-20 10:50:18.132253,138167002,0,1.328882E-10,6.731253E-07,6.88351E-07,1.0681E-08,0.000207099,6.704598E-05,0.00101209,0.0001998859,0.0001856221,0.001017687,0,0
9434,2023-01-20 10:50:18.619396,138667000,0,1.337893E-10,6.245077E-07,6.393539E-07,1.043031E-08,0.0001365325,6.326022E-05,0.001011463,0.0001303252,0.0001239891,0.001016587,0,0
9595,2023-01-20 10:50:19.119303,139166998,0,1.347052E-10,5.880635E-07,6.028717E-07,1.022986E-08,0.0001000524,6.016799E-05,0.001011039,9.412044E-05,9.106248E-05,0.001015814,0,0
9759,2023-01-20 10:50:19.619174,139666998,0,1.356501E-10,5.323934E-07,5.462787E-07,1.001927E-08,7.924256E-05,5.748301E-05,0.001009345,7.41129E-05,7.219034E-05,0.001013486,0,0
9918,2023-01-20 10:50:20.119149,140166999,0,1.365977E-10,4.961806E-07,5.093632E-07,9.843957E-09,6.645897E-05,5.509183E-05,0.001008064,6.195291E-05,6.056195E-05,0.001011753,0,0
10085,2023-01-20 10:50:20.619284,140667000,0,1.375508E-10,4.442109E-07,4.562472E-07,9.653779E-09,5.75019E-05,5.288306E-05,0.001006356,5.400989E-05,5.289743E-05,0.001009544,0,0
10244,2023-01-20 10:50:21.119177,141166996,0,1.384945E-10,4.099489E-07,4.211682E-07,9.487357E-09,5.140228E-05,5.086505E-05,0.001004044,4.831228E-05,4.732035E-05,0.001007051,0,0
10408,2023-01-20 10:50:21.619237,141667000,0,1.394253E-10,3.605974E-07,3.693497E-07,9.291891E-09,4.706706E-05,4.899978E-05,0.0009954822,4.415149E-05,4.322583E-05,0.0009986018,0,0
10567,2023-01-20 10:50:22.119158,142166999,0,1.403457E-10,3.314842E-07,3.380745E-07,9.122979E-09,4.340169E-05,4.728582E-05,0.0009867785,4.044313E-05,3.948336E-05,0.0009900242,0,0
10731,2023-01-20 10:50:22.619219,142666999,0,1.410609E-10,2.929903E-07,2.964175E-07,8.918285E-09,3.860713E-05,4.56417E-05,0.0009686986,3.563387E-05,3.465939E-05,0.0009718844,0,0
10890,2023-01-20 10:50:23.119206,143167019,0,1.416728E-10,2.727293E-07,2.743591E-07,8.759241E-09,3.520451E-05,4.40565E-05,0.0009168696,3.17789E-05,3.058051E-05,0.0009200726,0,0
11055,2023-01-20 10:50:23.619204,143667008,0,1.423518E-10,2.520329E-07,2.517343E-07,8.593029E-09,3.313264E-05,4.234983E-05,0.0008547726,2.941758E-05,2.776267E-05,0.000857914,0,0
11217,2023-01-20 10:50:24.119210,144166999,0,1.430591E-10,2.392653E-07,2.379338E-07,8.45534E-09,3.16207E-05,4.061679E-05,0.0007901164,2.785045E-05,2.57685E-05,0.0007929172,0,0
11383,2023-01-20 10:50:24.619247,144666995,0,1.437492E-10,2.253354E-07,2.232902E-07,8.30352E-09,3.063701E-05,3.871241E-05,0.0007502672,2.675269E-05,2.412389E-05,0.0007528845,0,0
11543,2023-01-20 10:50:25.119153,145167012,0,1.444492E-10,2.178798E-07,2.157917E-07,8.185121E-09,2.987119E-05,3.723324E-05,0.0007275089,2.583829E-05,2.280175E-05,0.0007300844,0,0
11708,2023-01-20 10:50:25.619174,145666997,0,1.450656E-10,2.092139E-07,2.072119E-07,8.055355E-09,2.697282E-05,3.597861E-05,0.0006640317,2.370695E-05,2.153303E-05,0.0006661413,0,0
11868,2023-01-20 10:50:26.119153,146167002,0,1.454922E-10,2.044821E-07,2.02425E-07,7.954939E-09,2.359855E-05,3.497943E-05,0.0005492039,2.157958E-05,2.051878E-05,0.000550819,0,0
12032,2023-01-20 10:50:26.619179,146667011,0,1.455078E-10,1.984482E-07,1.964152E-07,7.843637E-09,2.15228E-05,3.363081E-05,0.0004916954,2.027965E-05,1.97566E-05,0.0004931236,0,0
12191,2023-01-20 10:50:27.119123,147167002,0,1.457221E-10,1.951778E-07,1.932978E-07,7.751892E-09,2.038874E-05,3.237064E-05,0.0004800928,1.942131E-05,1.910795E-05,0.0004815295,0,0
12355,2023-01-20 10:50:27.599494,147666995,0,1.460625E-10,1.928988E-07,1.912597E-07,7.666688E-09,1.953315E-05,3.126071E-05,0.0004767264,1.871958E-05,1.854401E-05,0.0004781785,0,0
12515,2023-01-20 10:50:28.099333,148167002,0,1.462004E-10,1.898154E-07,1.88568E-07,7.569474E-09,1.873584E-05,3.001213E-05,0.0004738039,1.812211E-05,1.80707E-05,0.0004752358,0,0
12680,2023-01-20 10:50:28.617436,148666995,0,1.464487E-10,1.874296E-07,1.865577E-07,7.474149E-09,1.799259E-05,2.891024E-05,0.0004699064,1.759599E-05,1.765795E-05,0.0004712748,0,0
12841,2023-01-20 10:50:29.099230,149167018,0,1.468962E-10,1.860073E-07,1.854496E-07,7.389441E-09,1.738019E-05,2.804698E-05,0.0004673327,1.715112E-05,1.72977E-05,0.0004686175,0,0
13006,2023-01-20 10:50:29.599173,149666998,0,1.474038E-10,1.84785E-07,1.845442E-07,7.306975E-09,1.685428E-05,2.728278E-05,0.0004658686,1.675457E-05,1.697409E-05,0.000467081,0,0
13165,2023-01-20 10:50:30.099144,150166998,0,1.47843E-10,1.833038E-07,1.834125E-07,7.215469E-09,1.640361E-05,2.65073E-05,0.0004653645,1.640545E-05,1.668353E-05,0.0004665797,0,0
13329,2023-01-20 10:50:30.599179,150667008,0,1.483765E-10,1.822964E-07,1.827134E-07,7.133005E-09,1.597572E-05,2.587188E-05,0.0004638404,1.609848E-05,1.642824E-05,0.0004649869,0,0
13489,2023-01-20 10:50:31.099185,151166998,0,1.488588E-10,1.811525E-07,1.818648E-07,7.043863E-09,1.558073E-05,2.524862E-05,0.000462067,1.583179E-05,1.619866E-05,0.0004631596,0,0
13652,2023-01-20 10:50:31.599145,151667008,0,1.493662E-10,1.802778E-07,1.812742E-07,6.964943E-09,1.523624E-05,2.471101E-05,0.0004599593,1.558987E-05,1.599544E-05,0.0004609569,0,0
13813,2023-01-20 10:50:32.099144,152167000,0,1.498489E-10,1.792737E-07,1.805128E-07,6.880315E-09,1.494818E-05,2.419083E-05,0.0004593475,1.536653E-05,1.580074E-05,0.0004603216,0,0
13976,2023-01-20 10:50:32.599133,152666999,0,1.503014E-10,1.784043E-07,1.798718E-07,6.803763E-09,1.471423E-05,2.372154E-05,0.0004592145,1.518226E-05,1.56313E-05,0.000460176,0,0
14136,2023-01-20 10:50:33.099151,153167004,0,1.507174E-10,1.773927E-07,1.790276E-07,6.722201E-09,1.4467E-05,2.327131E-05,0.0004589249,1.499358E-05,1.546291E-05,0.0004598816,0,0
14302,2023-01-20 10:50:33.599173,153666999,0,1.511021E-10,1.764919E-07,1.782947E-07,6.647753E-09,1.427274E-05,2.285028E-05,0.000458399,1.483233E-05,1.531222E-05,0.0004593784,0,0
14464,2023-01-20 10:50:34.099117,154166995,0,1.513818E-10,1.753468E-07,1.772276E-07,6.568639E-09,1.408723E-05,2.2444E-05,0.0004581441,1.467943E-05,1.516138E-05,0.0004591467,0,0
14627,2023-01-20 10:50:34.599256,154666999,0,1.516107E-10,1.743356E-07,1.763151E-07,6.497561E-09,1.39419E-05,2.205647E-05,0.0004571789,1.455143E-05,1.502945E-05,0.0004582237,0,0
14790,2023-01-20 10:50:35.099185,155167007,0,1.51737E-10,1.729551E-07,1.748995E-07,6.41964E-09,1.37853E-05,2.167445E-05,0.0004560489,1.440397E-05,1.488566E-05,0.0004571525,0,0
14953,2023-01-20 10:50:35.599270,155667009,0,1.517875E-10,1.717155E-07,1.737006E-07,6.348434E-09,1.364152E-05,2.13071E-05,0.0004556035,1.426805E-05,1.4765E-05,0.0004567083,0,0
15113,2023-01-20 10:50:36.099195,156167000,0,1.517359E-10,1.701928E-07,1.721729E-07,6.274572E-09,1.349455E-05,2.094321E-05,0.0004536198,1.411376E-05,1.464288E-05,0.0004546978,0,0
15276,2023-01-20 10:50:36.599272,156667003,0,1.516058E-10,1.688519E-07,1.709147E-07,6.207752E-09,1.338062E-05,2.059149E-05,0.0004481692,1.398063E-05,1.454222E-05,0.0004491986,0,0
15436,2023-01-20 10:50:37.099170,157166999,0,1.512243E-10,1.668793E-07,1.689313E-07,6.131705E-09,1.328473E-05,2.019976E-05,0.0004373816,1.380677E-05,1.443006E-05,0.0004383883,0,0
15599,2023-01-20 10:50:37.599283,157666995,0,1.507447E-10,1.652694E-07,1.674082E-07,6.064249E-09,1.319335E-05,1.980312E-05,0.0004233983,1.364523E-05,1.434246E-05,0.000424362,0,0
15760,2023-01-20 10:50:38.090253,158166998,0,1.498737E-10,1.6327E-07,1.654144E-07,5.990066E-09,1.309822E-05,1.932039E-05,0.0004051382,1.343879E-05,1.425342E-05,0.0004060575,0,0
15923,2023-01-20 10:50:38.579366,158667008,0,1.490512E-10,1.617424E-07,1.639674E-07,5.92681E-09,1.30325E-05,1.886222E-05,0.0003801186,1.327058E-05,1.418213E-05,0.0003810296,0,0
16087,2023-01-20 10:50:39.090212,159166999,0,1.477577E-10,1.599884E-07,1.622151E-07,5.858373E-09,1.298333E-05,1.831757E-05,0.0003574509,1.308234E-05,1.411345E-05,0.000358383,0,0
16249,2023-01-20 10:50:39.579274,159667017,0,1.468329E-10,1.587625E-07,1.610792E-07,5.80311E-09,1.292646E-05,1.788277E-05,0.0003428333,1.294673E-05,1.406246E-05,0.0003437632,0,0
16412,2023-01-20 10:50:40.079200,160167008,0,1.457929E-10,1.572439E-07,1.595535E-07,5.740882E-09,1.286964E-05,1.741366E-05,0.0003340748,1.279409E-05,1.40114E-05,0.0003349947,0,0
16575,2023-01-20 10:50:40.579205,160667027,0,1.452167E-10,1.561832E-07,1.585569E-07,5.690596E-09,1.280488E-05,1.707941E-05,0.0003286953,1.268593E-05,1.397056E-05,0.0003295989,0,0
16738,2023-01-20 10:50:41.079172,161166995,0,1.446965E-10,1.547435E-07,1.571456E-07,5.631532E-09,1.273639E-05,1.675367E-05,0.0003256924,1.257156E-05,1.39228E-05,0.0003265694,0,0
16901,2023-01-20 10:50:41.579227,161667041,0,1.442385E-10,1.53739E-07,1.562902E-07,5.585842E-09,1.26924E-05,1.651354E-05,0.0003224245,1.250098E-05,1.38832E-05,0.0003233094,0,0
17064,2023-01-20 10:50:42.079186,162166995,0,1.437045E-10,1.523317E-07,1.55109E-07,5.532456E-09,1.264978E-05,1.628281E-05,0.0003190519,1.24319E-05,1.383264E-05,0.0003199445,0,0
17227,2023-01-20 10:50:42.579208,162667029,0,1.430134E-10,1.512604E-07,1.543133E-07,5.489403E-09,1.261878E-05,1.607886E-05,0.0003161389,1.237494E-05,1.379104E-05,0.0003170607,0,0
17390,2023-01-20 10:50:43.079159,163166995,0,1.419957E-10,1.498054E-07,1.532697E-07,5.4397E-09,1.259146E-05,1.588277E-05,0.0003137265,1.232059E-05,1.373382E-05,0.0003146874,0,0
17554,2023-01-20 10:50:43.579216,163667036,0,1.4092E-10,1.486598E-07,1.525586E-07,5.399179E-09,1.256096E-05,1.5695E-05,0.0003119586,1.227249E-05,1.368542E-05,0.0003129527,0,0
17719,2023-01-20 10:50:44.079194,164167007,0,1.394273E-10,1.469897E-07,1.515795E-07,5.350508E-09,1.253281E-05,1.550578E-05,0.0003093201,1.222276E-05,1.361377E-05,0.0003103675,0,0
17883,2023-01-20 10:50:44.579269,164667018,0,1.381531E-10,1.456533E-07,1.509075E-07,5.310866E-09,1.250842E-05,1.532215E-05,0.000305534,1.217781E-05,1.35585E-05,0.000306639,0,0
18046,2023-01-20 10:50:45.079178,165167004,0,1.368135E-10,1.440088E-07,1.501465E-07,5.26708E-09,1.248009E-05,1.514007E-05,0.0003000375,1.212999E-05,1.349559E-05,0.0003012095,0,0
18209,2023-01-20 10:50:45.579194,165667026,0,1.356876E-10,1.426612E-07,1.49623E-07,5.231914E-09,1.245677E-05,1.496382E-05,0.0002944615,1.208284E-05,1.344862E-05,0.0002957045,0,0
18372,2023-01-20 10:50:46.079165,166166996,0,1.342927E-10,1.410091E-07,1.490293E-07,5.19295E-09,1.243204E-05,1.478679E-05,0.0002914156,1.203245E-05,1.339267E-05,0.0002927249,0,0
18535,2023-01-20 10:50:46.579286,166667030,0,1.330289E-10,1.396799E-07,1.48606E-07,5.162318E-09,1.240715E-05,1.461525E-05,0.0002898019,1.198857E-05,1.334531E-05,0.000291164,0,0
18698,2023-01-20 10:50:47.059345,167167001,0,1.314383E-10,1.381036E-07,1.481111E-07,5.129595E-09,1.23838E-05,1.44368E-05,0.0002884135,1.194143E-05,1.328451E-05,0.0002898355,0,0
18860,2023-01-20 10:50:47.559395,167666997,0,1.301823E-10,1.369674E-07,1.478072E-07,5.106141E-09,1.236624E-05,1.427104E-05,0.0002871555,1.190259E-05,1.32431E-05,0.0002886285,0,0
19023,2023-01-20 10:50:48.059368,168167008,0,1.284451E-10,1.354875E-07,1.473915E-07,5.078191E-09,1.233486E-05,1.409305E-05,0.0002866759,1.184985E-05,1.318392E-05,0.0002881908,0,0
19186,2023-01-20 10:50:48.559275,168667002,0,1.268239E-10,1.341862E-07,1.47057E-07,5.054468E-09,1.230916E-05,1.391931E-05,0.0002861907,1.180174E-05,1.312961E-05,0.0002877477,0,0
19352,2023-01-20 10:50:49.059133,169167000,0,1.247102E-10,1.325537E-07,1.466147E-07,5.026494E-09,1.229455E-05,1.37266E-05,0.0002848698,1.174578E-05,1.305365E-05,0.0002865008,0,0
19515,2023-01-20 10:50:49.559187,169666997,0,1.233364E-10,1.313207E-07,1.463306E-07,5.006481E-09,1.228639E-05,1.35622E-05,0.000283225,1.170949E-05,1.30017E-05,0.0002849258,0,0
19678,2023-01-20 10:50:50.059158,170167008,0,1.217254E-10,1.297729E-07,1.459367E-07,4.982228E-09,1.227737E-05,1.339036E-05,0.0002812529,1.16674E-05,1.293592E-05,0.0002830426,0,0
19883,2023-01-20 10:50:50.559247,170666995,0,1.207166E-10,1.2854E-07,1.45662E-07,4.963923E-09,1.226925E-05,1.324313E-05,0.0002787868,1.163747E-05,1.28933E-05,0.0002806557,0,0
20046,2023-01-20 10:50:51.059155,171167002,0,1.197551E-10,1.271775E-07,1.453385E-07,4.943808E-09,1.225618E-05,1.310125E-05,0.0002772128,1.160634E-05,1.285017E-05,0.0002791573,0,0
20209,2023-01-20 10:50:51.559181,171667007,0,1.1894E-10,1.260443E-07,1.450929E-07,4.927976E-09,1.224796E-05,1.2969E-05,0.00027596,1.157991E-05,1.282001E-05,0.0002779646,0,0
20372,2023-01-20 10:50:52.059134,172166995,0,1.180876E-10,1.247705E-07,1.447963E-07,4.9101E-09,1.224048E-05,1.283813E-05,0.0002743104,1.155302E-05,1.278644E-05,0.0002763823,0,0
20535,2023-01-20 10:50:52.559254,172667004,0,1.173907E-10,1.236848E-07,1.445676E-07,4.896046E-09,1.222294E-05,1.271525E-05,0.0002734062,1.152471E-05,1.275655E-05,0.0002755426,0,0
20698,2023-01-20 10:50:53.059171,173167004,0,1.166165E-10,1.223548E-07,1.442483E-07,4.878016E-09,1.220371E-05,1.25927E-05,0.0002725588,1.149368E-05,1.272049E-05,0.0002747603,0,0
20861,2023-01-20 10:50:53.559175,173667002,0,1.160023E-10,1.21353E-07,1.440382E-07,4.86608E-09,1.218917E-05,1.247703E-05,0.0002717647,1.146673E-05,1.269585E-05,0.0002740261,0,0
21027,2023-01-20 10:50:54.053754,174166995,0,1.152308E-10,1.202918E-07,1.438038E-07,4.85297E-09,1.217586E-05,1.236219E-05,0.0002713032,1.144143E-05,1.26701E-05,0.0002736005,0,0
21191,2023-01-20 10:50:54.559233,174667005,0,1.142997E-10,1.194052E-07,1.436221E-07,4.843063E-09,1.215904E-05,1.224823E-05,0.0002709049,1.141851E-05,1.264432E-05,0.0002732041,0,0
21354,2023-01-20 10:50:55.059165,175167004,0,1.13333E-10,1.183847E-07,1.433878E-07,4.830117E-09,1.214731E-05,1.213465E-05,0.0002705052,1.139474E-05,1.261358E-05,0.0002728258,0,0
21517,2023-01-20 10:50:55.559224,175667001,0,1.124738E-10,1.174977E-07,1.431979E-07,4.819658E-09,1.214435E-05,1.202474E-05,0.000269417,1.137539E-05,1.258834E-05,0.0002717735,0,0
21680,2023-01-20 10:50:56.059136,176166995,0,1.116578E-10,1.165075E-07,1.429709E-07,4.806757E-09,1.214192E-05,1.191775E-05,0.0002674459,1.135693E-05,1.256006E-05,0.0002698564,0,0
21843,2023-01-20 10:50:56.539099,176667009,0,1.109925E-10,1.156996E-07,1.428009E-07,4.797544E-09,1.213751E-05,1.181553E-05,0.0002652171,1.133807E-05,1.253925E-05,0.0002676867,0,0
22006,2023-01-20 10:50:57.043371,177166995,0,1.103424E-10,1.147977E-07,1.426046E-07,4.78603E-09,1.21273E-05,1.171608E-05,0.0002639653,1.131386E-05,1.251775E-05,0.0002664962,0,0
22168,2023-01-20 10:50:57.539034,177667002,0,1.097443E-10,1.140632E-07,1.424538E-07,4.778275E-09,1.211877E-05,1.161933E-05,0.0002628193,1.129195E-05,1.24984E-05,0.000265408,0,0
22331,2023-01-20 10:50:58.038917,178166999,0,1.090463E-10,1.132525E-07,1.422718E-07,4.768479E-09,1.210871E-05,1.152429E-05,0.0002624335,1.127102E-05,1.247719E-05,0.0002650542,0,0
22494,2023-01-20 10:50:58.538968,178667006,0,1.083706E-10,1.126333E-07,1.421441E-07,4.763056E-09,1.210101E-05,1.143132E-05,0.0002619884,1.125192E-05,1.245774E-05,0.0002646475,0,0
22660,2023-01-20 10:50:59.038879,179166999,0,1.076087E-10,1.118967E-07,1.419673E-07,4.7545E-09,1.209535E-05,1.133959E-05,0.000261517,1.123488E-05,1.243656E-05,0.0002641921,0,0
22823,2023-01-20 10:50:59.538900,179667003,0,1.067999E-10,1.112472E-07,1.418156E-07,4.747698E-09,1.208936E-05,1.124955E-05,0.0002611277,1.121923E-05,1.241456E-05,0.0002638137,0,0
22986,2023-01-20 10:51:00.038895,180167008,0,1.060059E-10,1.105253E-07,1.416372E-07,4.738939E-09,1.208174E-05,1.116156E-05,0.0002608635,1.120216E-05,1.23903E-05,0.000263567,0,0
23149,2023-01-20 10:51:00.538910,180666998,0,1.052301E-10,1.099229E-07,1.414951E-07,4.732926E-09,1.207571E-05,1.107519E-05,0.0002604871,1.118662E-05,1.236511E-05,0.000263218,0,0
23312,2023-01-20 10:51:01.038899,181166999,0,1.044882E-10,1.092088E-07,1.413125E-07,4.724033E-09,1.207287E-05,1.099014E-05,0.0002590803,1.116974E-05,1.234245E-05,0.0002618518,0,0
23475,2023-01-20 10:51:01.538930,181667003,0,1.038675E-10,1.086432E-07,1.411834E-07,4.719115E-09,1.206583E-05,1.090652E-05,0.0002570048,1.114818E-05,1.232418E-05,0.0002598345,0,0
23638,2023-01-20 10:51:02.038868,182166999,0,1.032365E-10,1.079869E-07,1.410332E-07,4.712092E-09,1.205549E-05,1.082416E-05,0.0002557578,1.112261E-05,1.230381E-05,0.0002586439,0,0
23801,2023-01-20 10:51:02.538909,182666998,0,1.02601E-10,1.074584E-07,1.40918E-07,4.708263E-09,1.204706E-05,1.074392E-05,0.0002551571,1.110101E-05,1.228275E-05,0.0002580922,0,0
23964,2023-01-20 10:51:03.038918,183167016,0,1.01948E-10,1.068423E-07,1.407779E-07,4.702756E-09,1.204006E-05,1.066506E-05,0.0002545675,1.10798E-05,1.226229E-05,0.0002575431,0,0
24127,2023-01-20 10:51:03.538922,183666999,0,1.012915E-10,1.063445E-07,1.406727E-07,4.70009E-09,1.203251E-05,1.058792E-05,0.0002541893,1.105949E-05,1.224202E-05,0.0002572072,0,0
24293,2023-01-20 10:51:04.038878,184166995,0,1.006425E-10,1.057879E-07,1.405495E-07,4.69641E-09,1.202675E-05,1.05118E-05,0.0002536144,1.103976E-05,1.222173E-05,0.0002566708,0,0
24459,2023-01-20 10:51:04.538916,184667014,0,9.995503E-11,1.053018E-07,1.404422E-07,4.694283E-09,1.202484E-05,1.043678E-05,0.0002526861,1.102367E-05,1.220099E-05,0.0002557763,0,0
24622,2023-01-20 10:51:05.038898,185166995,0,9.919698E-11,1.047092E-07,1.403061E-07,4.6901E-09,1.202417E-05,1.036305E-05,0.0002518674,1.100865E-05,1.217901E-05,0.0002549783,0,0
24785,2023-01-20 10:51:05.538908,185667001,0,9.848755E-11,1.042483E-07,1.402057E-07,4.688862E-09,1.202227E-05,1.029088E-05,0.0002512871,1.099306E-05,1.21577E-05,0.0002544285,0,0
24948,2023-01-20 10:51:06.038904,186166995,0,9.774042E-11,1.037202E-07,1.400852E-07,4.686393E-09,1.202042E-05,1.021979E-05,0.000250756,1.097727E-05,1.213601E-05,0.0002539223,0,0
25111,2023-01-20 10:51:06.526531,186667002,0,9.701277E-11,1.032507E-07,1.399833E-07,4.685282E-09,1.20149E-05,1.014976E-05,0.0002505395,1.095964E-05,1.211439E-05,0.00025373,0,0
25323,2023-01-20 10:51:07.019326,187166995,0,9.621613E-11,1.026892E-07,1.39852E-07,4.682418E-09,1.201249E-05,1.007989E-05,0.0002501205,1.094378E-05,1.209074E-05,0.0002533245,0,0
25486,2023-01-20 10:51:07.532322,187667002,0,9.547696E-11,1.022388E-07,1.397472E-07,4.681782E-09,1.201314E-05,1.001148E-05,0.0002492895,1.093024E-05,1.206764E-05,0.0002525187,0,0
25649,2023-01-20 10:51:08.019291,188167004,0,9.484098E-11,1.017021E-07,1.39629E-07,4.679776E-09,1.200837E-05,9.944658E-06,0.0002485783,1.090909E-05,1.20479E-05,0.000251859,0,0
25812,2023-01-20 10:51:08.519198,188667003,0,9.436167E-11,1.012601E-07,1.395398E-07,4.679781E-09,1.199773E-05,9.879413E-06,0.0002475632,1.088461E-05,1.202898E-05,0.0002509163,0,0
25977,2023-01-20 10:51:09.019161,189166999,0,9.384695E-11,1.007485E-07,1.394348E-07,4.678656E-09,1.199039E-05,9.815077E-06,0.0002467502,1.086311E-05,1.200959E-05,0.000250158,0,0
26140,2023-01-20 10:51:09.519259,189667007,0,9.330191E-11,1.003326E-07,1.393529E-07,4.679306E-09,1.198371E-05,9.751575E-06,0.0002465296,1.08443E-05,1.198938E-05,0.0002499736,0,0
26303,2023-01-20 10:51:10.019161,190167015,0,9.27067E-11,9.984466E-08,1.392548E-07,4.678549E-09,1.197889E-05,9.688606E-06,0.0002463133,1.082716E-05,1.196947E-05,0.0002497768,0,0
26466,2023-01-20 10:51:10.519188,190666998,0,9.206673E-11,9.945269E-08,1.391764E-07,4.679381E-09,1.197829E-05,9.626418E-06,0.0002458794,1.081401E-05,1.195144E-05,0.0002493445,0,0
26629,2023-01-20 10:51:11.019175,191167020,0,9.137595E-11,9.901291E-08,1.390886E-07,4.679059E-09,1.197762E-05,9.565227E-06,0.0002453915,1.080268E-05,1.193119E-05,0.0002488444,0,0
26792,2023-01-20 10:51:11.519213,191666998,0,9.071884E-11,9.86501E-08,1.390192E-07,4.680166E-09,1.197686E-05,9.505113E-06,0.0002449966,1.079089E-05,1.191144E-05,0.0002484494,0,0
26955,2023-01-20 10:51:12.019139,192166998,0,9.009662E-11,9.824431E-08,1.389471E-07,4.680198E-09,1.197397E-05,9.44605E-06,0.0002447655,1.07761E-05,1.189147E-05,0.000248234,0,0
27118,2023-01-20 10:51:12.519184,192666997,0,8.957913E-11,9.790612E-08,1.388931E-07,4.681512E-09,1.196411E-05,9.388132E-06,0.0002447063,1.075809E-05,1.187054E-05,0.0002482015,0,0
27281,2023-01-20 10:51:13.019150,193166999,0,8.909154E-11,9.751783E-08,1.388316E-07,4.681357E-09,1.195529E-05,9.33082E-06,0.0002446224,1.074007E-05,1.18493E-05,0.0002481502,0,0
27444,2023-01-20 10:51:13.519228,193666999,0,8.862347E-11,9.71952E-08,1.387844E-07,4.682721E-09,1.194698E-05,9.274308E-06,0.000244557,1.072303E-05,1.182963E-05,0.0002481095,0,0
27609,2023-01-20 10:51:14.019114,194166999,0,8.812933E-11,9.682662E-08,1.387337E-07,4.68243E-09,1.193894E-05,9.218423E-06,0.0002444811,1.070729E-05,1.180935E-05,0.000248047,0,0
27774,2023-01-20 10:51:14.519195,194667011,0,8.767018E-11,9.65233E-08,1.386971E-07,4.683524E-09,1.192661E-05,9.163493E-06,0.0002443949,1.069044E-05,1.178868E-05,0.0002479718,0,0
27937,2023-01-20 10:51:15.019153,195166995,0,8.720816E-11,9.62054E-08,1.386624E-07,4.683601E-09,1.190957E-05,9.109015E-06,0.0002441961,1.067268E-05,1.176782E-05,0.0002477667,0,0
28100,2023-01-20 10:51:15.519258,195667002,0,8.676798E-11,9.59338E-08,1.386373E-07,4.684656E-09,1.188971E-05,9.055182E-06,0.0002439438,1.065397E-05,1.174733E-05,0.0002475084,0,0
28263,2023-01-20 10:51:16.019127,196166999,0,8.634988E-11,9.561022E-08,1.386112E-07,4.683222E-09,1.187176E-05,9.001395E-06,0.0002437129,1.06349E-05,1.172859E-05,0.0002472732,0,0
28426,2023-01-20 10:51:16.508504,196667002,0,8.596412E-11,9.534589E-08,1.385902E-07,4.683431E-09,1.187228E-05,8.949043E-06,0.0002432975,1.062346E-05,1.171269E-05,0.0002468689,0,0
28589,2023-01-20 10:51:16.999153,197166995,0,8.55752E-11,9.509542E-08,1.385715E-07,4.683868E-09,1.187346E-05,8.897728E-06,0.0002426532,1.061233E-05,1.169517E-05,0.0002462421,0,0
28752,2023-01-20 10:51:17.499343,197667002,0,8.514482E-11,9.480136E-08,1.385493E-07,4.682068E-09,1.187472E-05,8.846671E-06,0.0002419086,1.059951E-05,1.167621E-05,0.0002455057,0,0
28915,2023-01-20 10:51:17.999334,198166995,0,8.472603E-11,9.456146E-08,1.385347E-07,4.68219E-09,1.187507E-05,8.796293E-06,0.0002414875,1.058609E-05,1.165733E-05,0.0002450986,0,0
29078,2023-01-20 10:51:18.499263,198667001,0,8.427402E-11,9.428972E-08,1.385204E-07,4.680635E-09,1.186951E-05,8.746126E-06,0.0002413473,1.056908E-05,1.163589E-05,0.0002449608,0,0
29243,2023-01-20 10:51:18.999167,199167008,0,8.38884E-11,9.406477E-08,1.385121E-07,4.680795E-09,1.186165E-05,8.697262E-06,0.0002412665,1.055272E-05,1.161825E-05,0.0002448843,0,0
29407,2023-01-20 10:51:19.499219,199667011,0,8.349129E-11,9.380376E-08,1.385036E-07,4.679175E-09,1.185257E-05,8.649144E-06,0.0002411796,1.053626E-05,1.160075E-05,0.0002447971,0,0
29570,2023-01-20 10:51:19.999106,200167000,0,8.313093E-11,9.360717E-08,1.384992E-07,4.680319E-09,1.18505E-05,8.601944E-06,0.0002409937,1.052452E-05,1.158533E-05,0.0002446171,0,0
29733,2023-01-20 10:51:20.499237,200666998,0,8.273709E-11,9.338551E-08,1.384941E-07,4.680127E-09,1.184901E-05,8.555248E-06,0.0002408107,1.0513E-05,1.156829E-05,0.0002444386,0,0
29896,2023-01-20 10:51:20.999162,201167009,0,8.23625E-11,9.318188E-08,1.38491E-07,4.680479E-09,1.184711E-05,8.509161E-06,0.0002406554,1.050163E-05,1.155167E-05,0.000244287,0,0
30058,2023-01-20 10:51:21.499256,201666996,0,8.197953E-11,9.294624E-08,1.384866E-07,4.67943E-09,1.184631E-05,8.46371E-06,0.0002404556,1.049007E-05,1.153585E-05,0.0002440924,0,0
30213,2023-01-20 10:51:21.999326,202167000,0,8.159452E-11,9.274039E-08,1.38486E-07,4.679602E-09,1.18334E-05,8.418607E-06,0.0002398837,1.047558E-05,1.151907E-05,0.0002435049,0,0
30361,2023-01-20 10:51:22.499328,202666995,0,8.072999E-11,9.250251E-08,1.384851E-07,4.678361E-09,1.17493E-05,8.369554E-06,0.0002340714,1.044855E-05,1.148784E-05,0.0002374555,0,0
30508,2023-01-20 10:51:22.999263,203166999,0,7.985492E-11,9.230924E-08,1.384855E-07,4.678718E-09,1.166516E-05,8.316034E-06,0.0002283366,1.041608E-05,1.145008E-05,0.0002314959,0,0
30655,2023-01-20 10:51:23.499382,203667003,0,7.877616E-11,9.209435E-08,1.384836E-07,4.676626E-09,1.158199E-05,8.250471E-06,0.0002227968,1.03672E-05,1.140097E-05,0.0002257463,0,0
30805,2023-01-20 10:51:23.999303,204166998,0,7.800271E-11,9.193282E-08,1.384856E-07,4.67629E-09,1.150976E-05,8.189752E-06,0.0002180312,1.032665E-05,1.136018E-05,0.0002207926,0,0
31014,2023-01-20 10:51:24.499224,204667004,0,7.716389E-11,9.176937E-08,1.384865E-07,4.673546E-09,1.144377E-05,8.121457E-06,0.0002135117,1.027995E-05,1.131012E-05,0.0002161014,0,0
31176,2023-01-20 10:51:24.999159,205167011,0,7.648492E-11,9.164761E-08,1.384773E-07,4.672964E-09,1.136846E-05,8.058848E-06,0.0002057771,1.023384E-05,1.126973E-05,0.0002081027,0,0
31338,2023-01-20 10:51:25.499281,205666999,0,7.5705E-11,9.153486E-08,1.38462E-07,4.669805E-09,1.132499E-05,7.988185E-06,0.0002000967,1.018627E-05,1.121661E-05,0.000202236,0,0
31498,2023-01-20 10:51:25.981227,206167024,0,7.530609E-11,9.14516E-08,1.384529E-07,4.668251E-09,1.131557E-05,7.930326E-06,0.0001981668,1.016388E-05,1.118567E-05,0.0002002283,0,0
31662,2023-01-20 10:51:26.479345,206667002,0,7.494476E-11,9.137462E-08,1.384513E-07,4.663357E-09,1.131727E-05,7.876034E-06,0.00019758,1.014036E-05,1.115745E-05,0.0001996435,0,0
31822,2023-01-20 10:51:26.979169,207167008,0,7.483963E-11,9.131074E-08,1.384555E-07,4.660565E-09,1.130698E-05,7.83301E-06,0.0001964477,1.011351E-05,1.11399E-05,0.0001985568,0,0
31986,2023-01-20 10:51:27.479332,207667002,0,7.457825E-11,9.124931E-08,1.384618E-07,4.65488E-09,1.127769E-05,7.786714E-06,0.0001941552,1.005955E-05,1.111194E-05,0.0001963065,0,0
32146,2023-01-20 10:51:27.979161,208166995,0,7.432444E-11,9.119656E-08,1.384686E-07,4.651262E-09,1.124422E-05,7.737568E-06,0.0001915714,9.996409E-06,1.108193E-05,0.0001937601,0,0
32310,2023-01-20 10:51:28.479287,208667005,0,7.363593E-11,9.114449E-08,1.384753E-07,4.643696E-09,1.121172E-05,7.670398E-06,0.000189348,9.902039E-06,1.102379E-05,0.0001915197,0,0
32473,2023-01-20 10:51:28.979151,209166994,0,7.326941E-11,9.11025E-08,1.384804E-07,4.639692E-09,1.119288E-05,7.613406E-06,0.0001874732,9.838443E-06,1.098618E-05,0.0001896469,0,0
32639,2023-01-20 10:51:29.479273,209667010,0,7.274537E-11,9.105708E-08,1.384852E-07,4.633922E-09,1.118149E-05,7.547275E-06,0.000185968,9.763855E-06,1.093737E-05,0.0001881093,0,0
32800,2023-01-20 10:51:29.979137,210166995,0,7.251584E-11,9.101544E-08,1.384899E-07,4.630561E-09,1.117711E-05,7.494885E-06,0.0001852253,9.719612E-06,1.090909E-05,0.0001873546,0,0
32965,2023-01-20 10:51:30.479244,210667002,0,7.230826E-11,9.096104E-08,1.384947E-07,4.625736E-09,1.1172E-05,7.441663E-06,0.000184833,9.673959E-06,1.088025E-05,0.0001869324,0,0
33126,2023-01-20 10:51:30.979151,211166998,0,7.229731E-11,9.091069E-08,1.385003E-07,4.62337E-09,1.116483E-05,7.399709E-06,0.0001846166,9.646797E-06,1.086608E-05,0.0001867113,0,0
33283,2023-01-20 10:51:31.479350,211666998,0,7.23147E-11,9.083544E-08,1.385055E-07,4.619467E-09,1.115509E-05,7.35807E-06,0.0001843834,9.61951E-06,1.085284E-05,0.0001864635,0,0
33429,2023-01-20 10:51:31.979315,212167008,0,7.228251E-11,9.078234E-08,1.385125E-07,4.618804E-09,1.109851E-05,7.32008E-06,0.0001817987,9.5885E-06,1.084613E-05,0.0001837648,0,0
33578,2023-01-20 10:51:32.479361,212666997,0,7.218434E-11,9.071038E-08,1.385189E-07,4.616649E-09,1.10329E-05,7.281363E-06,0.0001786792,9.553002E-06,1.08397E-05,0.0001805199,0,0
33723,2023-01-20 10:51:32.979344,213167028,0,7.204334E-11,9.064434E-08,1.38526E-07,4.61544E-09,1.097363E-05,7.241794E-06,0.0001759416,9.518516E-06,1.082968E-05,0.0001776751,0,0
33871,2023-01-20 10:51:33.479332,213666997,0,7.173347E-11,9.055989E-08,1.385328E-07,4.611997E-09,1.091842E-05,7.195465E-06,0.0001734055,9.476465E-06,1.081018E-05,0.0001750427,0,0
34028,2023-01-20 10:51:33.979169,214167019,0,7.158624E-11,9.049832E-08,1.385399E-07,4.610681E-09,1.08675E-05,7.151911E-06,0.0001711127,9.438982E-06,1.079408E-05,0.0001726606,0,0
34194,2023-01-20 10:51:34.479268,214667013,0,7.130033E-11,9.042991E-08,1.385391E-07,4.607382E-09,1.081797E-05,7.100281E-06,0.0001674564,9.389364E-06,1.076823E-05,0.0001688857,0,0
34354,2023-01-20 10:51:34.979156,215166999,0,7.117592E-11,9.037938E-08,1.385365E-07,4.60546E-09,1.079703E-05,7.054629E-06,0.000165493,9.359445E-06,1.074635E-05,0.0001668532,0,0
34519,2023-01-20 10:51:35.459428,215666998,0,7.110387E-11,9.03327E-08,1.385352E-07,4.602398E-09,1.079479E-05,7.013269E-06,0.0001649744,9.34222E-06,1.072907E-05,0.0001663159,0,0
34680,2023-01-20 10:51:35.959394,216167014,0,7.118558E-11,9.029073E-08,1.385345E-07,4.599868E-09,1.079734E-05,6.979045E-06,0.0001646041,9.331902E-06,1.072117E-05,0.0001659536,0,0
34843,2023-01-20 10:51:36.459303,216667002,0,7.126174E-11,9.024528E-08,1.385349E-07,4.595314E-09,1.079498E-05,6.948397E-06,0.0001636377,9.318655E-06,1.071534E-05,0.0001650149,0,0
35005,2023-01-20 10:51:36.959294,217167014,0,7.134182E-11,9.020306E-08,1.385372E-07,4.591793E-09,1.078291E-05,6.918653E-06,0.0001618615,9.296306E-06,1.070988E-05,0.0001632676,0,0
35154,2023-01-20 10:51:37.459325,217667007,0,7.13507E-11,9.016524E-08,1.385386E-07,4.586997E-09,1.076489E-05,6.885824E-06,0.0001606346,9.26903E-06,1.070028E-05,0.0001620339,0,0
35311,2023-01-20 10:51:37.959164,218167017,0,7.147054E-11,9.014229E-08,1.385429E-07,4.584747E-09,1.071678E-05,6.853811E-06,0.0001587229,9.240539E-06,1.069611E-05,0.000160045,0,0
35470,2023-01-20 10:51:38.459352,218667002,0,7.16321E-11,9.011898E-08,1.385439E-07,4.57984E-09,1.065646E-05,6.82102E-06,0.0001554555,9.206197E-06,1.06935E-05,0.0001566707,0,0
35617,2023-01-20 10:51:38.959320,219166996,0,7.179886E-11,9.010374E-08,1.385488E-07,4.576131E-09,1.060894E-05,6.790156E-06,0.000153703,9.179911E-06,1.069049E-05,0.0001548541,0,0
35770,2023-01-20 10:51:39.459324,219666999,0,7.194177E-11,9.00889E-08,1.385508E-07,4.568801E-09,1.056087E-05,6.757578E-06,0.0001521482,9.150567E-06,1.068553E-05,0.0001532467,0,0
35930,2023-01-20 10:51:39.959152,220166995,0,7.212435E-11,9.008033E-08,1.385544E-07,4.564277E-09,1.052545E-05,6.725854E-06,0.0001508574,9.128068E-06,1.068118E-05,0.0001519049,0,0
36093,2023-01-20 10:51:40.459174,220667002,0,7.230175E-11,9.007545E-08,1.38557E-07,4.559701E-09,1.051275E-05,6.695297E-06,0.0001502435,9.117019E-06,1.067692E-05,0.0001512597,0,0
36254,2023-01-20 10:51:40.959134,221167009,0,7.246598E-11,9.007278E-08,1.385605E-07,4.555524E-09,1.05118E-05,6.667076E-06,0.0001500667,9.112624E-06,1.067365E-05,0.0001510718,0,0
36417,2023-01-20 10:51:41.459177,221667002,0,7.259007E-11,9.006828E-08,1.385612E-07,4.547392E-09,1.050776E-05,6.639836E-06,0.0001499997,9.102995E-06,1.067109E-05,0.0001510029,0,0
36577,2023-01-20 10:51:41.959176,222167003,0,7.268224E-11,9.006185E-08,1.385595E-07,4.541233E-09,1.050687E-05,6.613267E-06,0.0001498227,9.090967E-06,1.066842E-05,0.0001508317,0,0
36741,2023-01-20 10:51:42.459189,222667015,0,7.266124E-11,9.005009E-08,1.385541E-07,4.532763E-09,1.050459E-05,6.585913E-06,0.0001493931,9.071536E-06,1.066261E-05,0.0001504162,0,0
36901,2023-01-20 10:51:42.959120,223167000,0,7.259628E-11,9.003737E-08,1.385521E-07,4.526304E-09,1.049875E-05,6.557626E-06,0.0001485265,9.045001E-06,1.065493E-05,0.0001495673,0,0
37065,2023-01-20 10:51:43.459220,223667003,0,7.23261E-11,9.001818E-08,1.385442E-07,4.516219E-09,1.048905E-05,6.522688E-06,0.0001474878,9.000457E-06,1.063639E-05,0.0001485401,0,0
37227,2023-01-20 10:51:43.959174,224166999,0,7.215368E-11,9.000381E-08,1.385418E-07,4.50931E-09,1.048199E-05,6.489584E-06,0.0001466079,8.962609E-06,1.062127E-05,0.0001476703,0,0
37393,2023-01-20 10:51:44.459193,224667004,0,7.186855E-11,8.99857E-08,1.385354E-07,4.499935E-09,1.047375E-05,6.451376E-06,0.0001459151,8.914159E-06,1.059807E-05,0.0001469781,0,0
37546,2023-01-20 10:51:44.959334,225167001,0,7.175085E-11,8.997387E-08,1.385348E-07,4.493717E-09,1.046545E-05,6.418923E-06,0.0001454896,8.879782E-06,1.058377E-05,0.0001465514,0,0
37710,2023-01-20 10:51:45.439101,225666995,0,7.176142E-11,8.996683E-08,1.385332E-07,4.485942E-09,1.042249E-05,6.387692E-06,0.0001443652,8.836456E-06,1.057394E-05,0.0001453777,0,0
37869,2023-01-20 10:51:45.939053,226167013,0,7.188699E-11,8.996675E-08,1.385351E-07,4.481437E-09,1.03789E-05,6.361131E-06,0.0001426505,8.803831E-06,1.057215E-05,0.0001436014,0,0
38033,2023-01-20 10:51:46.443400,226666995,0,7.199642E-11,8.996404E-08,1.385345E-07,4.475299E-09,1.033553E-05,6.33482E-06,0.0001408799,8.772417E-06,1.056927E-05,0.0001417708,0,0
38193,2023-01-20 10:51:46.938908,227166998,0,7.208813E-11,8.996413E-08,1.385364E-07,4.471567E-09,1.030578E-05,6.309057E-06,0.0001399475,8.747387E-06,1.056514E-05,0.0001407978,0,0
38357,2023-01-20 10:51:47.438912,227667005,0,7.208423E-11,8.995779E-08,1.385383E-07,4.466034E-09,1.029597E-05,6.283732E-06,0.000139872,8.730846E-06,1.056017E-05,0.0001407138,0,0
38517,2023-01-20 10:51:47.938898,228166995,0,7.212097E-11,8.994921E-08,1.385419E-07,4.461652E-09,1.02908E-05,6.26046E-06,0.0001397835,8.716147E-06,1.055729E-05,0.0001406282,0,0
38681,2023-01-20 10:51:48.438931,228666998,0,7.215462E-11,8.993624E-08,1.385438E-07,4.455157E-09,1.028517E-05,6.237881E-06,0.0001396343,8.701813E-06,1.055516E-05,0.0001404847,0,0
38843,2023-01-20 10:51:48.938892,229167004,0,7.222196E-11,8.992653E-08,1.38549E-07,4.450573E-09,1.028158E-05,6.216E-06,0.0001395371,8.690008E-06,1.055433E-05,0.0001403901,0,0
39007,2023-01-20 10:51:49.438903,229666999,0,7.229566E-11,8.991437E-08,1.385541E-07,4.444344E-09,1.027766E-05,6.194284E-06,0.0001394805,8.678092E-06,1.055364E-05,0.0001403347,0,0
39169,2023-01-20 10:51:49.938885,230166996,0,7.237287E-11,8.99058E-08,1.385609E-07,4.440301E-09,1.027243E-05,6.172672E-06,0.0001394778,8.666265E-06,1.055304E-05,0.0001403286,0,0
39333,2023-01-20 10:51:50.438950,230667014,0,7.245057E-11,8.989502E-08,1.385677E-07,4.434909E-09,1.026268E-05,6.150973E-06,0.0001394378,8.65221E-06,1.055223E-05,0.0001402815,0,0
39493,2023-01-20 10:51:50.938877,231166995,0,7.255433E-11,8.988934E-08,1.385755E-07,4.431392E-09,1.023757E-05,6.128395E-06,0.0001388847,8.63044E-06,1.055079E-05,0.0001397049,0,0
39657,2023-01-20 10:51:51.438881,231666999,0,7.262934E-11,8.988188E-08,1.385821E-07,4.425896E-09,1.019265E-05,6.101826E-06,0.0001370132,8.596304E-06,1.05446E-05,0.0001377904,0,0
39822,2023-01-20 10:51:51.938868,232166995,0,7.270724E-11,8.985943E-08,1.385555E-07,4.423065E-09,1.014631E-05,6.072495E-06,0.0001337211,8.566993E-06,1.051375E-05,0.0001344453,0,0
39985,2023-01-20 10:51:52.438938,232667009,0,7.261865E-11,8.972643E-08,1.38311E-07,4.418784E-09,1.0059E-05,6.033568E-06,0.0001303535,8.533321E-06,1.034043E-05,0.0001309759,0,0
40145,2023-01-20 10:51:52.938873,233166995,0,7.251764E-11,8.942864E-08,1.377301E-07,4.413242E-09,9.878116E-06,5.992552E-06,0.0001292866,8.421789E-06,9.988849E-06,0.0001297966,0,0
40308,2023-01-20 10:51:53.438895,233667006,0,7.236173E-11,8.869485E-08,1.362767E-07,4.398972E-09,9.628513E-06,5.940608E-06,0.0001291549,8.15427E-06,9.479816E-06,0.0001296608,0,0
40470,2023-01-20 10:51:53.938802,234167000,0,7.24347E-11,8.787759E-08,1.346362E-07,4.383468E-09,9.31394E-06,5.899331E-06,0.0001288582,7.801417E-06,8.936358E-06,0.0001294377,0,0
40635,2023-01-20 10:51:54.435459,234667012,0,7.2585E-11,8.624266E-08,1.312195E-07,4.349873E-09,9.010392E-06,5.858748E-06,0.0001284934,7.474757E-06,8.452742E-06,0.000129153,0,0
40796,2023-01-20 10:51:54.919295,235167000,0,7.285936E-11,8.474343E-08,1.280816E-07,4.318203E-09,8.729568E-06,5.825847E-06,0.000128279,7.217645E-06,8.059491E-06,0.0001289706,0,0
40960,2023-01-20 10:51:55.419325,235667005,0,7.316073E-11,8.234651E-08,1.230365E-07,4.26695E-09,8.440898E-06,5.794392E-06,0.00012796,6.987436E-06,7.710441E-06,0.0001286646,0,0
41125,2023-01-20 10:51:55.919238,236167001,0,7.351229E-11,8.060884E-08,1.194304E-07,4.227887E-09,8.17234E-06,5.766428E-06,0.0001276423,6.789275E-06,7.41078E-06,0.0001283431,0,0
41289,2023-01-20 10:51:56.419174,236666996,0,7.390703E-11,7.819519E-08,1.144746E-07,4.174009E-09,7.907654E-06,5.737887E-06,0.0001272778,6.631535E-06,7.146706E-06,0.0001279274,0,0
41449,2023-01-20 10:51:56.919241,237167000,0,7.434698E-11,7.665806E-08,1.114166E-07,4.137013E-09,7.639813E-06,5.709102E-06,0.0001264798,6.513066E-06,6.913604E-06,0.0001270015,0,0
41613,2023-01-20 10:51:57.419130,237666995,0,7.482195E-11,7.405275E-08,1.063273E-07,4.077554E-09,7.38237E-06,5.677955E-06,0.0001255799,6.413227E-06,6.703295E-06,0.0001259782,0,0
41774,2023-01-20 10:51:57.919189,238166999,0,7.53073E-11,7.230206E-08,1.030183E-07,4.034652E-09,7.153728E-06,5.648658E-06,0.0001247656,6.328753E-06,6.519205E-06,0.000125045,0,0
41938,2023-01-20 10:51:58.419175,238667001,0,7.579422E-11,6.988498E-08,9.853574E-08,3.977074E-09,6.945843E-06,5.618432E-06,0.0001241803,6.250129E-06,6.356018E-06,0.0001243775,0,0
42102,2023-01-20 10:51:58.919171,239167011,0,7.630115E-11,6.833524E-08,9.573223E-08,3.937094E-09,6.766774E-06,5.591858E-06,0.0001237994,6.177333E-06,6.212703E-06,0.0001239299,0,0
42267,2023-01-20 10:51:59.419128,239667000,0,7.68049E-11,6.626139E-08,9.200738E-08,3.884998E-09,6.597572E-06,5.565536E-06,0.0001235291,6.10635E-06,6.082581E-06,0.0001236204,0,0
42429,2023-01-20 10:51:59.919160,240166996,0,7.731144E-11,6.492233E-08,8.96367E-08,3.848293E-09,6.449944E-06,5.542403E-06,0.0001233686,6.036366E-06,5.965588E-06,0.0001234347,0,0
42594,2023-01-20 10:52:00.419217,240667008,0,7.7811E-11,6.324193E-08,8.666192E-08,3.80309E-09,6.301397E-06,5.519447E-06,0.0001231449,5.97247E-06,5.859734E-06,0.0001231898,0,0
42797,2023-01-20 10:52:00.919183,241166996,0,7.830057E-11,6.224597E-08,8.4919E-08,3.77283E-09,6.173468E-06,5.498086E-06,0.0001229966,5.912801E-06,5.764678E-06,0.0001230226,0,0
42963,2023-01-20 10:52:01.419172,241667000,0,7.877191E-11,6.098469E-08,8.270092E-08,3.735495E-09,6.050684E-06,5.476399E-06,0.0001228687,5.85698E-06,5.677454E-06,0.0001228852,0,0
43124,2023-01-20 10:52:01.919146,242166996,0,7.924202E-11,6.024928E-08,8.142789E-08,3.710228E-09,5.940903E-06,5.455733E-06,0.0001227655,5.80732E-06,5.5977E-06,0.0001227644,0,0
43289,2023-01-20 10:52:02.419164,242667000,0,7.967271E-11,5.930704E-08,7.978643E-08,3.678805E-09,5.832565E-06,5.434171E-06,0.0001226509,5.761628E-06,5.524546E-06,0.0001226364,0,0
43450,2023-01-20 10:52:02.919174,243166996,0,8.011646E-11,5.874903E-08,7.883705E-08,3.656707E-09,5.735017E-06,5.413881E-06,0.0001225557,5.719651E-06,5.457316E-06,0.0001225238,0,0
43616,2023-01-20 10:52:03.419138,243667005,0,8.050481E-11,5.806103E-08,7.765954E-08,3.629876E-09,5.640937E-06,5.392505E-06,0.0001224721,5.679282E-06,5.395304E-06,0.0001224305,0,0
43779,2023-01-20 10:52:03.919162,244167005,0,8.090542E-11,5.766129E-08,7.699644E-08,3.610656E-09,5.553824E-06,5.372556E-06,0.0001223768,5.642736E-06,5.338681E-06,0.0001223195,0,0
43945,2023-01-20 10:52:04.399522,244667014,0,8.130858E-11,5.733542E-08,7.646408E-08,3.593279E-09,5.47217E-06,5.353097E-06,0.0001222894,5.609567E-06,5.286401E-06,0.0001222148,0,0
44107,2023-01-20 10:52:04.908432,245167006,0,8.166248E-11,5.694168E-08,7.581918E-08,3.572335E-09,5.390831E-06,5.332717E-06,0.0001221958,5.578015E-06,5.237127E-06,0.0001221068,0,0
44272,2023-01-20 10:52:05.399334,245667005,0,8.204051E-11,5.670386E-08,7.544462E-08,3.556319E-09,5.316632E-06,5.313861E-06,0.0001221144,5.549552E-06,5.19133E-06,0.0001220074,0,0
44433,2023-01-20 10:52:05.899214,246167000,0,8.237834E-11,5.643111E-08,7.501912E-08,3.537269E-09,5.241674E-06,5.294351E-06,0.0001220124,5.522767E-06,5.147902E-06,0.0001218876,0,0
44600,2023-01-20 10:52:06.399221,246666996,0,8.273886E-11,5.626846E-08,7.477917E-08,3.522985E-09,5.170969E-06,5.276574E-06,0.0001218788,5.499086E-06,5.108628E-06,0.0001217315,0,0
44761,2023-01-20 10:52:06.899189,247167000,0,8.307619E-11,5.608647E-08,7.451609E-08,3.50615E-09,5.0999E-06,5.258527E-06,0.0001217389,5.476245E-06,5.069609E-06,0.0001215699,0,0
44926,2023-01-20 10:52:07.399313,247666996,0,8.342655E-11,5.596472E-08,7.435043E-08,3.49294E-09,5.032999E-06,5.241696E-06,0.0001215551,5.454681E-06,5.035438E-06,0.0001213643,0,0
45088,2023-01-20 10:52:07.899165,248167000,0,8.375464E-11,5.582919E-08,7.416969E-08,3.477635E-09,4.969234E-06,5.224644E-06,0.0001214171,5.433704E-06,5.001614E-06,0.0001212061,0,0
45253,2023-01-20 10:52:08.399266,248667000,0,8.40943E-11,5.573015E-08,7.403847E-08,3.465519E-09,4.91289E-06,5.208512E-06,0.0001213136,5.413677E-06,4.971121E-06,0.0001210851,0,0
45416,2023-01-20 10:52:08.899201,249167009,0,8.440369E-11,5.561453E-08,7.388962E-08,3.450856E-09,4.856632E-06,5.192114E-06,0.0001212178,5.394495E-06,4.939893E-06,0.0001209703,0,0
45581,2023-01-20 10:52:09.399262,249667012,0,8.472121E-11,5.552576E-08,7.376957E-08,3.439045E-09,4.803916E-06,5.176405E-06,0.0001211117,5.378638E-06,4.911672E-06,0.0001208413,0,0
45744,2023-01-20 10:52:09.899200,250167000,0,8.503016E-11,5.542539E-08,7.363673E-08,3.42595E-09,4.751554E-06,5.160738E-06,0.0001210047,5.362786E-06,4.883071E-06,0.0001207124,0,0
45909,2023-01-20 10:52:10.399259,250667009,0,8.533037E-11,5.534325E-08,7.352327E-08,3.414944E-09,4.706257E-06,5.145702E-06,0.0001209507,5.346954E-06,4.856944E-06,0.0001206416,0,0
46070,2023-01-20 10:52:10.899195,251167003,0,8.55962E-11,5.524445E-08,7.339209E-08,3.401984E-09,4.660084E-06,5.130615E-06,0.0001208767,5.331213E-06,4.830818E-06,0.0001205503,0,0
46235,2023-01-20 10:52:11.399226,251667000,0,8.587529E-11,5.516554E-08,7.327901E-08,3.391272E-09,4.615022E-06,5.115818E-06,0.0001207691,5.319157E-06,4.80751E-06,0.0001204193,0,0
46396,2023-01-20 10:52:11.899195,252167005,0,8.612624E-11,5.507043E-08,7.314637E-08,3.378624E-09,4.569501E-06,5.100886E-06,0.0001206633,5.306872E-06,4.782446E-06,0.0001202907,0,0
46562,2023-01-20 10:52:12.399251,252667000,0,8.638131E-11,5.499688E-08,7.303723E-08,3.368398E-09,4.528193E-06,5.086404E-06,0.0001205731,5.295808E-06,4.760618E-06,0.0001201789,0,0
46723,2023-01-20 10:52:12.899186,253166995,0,8.660269E-11,5.490943E-08,7.291138E-08,3.356625E-09,4.489128E-06,5.072007E-06,0.0001205204,5.283287E-06,4.737587E-06,0.0001201098,0,0
46888,2023-01-20 10:52:13.399262,253667009,0,8.681557E-11,5.483983E-08,7.280562E-08,3.346708E-09,4.451559E-06,5.057865E-06,0.0001204376,5.272958E-06,4.718333E-06,0.0001200073,0,0
47051,2023-01-20 10:52:13.899162,254167012,0,8.700317E-11,5.475694E-08,7.268365E-08,3.335229E-09,4.414932E-06,5.043788E-06,0.0001203834,5.261697E-06,4.697147E-06,0.0001199372,0,0
47218,2023-01-20 10:52:14.399219,254667015,0,8.719054E-11,5.469524E-08,7.258505E-08,3.325839E-09,4.381297E-06,5.03005E-06,0.00012034,5.251979E-06,4.677963E-06,0.0001198774,0,0
47380,2023-01-20 10:52:14.879362,255166996,0,8.733171E-11,5.462073E-08,7.247067E-08,3.314754E-09,4.349231E-06,5.016396E-06,0.0001203136,5.24101E-06,4.658037E-06,0.0001198385,0,0
47543,2023-01-20 10:52:15.381238,255667014,0,8.748498E-11,5.456645E-08,7.237968E-08,3.305891E-09,4.319406E-06,5.003114E-06,0.0001202875,5.231681E-06,4.640277E-06,0.0001197986,0,0
47706,2023-01-20 10:52:15.879313,256167000,0,8.757736E-11,5.449908E-08,7.22739E-08,3.294992E-09,4.28805E-06,4.989768E-06,0.0001202495,5.222443E-06,4.621766E-06,0.0001197472,0,0
47870,2023-01-20 10:52:16.379254,256666996,0,8.768565E-11,5.445048E-08,7.219151E-08,3.286235E-09,4.258826E-06,4.976676E-06,0.0001202107,5.214396E-06,4.605412E-06,0.000119694,0,0
48033,2023-01-20 10:52:16.879220,257167012,0,8.776116E-11,5.439372E-08,7.209978E-08,3.275932E-09,4.229007E-06,4.963558E-06,0.0001201661,5.206394E-06,4.588531E-06,0.0001196353,0,0
48245,2023-01-20 10:52:17.379216,257666996,0,8.784865E-11,5.435367E-08,7.202841E-08,3.267825E-09,4.202617E-06,4.950725E-06,0.0001201388,5.198731E-06,4.573509E-06,0.0001195951,0,0
48408,2023-01-20 10:52:17.879148,258167000,0,8.78849E-11,5.430543E-08,7.194879E-08,3.257967E-09,4.175322E-06,4.937862E-06,0.0001200986,5.19117E-06,4.558392E-06,0.0001195417,0,0
48572,2023-01-20 10:52:18.379224,258666996,0,8.794972E-11,5.42702E-08,7.188518E-08,3.250157E-09,4.151899E-06,4.925349E-06,0.0001200844,5.183228E-06,4.544248E-06,0.0001195174,0,0
48736,2023-01-20 10:52:18.879216,259167000,0,8.79531E-11,5.422894E-08,7.181679E-08,3.240652E-09,4.126297E-06,4.912783E-06,0.0001200446,5.176253E-06,4.529989E-06,0.0001194655,0,0
48899,2023-01-20 10:52:19.379268,259667012,0,8.799195E-11,5.419946E-08,7.17612E-08,3.233084E-09,4.101512E-06,4.9004E-06,0.0001199955,5.17055E-06,4.517087E-06,0.0001194014,0,0
49062,2023-01-20 10:52:19.879147,260167000,0,8.798557E-11,5.416436E-08,7.170017E-08,3.223759E-09,4.077981E-06,4.888064E-06,0.0001199742,5.163759E-06,4.502978E-06,0.0001193694,0,0
49226,2023-01-20 10:52:20.379168,260667005,0,8.799356E-11,5.413875E-08,7.165049E-08,3.216196E-09,4.054556E-06,4.875911E-06,0.0001199337,5.158412E-06,4.490314E-06,0.0001193148,0,0
49390,2023-01-20 10:52:20.879193,261167000,0,8.796316E-11,5.410921E-08,7.159839E-08,3.206979E-09,4.03048E-06,4.863731E-06,0.0001198873,5.153111E-06,4.477246E-06,0.000119255,0,0
49553,2023-01-20 10:52:21.379253,261667001,0,8.795897E-11,5.408782E-08,7.15555E-08,3.199853E-09,4.008963E-06,4.851853E-06,0.0001198551,5.147796E-06,4.465272E-06,0.0001192102,0,0
49716,2023-01-20 10:52:21.879188,262166996,0,8.790869E-11,5.406328E-08,7.151021E-08,3.19106E-09,3.987541E-06,4.83999E-06,0.0001198288,5.142078E-06,4.452806E-06,0.000119173,0,0
49879,2023-01-20 10:52:22.379176,262667008,0,8.788292E-11,5.404503E-08,7.147146E-08,3.184284E-09,3.968401E-06,4.828467E-06,0.0001198116,5.136305E-06,4.441443E-06,0.0001191454,0,0
50043,2023-01-20 10:52:22.879209,263166996,0,8.780308E-11,5.402406E-08,7.143164E-08,3.175923E-09,3.94882E-06,4.816962E-06,0.0001197913,5.130541E-06,4.429724E-06,0.0001191155,0,0
50206,2023-01-20 10:52:23.363102,263667005,0,8.773284E-11,5.400737E-08,7.139718E-08,3.169285E-09,3.931808E-06,4.805743E-06,0.000119776,5.124378E-06,4.418988E-06,0.000119092,0,0
50371,2023-01-20 10:52:23.859343,264166996,0,8.761238E-11,5.398796E-08,7.136161E-08,3.160946E-09,3.913904E-06,4.794631E-06,0.0001197582,5.118521E-06,4.407753E-06,0.0001190659,0,0
50535,2023-01-20 10:52:24.359289,264666999,0,8.751175E-11,5.397292E-08,7.133022E-08,3.154302E-09,3.896982E-06,4.783657E-06,0.0001197384,5.113146E-06,4.397154E-06,0.000119037,0,0
50698,2023-01-20 10:52:24.859229,265166995,0,8.736234E-11,5.395544E-08,7.129856E-08,3.14589E-09,3.878657E-06,4.772669E-06,0.0001196969,5.10834E-06,4.386977E-06,0.0001189843,0,0
50863,2023-01-20 10:52:25.359272,265667009,0,8.726742E-11,5.394216E-08,7.12699E-08,3.139621E-09,3.861544E-06,4.7618E-06,0.0001196564,5.103728E-06,4.377727E-06,0.0001189314,0,0
51025,2023-01-20 10:52:25.859151,266167012,0,8.712109E-11,5.392651E-08,7.124071E-08,3.131729E-09,3.844205E-06,4.750963E-06,0.0001196136,5.098985E-06,4.368292E-06,0.000118877,0,0
51189,2023-01-20 10:52:26.359161,266666999,0,8.700347E-11,5.391344E-08,7.121427E-08,3.125609E-09,3.829507E-06,4.74033E-06,0.0001195871,5.093556E-06,4.359353E-06,0.0001188408,0,0
51351,2023-01-20 10:52:26.859185,267167000,0,8.684232E-11,5.389812E-08,7.118813E-08,3.117852E-09,3.812859E-06,4.729697E-06,0.0001195342,5.089175E-06,4.350224E-06,0.000118776,0,0
51516,2023-01-20 10:52:27.359249,267666996,0,8.671888E-11,5.388594E-08,7.116455E-08,3.111711E-09,3.796519E-06,4.719122E-06,0.0001194721,5.085391E-06,4.341452E-06,0.0001187003,0,0
51678,2023-01-20 10:52:27.859213,268167000,0,8.655052E-11,5.38706E-08,7.114161E-08,3.103859E-09,3.780993E-06,4.708561E-06,0.0001194017,5.081029E-06,4.332991E-06,0.0001186179,0,0
51842,2023-01-20 10:52:28.359153,268666996,0,8.642397E-11,5.385861E-08,7.111942E-08,3.097938E-09,3.766934E-06,4.698196E-06,0.0001193703,5.076175E-06,4.324596E-06,0.0001185757,0,0
52006,2023-01-20 10:52:28.859183,269167000,0,8.624747E-11,5.384401E-08,7.109765E-08,3.090417E-09,3.75332E-06,4.687939E-06,0.0001193501,5.070945E-06,4.315302E-06,0.0001185474,0,0
52171,2023-01-20 10:52:29.359248,269666996,0,8.610655E-11,5.383299E-08,7.107825E-08,3.084913E-09,3.739637E-06,4.67782E-06,0.000119319,5.066593E-06,4.306466E-06,0.0001185056,0,0
52333,2023-01-20 10:52:29.859213,270167000,0,8.59302E-11,5.382018E-08,7.105928E-08,3.078084E-09,3.725717E-06,4.667747E-06,0.0001192865,5.062144E-06,4.297548E-06,0.0001184628,0,0
52497,2023-01-20 10:52:30.359240,270666996,0,8.578484E-11,5.380974E-08,7.104179E-08,3.072764E-09,3.712533E-06,4.657787E-06,0.0001192599,5.057949E-06,4.28849E-06,0.0001184261,0,0
52659,2023-01-20 10:52:30.859192,271167006,0,8.561015E-11,5.379756E-08,7.10243E-08,3.065947E-09,3.699147E-06,4.647937E-06,0.0001192456,5.053421E-06,4.278496E-06,0.0001184038,0,0
52824,2023-01-20 10:52:31.359251,271666996,0,8.545869E-11,5.378758E-08,7.100806E-08,3.060823E-09,3.687491E-06,4.638192E-06,0.0001192363,5.048518E-06,4.269057E-06,0.0001183871,0,0
52986,2023-01-20 10:52:31.859198,272167000,0,8.524704E-11,5.377578E-08,7.099198E-08,3.054067E-09,3.675985E-06,4.628548E-06,0.0001192299,5.043056E-06,4.259314E-06,0.000118375,0,0
53150,2023-01-20 10:52:32.359237,272667000,0,8.508035E-11,5.376622E-08,7.097645E-08,3.049067E-09,3.665388E-06,4.619047E-06,0.0001192281,5.037597E-06,4.249497E-06,0.0001183678,0,0
53312,2023-01-20 10:52:32.859126,273166996,0,8.483986E-11,5.375512E-08,7.096098E-08,3.042425E-09,3.654667E-06,4.609602E-06,0.0001192258,5.031717E-06,4.23937E-06,0.0001183612,0,0
53477,2023-01-20 10:52:33.359255,273667010,0,8.464806E-11,5.374613E-08,7.094572E-08,3.037354E-09,3.644129E-06,4.600221E-06,0.0001192243,5.026123E-06,4.229893E-06,0.0001183538,0,0
53639,2023-01-20 10:52:33.839036,274166996,0,8.440122E-11,5.373607E-08,7.093098E-08,3.030618E-09,3.632115E-06,4.590898E-06,0.0001192111,5.021266E-06,4.2203E-06,0.0001183329,0,0
53855,2023-01-20 10:52:34.338959,274666999,0,8.421899E-11,5.37282E-08,7.09167E-08,3.025363E-09,3.61888E-06,4.581577E-06,0.0001191689,5.017606E-06,4.211267E-06,0.0001182792,0,0
54017,2023-01-20 10:52:34.838925,275167005,0,8.401647E-11,5.371936E-08,7.0902E-08,3.018604E-09,3.605253E-06,4.572271E-06,0.0001191271,5.01386E-06,4.202038E-06,0.0001182267,0,0
54182,2023-01-20 10:52:35.338934,275667016,0,8.386485E-11,5.371198E-08,7.088763E-08,3.01344E-09,3.593309E-06,4.563064E-06,0.0001190998,5.009777E-06,4.193289E-06,0.0001181894,0,0
54345,2023-01-20 10:52:35.838885,276166996,0,8.36846E-11,5.37039E-08,7.087301E-08,3.006866E-09,3.580332E-06,4.553803E-06,0.0001190571,5.006124E-06,4.184329E-06,0.0001181361,0,0
54509,2023-01-20 10:52:36.338911,276667005,0,8.354338E-11,5.369749E-08,7.085933E-08,3.001779E-09,3.567346E-06,4.544556E-06,0.0001189853,5.002954E-06,4.176392E-06,0.0001180509,0,0
54671,2023-01-20 10:52:36.838866,277166996,0,8.338695E-11,5.369008E-08,7.084466E-08,2.995261E-09,3.555356E-06,4.535289E-06,0.0001189462,4.999036E-06,4.168161E-06,0.0001180015,0,0
54837,2023-01-20 10:52:37.338916,277667000,0,8.325067E-11,5.368362E-08,7.083043E-08,2.990563E-09,3.545808E-06,4.526285E-06,0.0001189379,4.994554E-06,4.159646E-06,0.0001179856,0,0
55000,2023-01-20 10:52:37.838917,278167005,0,8.307939E-11,5.367706E-08,7.081577E-08,2.984451E-09,3.534943E-06,4.51732E-06,0.0001189091,4.990387E-06,4.151681E-06,0.0001179475,0,0
55164,2023-01-20 10:52:38.338903,278667001,0,8.293473E-11,5.367157E-08,7.08019E-08,2.979873E-09,3.525287E-06,4.508483E-06,0.0001188865,4.986114E-06,4.144139E-06,0.0001179153,0,0
55326,2023-01-20 10:52:38.838902,279167001,0,8.275533E-11,5.366573E-08,7.078719E-08,2.974023E-09,3.515092E-06,4.49968E-06,0.0001188626,4.981676E-06,4.136455E-06,0.0001178827,0,0
55492,2023-01-20 10:52:39.338911,279667008,0,8.260631E-11,5.366082E-08,7.077294E-08,2.969551E-09,3.50631E-06,4.49104E-06,0.0001188525,4.976872E-06,4.128701E-06,0.0001178651,0,0
55655,2023-01-20 10:52:39.838920,280167009,0,8.240116E-11,5.365509E-08,7.075851E-08,2.963581E-09,3.497629E-06,4.482486E-06,0.0001188452,4.971951E-06,4.120662E-06,0.0001178515,0,0
55820,2023-01-20 10:52:40.338885,280666996,0,8.223031E-11,5.365049E-08,7.074525E-08,2.959307E-09,3.48971E-06,4.474002E-06,0.0001188368,4.967432E-06,4.112768E-06,0.000117836,0,0
55982,2023-01-20 10:52:40.838907,281167000,0,8.201079E-11,5.364533E-08,7.07313E-08,2.953594E-09,3.481626E-06,4.46559E-06,0.0001188311,4.962441E-06,4.104602E-06,0.0001178246,0,0
56146,2023-01-20 10:52:41.338910,281667012,0,8.183011E-11,5.364134E-08,7.071753E-08,2.949377E-09,3.474127E-06,4.457235E-06,0.0001188305,4.957397E-06,4.096273E-06,0.0001178187,0,0
56308,2023-01-20 10:52:41.838912,282166999,0,8.159048E-11,5.363671E-08,7.070334E-08,2.943587E-09,3.466296E-06,4.448923E-06,0.0001188283,4.952178E-06,4.087943E-06,0.0001178116,0,0
56472,2023-01-20 10:52:42.319400,282666996,0,8.14131E-11,5.363306E-08,7.068977E-08,2.939582E-09,3.459748E-06,4.44072E-06,0.000118829,4.946769E-06,4.079474E-06,0.0001178085,0,0
56634,2023-01-20 10:52:42.819405,283167000,0,8.11553E-11,5.362883E-08,7.067545E-08,2.93395E-09,3.4526E-06,4.432492E-06,0.0001188289,4.941143E-06,4.070676E-06,0.000117805,0,0
56798,2023-01-20 10:52:43.319353,283666999,0,8.095761E-11,5.362602E-08,7.066203E-08,2.929754E-09,3.444781E-06,4.424332E-06,0.0001188219,4.936468E-06,4.062673E-06,0.0001177914,0,0
56960,2023-01-20 10:52:43.819405,284166996,0,8.073298E-11,5.362292E-08,7.064817E-08,2.924301E-09,3.436139E-06,4.416258E-06,0.0001188065,4.931966E-06,4.054724E-06,0.0001177688,0,0
57128,2023-01-20 10:52:44.319185,284667001,0,8.055993E-11,5.36203E-08,7.06351E-08,2.920178E-09,3.428744E-06,4.408251E-06,0.0001187997,4.927583E-06,4.047074E-06,0.0001177552,0,0
57290,2023-01-20 10:52:44.819233,285166996,0,8.034295E-11,5.361689E-08,7.062111E-08,2.914599E-09,3.4216E-06,4.400316E-06,0.0001187978,4.922651E-06,4.038985E-06,0.0001177486,0,0
57455,2023-01-20 10:52:45.319218,285667000,0,8.018297E-11,5.36142E-08,7.060837E-08,2.910461E-09,3.414962E-06,4.392465E-06,0.0001187945,4.918361E-06,4.031222E-06,0.0001177394,0,0
57617,2023-01-20 10:52:45.819235,286166996,0,7.997759E-11,5.361033E-08,7.059493E-08,2.904879E-09,3.409064E-06,4.384657E-06,0.0001187926,4.913315E-06,4.023334E-06,0.0001177337,0,0
57782,2023-01-20 10:52:46.319149,286667010,0,7.982268E-11,5.360761E-08,7.0582E-08,2.900947E-09,3.403164E-06,4.376894E-06,0.0001187927,4.908501E-06,4.015962E-06,0.0001177289,0,0
57944,2023-01-20 10:52:46.819207,287166996,0,7.962905E-11,5.360363E-08,7.056851E-08,2.895399E-09,3.397583E-06,4.369214E-06,0.0001187927,4.903344E-06,4.008209E-06,0.0001177255,0,0
58108,2023-01-20 10:52:47.319215,287667000,0,7.947332E-11,5.360061E-08,7.05562E-08,2.891565E-09,3.392231E-06,4.361562E-06,0.0001187913,4.89867E-06,4.000739E-06,0.0001177196,0,0
58270,2023-01-20 10:52:47.819269,288167029,0,7.927582E-11,5.359686E-08,7.054466E-08,2.886159E-09,3.385148E-06,4.353901E-06,0.0001187587,4.895293E-06,3.993906E-06,0.0001176779,0,0
58434,2023-01-20 10:52:48.319137,288666999,0,7.914117E-11,5.35939E-08,7.05344E-08,2.88224E-09,3.378546E-06,4.346301E-06,0.0001187183,4.892274E-06,3.987645E-06,0.0001176274,0,0
