LineNo,UTC_Approx,TimeUS,C,YC,YCS,Y0,Y1,Y2,Y3,Y4,W0,W1,W2,W3,W4
365,2023-01-20 10:49:56.258497,116247435,0,167.9515,14.61458,216.0025,288.0025,0.002492592,72.00249,144.0025,0.2,0.2,0.2,0.2,0.2
955,2023-01-20 10:49:56.349466,116347450,0,198.8988,14.4459,216.0058,288.0058,0.005809412,72.00581,144.0058,0.2,0.2,0.2,0.2,0.2
1113,2023-01-20 10:49:56.451414,116453964,0,145.9873,14.26941,216.0049,288.0063,0.01132752,72.01305,144.0091,0.2000129,0.1999703,0.1999687,0.2000104,0.2000377
1332,2023-01-20 10:49:56.564043,116565584,0,146.0127,14.2695,216.0064,288.0078,0.01279504,72.01451,144.0106,0.2000129,0.1999703,0.1999687,0.2000104,0.2000377
1550,2023-01-20 10:49:56.664880,116666343,0,243.1261,14.70855,216.0171,288.0064,0.004670307,72.01435,144.0221,0.2000728,0.200058,0.199963,0.1999191,0.199987
1872,2023-01-20 10:49:56.764500,116766338,0,243.1354,14.7087,216.0225,288.0118,0.01005719,72.01974,144.0275,0.2000728,0.200058,0.199963,0.1999191,0.199987
1917,2023-01-20 10:49:56.864372,116866343,0,342.45,14.45146,216.0356,288.0358,0.01615717,72.00388,144.0159,0.1999077,0.2000904,0.2001481,0.2000011,0.1998526
1965,2023-01-20 10:49:56.964368,116966340,0,342.4479,14.45158,216.038,288.0382,0.01856905,72.00629,144.0183,0.1999077,0.2000904,0.2001481,0.2000011,0.1998526
2015,2023-01-20 10:49:57.064380,117066339,0,33.78132,14.94088,216.028,288.0572,0.04433023,72.00721,143.9972,0.1997209,0.1999241,0.2002324,0.2002194,0.1999033
2059,2023-01-20 10:49:57.164406,117166344,0,33.77992,14.94067,216.0325,288.0616,0.04879179,72.01167,144.0016,0.1997209,0.1999241,0.2002324,0.2002194,0.1999033
2111,2023-01-20 10:49:57.271510,117266340,0,72.43925,14.24989,215.9892,288.0793,0.1077224,72.03526,143.9621,0.1994551,0.1994495,0.2002045,0.2006775,0.2002135
2170,2023-01-20 10:49:57.382565,117366367,0,72.44234,14.24992,215.9919,288.0819,0.1103484,72.03789,143.9647,0.1994551,0.1994495,0.2002045,0.2006775,0.2002135
2226,2023-01-20 10:49:57.476613,117466341,0,61.83243,14.3089,215.9992,288.109,0.12407,72.02372,143.9466,0.1992454,0.1994198,0.2003961,0.2008256,0.2001132
2285,2023-01-20 10:49:57.567525,117566339,0,61.83687,14.30892,216.0036,288.1134,0.1284753,72.02812,143.951,0.1992454,0.1994198,0.2003961,0.2008256,0.2001132
2339,2023-01-20 10:49:57.664269,117666343,0,59.63412,14.33752,216.0076,288.1243,0.1359233,72.02646,143.9472,0.1991768,0.1994035,0.2004547,0.2008781,0.2000869
2398,2023-01-20 10:49:57.764245,117766341,0,59.63785,14.33754,216.0113,288.128,0.1396071,72.03014,143.9509,0.1991768,0.1994035,0.2004547,0.2008781,0.2000869
2442,2023-01-20 10:49:57.864220,117866343,0,49.82629,14.54624,216.0361,288.1291,0.1216304,72.02414,143.9713,0.1992668,0.1996021,0.2004878,0.2006994,0.1999439
2487,2023-01-20 10:49:57.964187,117966340,0,49.83269,14.54625,216.042,288.135,0.1275884,72.0301,143.9772,0.1992668,0.1996021,0.2004878,0.2006994,0.1999439
2526,2023-01-20 10:49:58.064248,118066359,0,58.76114,14.3576,216.037,288.1232,0.130474,72.04881,143.9911,0.1993857,0.1995657,0.200346,0.2006484,0.2000542
2566,2023-01-20 10:49:58.164315,118166343,0,58.7632,14.35762,216.0391,288.1253,0.132546,72.05088,143.9932,0.1993857,0.1995657,0.200346,0.2006484,0.2000542
2608,2023-01-20 10:49:58.264328,118266346,0,53.78584,14.44442,216.0385,288.1601,0.1594275,72.03752,143.9628,0.1990831,0.1994375,0.2005699,0.2009151,0.1999945
2648,2023-01-20 10:49:58.364299,118366348,0,53.78986,14.44444,216.0425,288.164,0.1633709,72.04147,143.9668,0.1990831,0.1994375,0.2005699,0.2009151,0.1999945
2687,2023-01-20 10:49:58.464282,118466343,0,351.4345,14.30137,216.0874,288.0966,0.04618092,72.00565,144.0311,0.1996952,0.2001917,0.2004235,0.2000696,0.1996199
2728,2023-01-20 10:49:58.564280,118566343,0,351.467,14.30138,216.1182,288.1275,0.07702335,72.03649,144.062,0.1996952,0.2001917,0.2004235,0.2000696,0.1996199
2768,2023-01-20 10:49:58.664277,118666358,0,48.64772,14.58015,216.0815,288.1691,0.1600012,72.06686,144.0184,0.1992994,0.1996348,0.2004755,0.200659,0.1999313
2809,2023-01-20 10:49:58.764239,118766347,0,48.6435,14.58016,216.077,288.1646,0.1555367,72.0624,144.0139,0.1992994,0.1996348,0.2004755,0.200659,0.1999313
2853,2023-01-20 10:49:58.864246,118866362,0,97.63058,14.64423,216.0362,288.1076,0.1621576,72.12435,144.0466,0.199716,0.1994145,0.1999217,0.2005376,0.2004102
2892,2023-01-20 10:49:58.964232,118966347,0,97.63891,14.6443,216.0431,288.1146,0.1691086,72.1313,144.0536,0.199716,0.1994145,0.1999217,0.2005376,0.2004102
2931,2023-01-20 10:49:59.064260,119066357,0,88.24898,14.39557,216.0109,288.1514,0.2333891,72.14364,144.0063,0.1993245,0.1989658,0.2000349,0.2010576,0.2006171
2970,2023-01-20 10:49:59.164279,119166350,0,88.23099,14.39561,215.9921,288.1326,0.2146185,72.12487,143.9875,0.1993245,0.1989658,0.2000349,0.2010576,0.2006171
3011,2023-01-20 10:49:59.264288,119266350,0,37.36768,14.95649,216.1559,288.2823,0.2378567,72.08404,144.0334,0.1988425,0.199618,0.2009233,0.2009519,0.1996643
3050,2023-01-20 10:49:59.364301,119366364,0,37.33069,14.95649,216.1181,288.2446,0.2001201,72.04631,143.9957,0.1988425,0.199618,0.2009233,0.2009519,0.1996643
3090,2023-01-20 10:49:59.464283,119466350,0,55.08678,14.4128,216.0634,288.2033,0.2057674,72.06753,143.9797,0.1989598,0.1993376,0.2006315,0.2010533,0.2000179
3131,2023-01-20 10:49:59.564294,119566365,0,55.08538,14.41284,216.0623,288.2022,0.2046455,72.06641,143.9786,0.1989598,0.1993376,0.2006315,0.2010533,0.2000179
3170,2023-01-20 10:49:59.664291,119666375,0,65.41547,14.26715,216.0695,288.201,0.2268064,72.11147,144.0145,0.1991321,0.1992686,0.2004157,0.2009894,0.2001942
3211,2023-01-20 10:49:59.764251,119766353,0,65.39479,14.26717,216.0486,288.1801,0.2059217,72.09058,143.9936,0.1991321,0.1992686,0.2004157,0.2009894,0.2001942
3250,2023-01-20 10:49:59.864240,119866352,0,100.6407,14.695,215.8893,288.1433,0.3526167,72.22828,143.9425,0.1990624,0.1978466,0.199599,0.201913,0.201579
3289,2023-01-20 10:49:59.964237,119966354,0,100.6801,14.695,215.9292,288.1832,0.3924809,72.26814,143.9824,0.1990624,0.1978466,0.199599,0.201913,0.201579
3328,2023-01-20 10:50:00.064254,120066356,0,96.28002,14.54115,215.8669,288.2036,0.4505659,72.26684,143.9068,0.1986143,0.1972869,0.199697,0.2025384,0.2018633
3368,2023-01-20 10:50:00.164280,120166355,0,96.25838,14.54117,215.8454,288.1821,0.4291427,72.24542,143.8854,0.1986143,0.1972869,0.199697,0.2025384,0.2018633
3409,2023-01-20 10:50:00.264293,120266363,0,116.3067,14.64503,215.8054,288.1032,0.469737,72.39819,143.9886,0.1994588,0.1969121,0.1986169,0.2022431,0.2027691
3448,2023-01-20 10:50:00.364270,120366348,0,116.2895,14.64506,215.7881,288.086,0.4525078,72.38096,143.9713,0.1994588,0.1969121,0.1986169,0.2022431,0.2027691
3488,2023-01-20 10:50:00.464283,120466359,0,127.4445,14.34797,215.7607,287.9989,0.3995299,72.40836,144.0146,0.2000662,0.1970294,0.1980847,0.2017912,0.2030284
3528,2023-01-20 10:50:00.564280,120566349,0,127.4772,14.348,215.7933,288.0316,0.4321452,72.44098,144.0472,0.2000662,0.1970294,0.1980847,0.2017912,0.2030284
3569,2023-01-20 10:50:00.664271,120666346,0,136.0277,14.21633,215.7932,287.985,0.415665,72.48919,144.1056,0.2005557,0.1971039,0.1976442,0.2014395,0.2032567
3610,2023-01-20 10:50:00.764268,120766355,0,136.0203,14.21635,215.7859,287.9777,0.408346,72.48187,144.0982,0.2005557,0.1971039,0.1976442,0.2014395,0.2032567
3651,2023-01-20 10:50:00.864250,120866353,0,143.9027,14.14038,215.6862,287.8771,0.4861329,72.66988,144.1768,0.2013867,0.1962757,0.1963003,0.2014269,0.2046104
3688,2023-01-20 10:50:00.964226,120966347,0,143.8941,14.14041,215.6779,287.8688,0.4778187,72.66157,144.1685,0.2013867,0.1962757,0.1963003,0.2014269,0.2046104
3720,2023-01-20 10:50:01.064251,121066375,0,147.6932,14.15767,215.6962,287.8361,0.3951059,72.5993,144.1685,0.2015443,0.196744,0.1964378,0.2010414,0.2042325
3751,2023-01-20 10:50:01.164248,121166365,0,147.7077,14.1577,215.7108,287.8506,0.409691,72.61388,144.1831,0.2015443,0.196744,0.1964378,0.2010414,0.2042325
3785,2023-01-20 10:50:01.264210,121266360,0,139.8378,14.17013,215.7537,287.9501,0.4638755,72.58424,144.1467,0.2009098,0.1966936,0.1970354,0.2014698,0.2038914
3816,2023-01-20 10:50:01.364148,121366352,0,139.8327,14.17016,215.7487,287.9451,0.4588715,72.57923,144.1417,0.2009098,0.1966936,0.1970354,0.2014698,0.2038914
3848,2023-01-20 10:50:01.464163,121466353,0,124.9056,14.3883,215.7603,288.0549,0.5125046,72.50063,144.0375,0.1999098,0.1965007,0.1979087,0.2022146,0.2034663
3881,2023-01-20 10:50:01.564214,121566352,0,124.9055,14.38834,215.7607,288.0553,0.5128973,72.50101,144.0379,0.1999098,0.1965007,0.1979087,0.2022146,0.2034663
3914,2023-01-20 10:50:01.664229,121666348,0,140.2405,14.17724,215.7721,287.947,0.4127879,72.52515,144.1304,0.2008513,0.1970164,0.1972956,0.2013083,0.2035283
3947,2023-01-20 10:50:01.764239,121766356,0,140.2213,14.17727,215.7525,287.9274,0.3932251,72.50559,144.1109,0.2008513,0.1970164,0.1972956,0.2013083,0.2035283
3980,2023-01-20 10:50:01.864187,121866351,0,149.7715,14.0888,215.0974,287.2928,0.2314838,72.60999,143.9111,0.20287,0.1947018,0.1938466,0.2014519,0.2071298
4012,2023-01-20 10:50:01.964107,121966347,0,150.6577,14.08884,215.9823,288.1776,1.116186,73.49474,144.7959,0.20287,0.1947018,0.1938466,0.2014519,0.2071298
4044,2023-01-20 10:50:02.064130,122066355,0,150.3073,14.04345,216.3751,288.6239,1.746902,74.18223,145.3352,0.2032997,0.19359,0.1927221,0.2018536,0.2085346
4075,2023-01-20 10:50:02.164194,122166353,0,150.5282,14.04345,216.5982,288.8471,1.970205,74.40542,145.5582,0.2032997,0.19359,0.1927221,0.2018536,0.2085346
4109,2023-01-20 10:50:02.264211,122266347,0,161.4366,14.13832,216.5918,288.6372,1.907294,74.645,145.8248,0.2055625,0.1938083,0.1906521,0.2002837,0.2096933
4140,2023-01-20 10:50:02.364215,122366353,0,161.328,14.13835,216.4845,288.53,1.799726,74.53714,145.7171,0.2055625,0.1938083,0.1906521,0.2002837,0.2096933
4172,2023-01-20 10:50:02.463957,122466351,0,161.3836,14.12914,216.3276,288.3695,1.695047,74.46794,145.6149,0.2058314,0.1935605,0.1902348,0.2002612,0.210112
4205,2023-01-20 10:50:02.563582,122566374,0,161.5438,14.12915,216.4886,288.5306,1.856134,74.62895,145.7759,0.2058314,0.1935605,0.1902348,0.2002612,0.210112
4239,2023-01-20 10:50:02.663437,122666351,0,181.3679,14.63402,216.9862,288.4597,1.869366,75.26244,146.6964,0.210601,0.1957444,0.1870041,0.1959305,0.2107199
4271,2023-01-20 10:50:02.763489,122766365,0,181.8944,14.63404,217.5128,288.9863,2.396025,75.7891,147.223,0.210601,0.1957444,0.1870041,0.1959305,0.2107199
4305,2023-01-20 10:50:02.863453,122866332,0,146.2662,13.89578,217.4774,290.0081,3.731313,76.23951,146.8472,0.2037808,0.1894144,0.1895812,0.2040634,0.2131603
4336,2023-01-20 10:50:02.963446,122966350,0,146.5953,13.8959,217.803,290.3326,4.054446,76.56257,147.1719,0.2037808,0.1894144,0.1895812,0.2040634,0.2131603
4369,2023-01-20 10:50:03.063464,123066378,0,148.4229,13.37922,215.9693,289.1219,5.321959,78.66422,147.3509,0.2098211,0.1747917,0.1741191,0.2086148,0.2326532
4399,2023-01-20 10:50:03.163459,123166375,0,148.3301,13.37924,215.8764,289.0291,5.229209,78.57149,147.2582,0.2098211,0.1747917,0.1741191,0.2086148,0.2326532
4434,2023-01-20 10:50:03.263447,123266360,0,127.1423,13.41588,214.7021,289.6906,6.40588,78.21498,145.5152,0.1976391,0.164286,0.1781526,0.2231551,0.2367672
4464,2023-01-20 10:50:03.363447,123366355,0,126.9347,13.41593,214.495,289.4833,6.198339,78.00732,145.3078,0.1976391,0.164286,0.1781526,0.2231551,0.2367672
4497,2023-01-20 10:50:03.463467,123466364,0,130.256,13.13444,213.7583,289.0518,6.806978,78.89308,145.3983,0.1994773,0.1581512,0.1718237,0.2254056,0.2451421
4529,2023-01-20 10:50:03.563463,123566347,0,130.6112,13.13449,214.1141,289.4077,7.162837,79.24873,145.7539,0.1994773,0.1581512,0.1718237,0.2254056,0.2451421
4563,2023-01-20 10:50:03.663474,123666355,0,142.0912,12.71347,213.7615,288.5052,7.830529,81.22712,147.1325,0.2096953,0.1531502,0.1586889,0.2207051,0.2577606
4595,2023-01-20 10:50:03.763479,123766364,0,142.7248,12.71349,214.3949,289.1387,8.464185,81.86085,147.7661,0.2096953,0.1531502,0.1586889,0.2207051,0.2577606
4629,2023-01-20 10:50:03.863665,123866353,0,161.928,12.18505,214.0049,286.5397,8.491556,85.1951,150.7894,0.2370367,0.1494537,0.1331032,0.202092,0.2783144
4661,2023-01-20 10:50:03.963980,123966357,0,162.284,12.18507,214.3611,286.8961,8.848048,85.55159,151.1456,0.2370367,0.1494537,0.1331032,0.202092,0.2783144
4694,2023-01-20 10:50:04.064140,124066362,0,190.1378,11.98235,216.566,283.4265,5.389939,87.59031,156.1783,0.2858435,0.1710542,0.1110738,0.1577304,0.2742982
4724,2023-01-20 10:50:04.164192,124166346,0,190.039,11.98238,216.467,283.3276,5.291268,87.49176,156.0797,0.2858435,0.1710542,0.1110738,0.1577304,0.2742982
4759,2023-01-20 10:50:04.264233,124266366,0,203.6445,11.05307,217.8138,280.4663,1.886704,87.84146,158.9677,0.3209265,0.1902118,0.09786852,0.1274404,0.2635528
4789,2023-01-20 10:50:04.364227,124366364,0,203.1458,11.05306,217.3147,279.9668,1.38767,87.34266,158.4696,0.3209265,0.1902118,0.09786852,0.1274404,0.2635528
4822,2023-01-20 10:50:04.464185,124466350,0,204.8689,10.94322,217.3364,279.2367,0.4940009,86.88351,158.4258,0.3258949,0.1942106,0.09660167,0.1230151,0.2602776
4855,2023-01-20 10:50:04.564144,124566349,0,204.5623,10.94325,217.0298,278.9298,0.1871196,86.57664,158.1191,0.3258949,0.1942106,0.09660167,0.1230151,0.2602776
4889,2023-01-20 10:50:04.664165,124666357,0,203.0567,11.12603,216.6023,278.7762,0.3507861,85.4928,157.0544,0.3185454,0.19301,0.1005262,0.1280596,0.2598589
4921,2023-01-20 10:50:04.764212,124766361,0,202.6336,11.12603,216.1788,278.3522,359.9272,85.0694,156.6317,0.3185454,0.19301,0.1005262,0.1280596,0.2598589
4955,2023-01-20 10:50:04.864187,124866351,0,206.6808,11.15994,216.5703,278.3933,358.6848,83.70069,156.6199,0.3174853,0.2024554,0.105448,0.1252057,0.2494056
4985,2023-01-20 10:50:04.964149,124966361,0,205.8273,11.16023,215.7195,277.5463,357.8364,82.85107,155.7632,0.3174853,0.2024554,0.105448,0.1252057,0.2494056
5018,2023-01-20 10:50:05.064161,125066359,0,203.1835,10.83773,214.6316,275.7882,357.1661,83.9856,156.0346,0.3284781,0.1965423,0.09585714,0.1205414,0.258581
5048,2023-01-20 10:50:05.164199,125166348,0,203.5692,10.83776,215.0174,276.174,357.5519,84.37141,156.4204,0.3284781,0.1965423,0.09585714,0.1205414,0.258581
5083,2023-01-20 10:50:05.264224,125266359,0,205.3543,10.37325,215.7008,275.4757,357.3155,86.65014,158.6742,0.3455144,0.1966209,0.08567753,0.1100138,0.2621732
5113,2023-01-20 10:50:05.364216,125366356,0,206.298,10.37327,216.6445,276.4192,358.259,87.59363,159.6178,0.3455144,0.1966209,0.08567753,0.1100138,0.2621732
5146,2023-01-20 10:50:05.464215,125466348,0,204.0901,9.983674,216.2775,275.3386,358.7825,90.014,160.8539,0.3577077,0.1869995,0.07490787,0.1054604,0.2749244
5178,2023-01-20 10:50:05.564249,125566368,0,204.392,9.983982,216.582,275.6472,359.0895,90.31991,161.152,0.3577077,0.1869995,0.07490787,0.1054604,0.2749244
5213,2023-01-20 10:50:05.664237,125666350,0,210.584,9.564133,217.8272,274.8247,356.6917,90.42818,163.1529,0.3767991,0.2024712,0.07070131,0.0897129,0.2603155
5245,2023-01-20 10:50:05.764243,125766353,0,209.9756,9.563897,217.2172,274.2095,356.0782,89.81572,162.5487,0.3767991,0.2024712,0.07070131,0.0897129,0.2603155
5279,2023-01-20 10:50:05.858431,125866372,0,207.4792,8.830775,215.4806,270.4976,354.1467,91.90398,163.6405,0.4045595,0.192531,0.05411008,0.07656577,0.2722337
5309,2023-01-20 10:50:05.949344,125966358,0,206.5658,8.830811,214.5672,269.5839,353.2331,90.9903,162.7271,0.4045595,0.192531,0.05411008,0.07656577,0.2722337
5342,2023-01-20 10:50:06.044301,126066355,0,208.0032,8.753664,214.3244,268.8121,351.4946,89.60764,162.2588,0.4085505,0.2005312,0.05476115,0.07254558,0.2636116
5372,2023-01-20 10:50:06.144339,126166357,0,206.8571,8.753704,213.1782,267.6658,350.3483,88.46136,161.1125,0.4085505,0.2005312,0.05476115,0.07254558,0.2636116
5407,2023-01-20 10:50:06.243805,126266351,0,209.7831,8.393717,213.2359,266.0385,347.3689,87.63188,161.6921,0.4247798,0.2133473,0.05117186,0.06124885,0.2494522
5439,2023-01-20 10:50:06.342574,126366355,0,208.8051,8.393759,212.2578,265.0604,346.3907,86.65377,160.714,0.4247798,0.2133473,0.05117186,0.06124885,0.2494522
5472,2023-01-20 10:50:06.441850,126466354,0,212.2837,8.090763,213.1619,264.71,344.6288,86.42417,161.8108,0.4369549,0.2271913,0.04921843,0.05240793,0.2342275
5504,2023-01-20 10:50:06.541842,126566358,0,212.862,8.090811,213.7402,265.2883,345.207,87.0025,162.3889,0.4369549,0.2271913,0.04921843,0.05240793,0.2342275
5538,2023-01-20 10:50:06.641816,126666366,0,203.3757,6.660441,210.221,258.4576,344.8607,95.28679,165.4434,0.4905109,0.1693272,0.01964515,0.03724599,0.2832707
5570,2023-01-20 10:50:06.741744,126766358,0,204.0223,6.660495,210.8674,259.1045,345.5075,95.93362,166.0902,0.4905109,0.1693272,0.01964515,0.03724599,0.2832707
5604,2023-01-20 10:50:06.841663,126866352,0,203.2774,5.359895,209.5513,252.4457,341.5212,103.1523,170.9575,0.5475954,0.141379,0.006293194,0.01796695,0.2867655
5634,2023-01-20 10:50:06.941588,126966367,0,202.997,5.359952,209.2711,252.1648,341.2403,102.8723,170.6768,0.5475954,0.141379,0.006293194,0.01796695,0.2867655
5667,2023-01-20 10:50:07.041525,127066363,0,202.7874,4.47654,207.9735,246.0772,336.101,108.2051,174.2535,0.5945724,0.1217797,0.001758966,0.007462325,0.2744266
5697,2023-01-20 10:50:07.141493,127166349,0,201.9082,4.476616,207.0943,245.1975,335.2213,107.3259,173.3741,0.5945724,0.1217797,0.001758966,0.007462325,0.2744266
5732,2023-01-20 10:50:07.241509,127266350,0,207.0355,3.900568,209.4575,242.6478,328.5347,110.4646,178.4777,0.6459014,0.1340922,0.0006295816,0.002021782,0.217355
5762,2023-01-20 10:50:07.341577,127366355,0,206.7736,3.900655,209.1957,242.3857,328.2726,110.2029,178.2159,0.6459014,0.1340922,0.0006295816,0.002021782,0.217355
5795,2023-01-20 10:50:07.441568,127466345,0,206.0928,3.407401,208.4866,238.039,324.4717,116.0392,181.337,0.6805533,0.1113772,0.0001103408,0.0006362814,0.2073228
5827,2023-01-20 10:50:07.541490,127566353,0,206.2566,3.407507,208.6503,238.2029,324.6356,116.203,181.5007,0.6805533,0.1113772,0.0001103408,0.0006362814,0.2073228
5861,2023-01-20 10:50:07.646106,127666349,0,204.0836,2.978777,206.779,232.5306,320.6602,123.6157,184.1947,0.7056673,0.08204882,5.425402E-05,0.0001809591,0.2120488
5893,2023-01-20 10:50:07.757380,127766350,0,204.2043,2.978894,206.8996,232.6513,320.7808,123.7363,184.3155,0.7056673,0.08204882,5.425402E-05,0.0001809591,0.2120488
5927,2023-01-20 10:50:07.856015,127866352,0,203.5443,2.741997,206.2384,230.4447,318.7808,126.9936,185.4049,0.722469,0.06864172,5.495498E-05,7.494873E-05,0.2087594
5958,2023-01-20 10:50:07.946816,127966367,0,203.6994,2.742135,206.3936,230.6002,318.9362,127.1489,185.56,0.722469,0.06864172,5.495498E-05,7.494873E-05,0.2087594
5992,2023-01-20 10:50:08.041395,128066351,0,203.7764,2.468756,206.0981,227.1767,314.4912,133.3054,188.325,0.742628,0.05795379,5.365551E-05,5.365551E-05,0.1993108
6022,2023-01-20 10:50:08.141378,128166352,0,204.0447,2.468896,206.3664,227.4451,314.7596,133.5737,188.5935,0.742628,0.05795379,5.365551E-05,5.365551E-05,0.1993108
6057,2023-01-20 10:50:08.241381,128266349,0,204.8448,2.242455,206.7322,225.1231,310.3469,139.1994,191.3592,0.7622796,0.05226792,5.208122E-05,5.208122E-05,0.1853484
6087,2023-01-20 10:50:08.341429,128366354,0,205.2511,2.24261,207.1384,225.5296,310.7533,139.6058,191.7658,0.7622796,0.05226792,5.208122E-05,5.208122E-05,0.1853484
6120,2023-01-20 10:50:08.441443,128466347,0,206.7409,2.075209,208.3094,225.2845,308.2639,143.6026,194.0972,0.7813428,0.04925575,5.334642E-05,5.334642E-05,0.1692947
6152,2023-01-20 10:50:08.541451,128566361,0,207.631,2.075378,209.1996,226.174,309.1536,144.4924,194.9871,0.7813428,0.04925575,5.334642E-05,5.334642E-05,0.1692947
6186,2023-01-20 10:50:08.641444,128666362,0,209.8143,1.96199,211.0249,227.3056,307.7823,146.8713,197.171,0.8017846,0.05085382,5.744791E-05,5.744791E-05,0.1472466
6218,2023-01-20 10:50:08.741436,128766362,0,210.1359,1.962172,211.3465,227.6268,308.1038,147.1926,197.4926,0.8017846,0.05085382,5.744791E-05,5.744791E-05,0.1472466
6252,2023-01-20 10:50:08.841466,128866356,0,212.258,1.859557,213.0206,228.5614,305.8778,149.143,199.5202,0.822722,0.0560795,5.510637E-05,5.510637E-05,0.1210884
6285,2023-01-20 10:50:08.941560,128966352,0,212.0668,1.85977,212.8302,228.3661,305.6758,148.943,199.325,0.822722,0.0560795,5.510637E-05,5.510637E-05,0.1210884
6318,2023-01-20 10:50:09.041633,129066352,0,211.8583,1.76014,212.5043,226.8255,302.2487,151.7296,200.1034,0.8324357,0.05352144,4.738609E-05,4.738609E-05,0.1139481
6348,2023-01-20 10:50:09.141672,129166352,0,211.4959,1.760339,212.1419,226.4627,301.8862,151.3668,199.741,0.8324357,0.05352144,4.738609E-05,4.738609E-05,0.1139481
6383,2023-01-20 10:50:09.241616,129266349,0,211.4465,1.670264,212.0264,225.1473,298.7765,154.8138,200.7605,0.8395104,0.05029509,4.745409E-05,4.745409E-05,0.1100995
6413,2023-01-20 10:50:09.341455,129366368,0,211.8446,1.670482,212.4244,225.5457,299.1747,155.2124,201.1586,0.8395104,0.05029509,4.745409E-05,4.745409E-05,0.1100995
6446,2023-01-20 10:50:09.441128,129466653,0,212.1087,1.608268,212.6794,225.1335,297.8872,157.8871,202.0939,0.8439647,0.0468427,4.643591E-05,4.643591E-05,0.1090997
6478,2023-01-20 10:50:09.539901,129566645,0,212.7544,1.6085,213.326,225.774,298.519,158.5248,202.7357,0.8439647,0.0468427,4.643591E-05,4.643591E-05,0.1090997
6512,2023-01-20 10:50:09.639155,129666642,0,213.5956,1.575537,214.1542,226.5851,299.1248,159.7262,203.5901,0.8488935,0.04504157,5.11506E-05,5.11506E-05,0.1059626
6544,2023-01-20 10:50:09.739153,129766641,0,214.5461,1.57576,215.1046,227.5359,300.0757,160.6768,204.5408,0.8488935,0.04504157,5.11506E-05,5.11506E-05,0.1059626
6578,2023-01-20 10:50:09.839145,129866643,0,215.641,1.553936,216.135,228.2241,300.1214,162.2079,205.8369,0.8519225,0.04597768,4.516565E-05,4.516565E-05,0.1020095
6609,2023-01-20 10:50:09.939125,129966645,0,216.2076,1.55417,216.7016,228.7911,300.6882,162.7747,206.4036,0.8519225,0.04597768,4.516565E-05,4.516565E-05,0.1020095
6642,2023-01-20 10:50:10.039118,130066641,0,216.4206,1.548405,216.9307,229.0892,301.2282,163.026,206.5981,0.853017,0.04476291,5.173235E-05,5.173235E-05,0.1021166
6672,2023-01-20 10:50:10.139156,130166654,0,216.602,1.548638,217.1121,229.2707,301.4098,163.2075,206.7796,0.853017,0.04476291,5.173235E-05,5.173235E-05,0.1021166
6707,2023-01-20 10:50:10.239059,130266643,0,216.8242,1.545346,217.3316,229.4502,301.6671,163.4444,207.0386,0.8533999,0.04460716,5.034247E-05,5.034247E-05,0.1018923
6737,2023-01-20 10:50:10.338820,130366663,0,217.0441,1.545576,217.5515,229.6703,301.887,163.6645,207.2585,0.8533999,0.04460716,5.034247E-05,5.034247E-05,0.1018923
6770,2023-01-20 10:50:10.438985,130466996,0,217.2547,1.545734,217.7485,229.9343,302.0478,163.54,207.3571,0.8549063,0.04482057,5.272269E-05,4.917812E-05,0.1001714
6802,2023-01-20 10:50:10.538961,130567000,0,217.1629,1.545959,217.6566,229.8424,301.956,163.448,207.2653,0.8549063,0.04482057,5.272269E-05,4.917812E-05,0.1001714
6836,2023-01-20 10:50:10.638947,130667009,0,217.0437,1.547328,217.5273,229.8339,301.766,163.0377,206.9988,0.8566302,0.04482704,5.634194E-05,4.983529E-05,0.09843655
6868,2023-01-20 10:50:10.738916,130766996,0,216.7997,1.547576,217.2833,229.5914,301.5214,162.7971,206.7541,0.8566302,0.04482704,5.634194E-05,4.983529E-05,0.09843655
6902,2023-01-20 10:50:10.838875,130867000,0,216.5041,1.547221,216.9887,229.2853,301.2057,162.5178,206.476,0.8564142,0.04483518,5.607471E-05,5.000855E-05,0.09864444
6932,2023-01-20 10:50:10.938795,130967009,0,216.2111,1.547473,216.6957,228.9937,300.9121,162.2271,206.1821,0.8564142,0.04483518,5.607471E-05,5.000855E-05,0.09864444
6965,2023-01-20 10:50:11.038765,131067000,0,215.9676,1.5407,216.4588,228.664,300.3564,162.2827,206.0249,0.855871,0.04464555,5.075142E-05,4.999224E-05,0.09938276
6995,2023-01-20 10:50:11.138863,131167011,0,215.5631,1.540939,216.0543,228.2598,299.9516,161.8794,205.6202,0.855871,0.04464555,5.075142E-05,4.999224E-05,0.09938276
7031,2023-01-20 10:50:11.238911,131267009,0,214.7911,1.522426,215.2969,227.255,297.9315,162.3074,205.0603,0.8565329,0.04329815,4.519951E-05,4.519951E-05,0.1000786
7061,2023-01-20 10:50:11.338917,131367022,0,214.2479,1.522657,214.7538,226.7115,297.3881,161.7644,204.5171,0.8565329,0.04329815,4.519951E-05,4.519951E-05,0.1000786
7094,2023-01-20 10:50:11.438890,131466996,0,214.1055,1.499294,214.5609,226.2257,295.4227,162.8867,204.6089,0.8588141,0.04384953,5.107976E-05,5.107976E-05,0.09723417
7125,2023-01-20 10:50:11.538900,131567001,0,213.6853,1.499531,214.1407,225.8052,295.0024,162.4666,204.1888,0.8588141,0.04384953,5.107976E-05,5.107976E-05,0.09723417
7159,2023-01-20 10:50:11.638903,131667000,0,213.2876,1.468945,213.7239,225.0218,292.71,163.6579,204.1022,0.860451,0.04324298,4.821947E-05,4.821947E-05,0.09620954
7191,2023-01-20 10:50:11.738897,131766995,0,212.9753,1.469189,213.4117,224.7093,292.3977,163.3458,203.79,0.860451,0.04324298,4.821947E-05,4.821947E-05,0.09620954
7225,2023-01-20 10:50:11.838873,131867000,0,212.8588,1.435279,213.2804,224.1515,290.1011,165.1116,204.0372,0.8623989,0.04219022,4.55031E-05,4.55031E-05,0.0953199
7255,2023-01-20 10:50:11.938798,131967000,0,213.06,1.435527,213.4816,224.3528,290.3024,165.3128,204.2384,0.8623989,0.04219022,4.55031E-05,4.55031E-05,0.0953199
7288,2023-01-20 10:50:12.038782,132066999,0,213.4408,1.408777,213.8611,224.4374,289.3114,166.9548,204.8777,0.8631712,0.04126375,4.919878E-05,4.919878E-05,0.09546659
7318,2023-01-20 10:50:12.138860,132166996,0,214.2291,1.409037,214.6494,225.2263,290.0999,167.743,205.6661,0.8631712,0.04126375,4.919878E-05,4.919878E-05,0.09546659
7353,2023-01-20 10:50:12.238930,132267017,0,215.2255,1.379447,215.6423,225.8817,289.4727,170.2003,206.956,0.864268,0.04017957,4.717436E-05,4.717436E-05,0.09545812
7383,2023-01-20 10:50:12.338937,132367028,0,216.2592,1.379712,216.676,226.9162,290.5066,171.2338,207.9897,0.864268,0.04017957,4.717436E-05,4.717436E-05,0.09545812
7416,2023-01-20 10:50:12.438899,132466995,0,216.5296,1.349239,216.9483,226.8038,288.9161,173.2183,208.5958,0.8654959,0.03861353,4.37023E-05,4.37023E-05,0.09580319
7448,2023-01-20 10:50:12.538897,132567000,0,216.5318,1.349506,216.9505,226.806,288.9182,173.2204,208.5979,0.8654959,0.03861353,4.37023E-05,4.37023E-05,0.09580319
7482,2023-01-20 10:50:12.638896,132667000,0,216.8313,1.325779,217.2003,226.7527,287.363,174.6526,209.1237,0.8680862,0.03940239,5.139979E-05,5.139979E-05,0.09240868
7514,2023-01-20 10:50:12.738907,132767000,0,216.889,1.326052,217.258,226.8104,287.4206,174.7103,209.1813,0.8680862,0.03940239,5.139979E-05,5.139979E-05,0.09240868
7548,2023-01-20 10:50:12.838894,132867010,0,216.4666,1.300347,216.8645,226.0719,285.4751,175.9318,209.078,0.8682551,0.03684422,4.897624E-05,4.897624E-05,0.09480261
7578,2023-01-20 10:50:12.938811,132967000,0,216.0331,1.300618,216.431,225.6382,285.0414,175.4982,208.6444,0.8682551,0.03684422,4.897624E-05,4.897624E-05,0.09480261
7612,2023-01-20 10:50:13.038794,133066999,0,215.2251,1.275665,215.5915,224.4753,282.3657,175.9617,208.089,0.870404,0.03688235,4.406561E-05,4.406561E-05,0.09262549
7642,2023-01-20 10:50:13.138870,133167001,0,214.1794,1.275944,214.5458,223.4288,281.3201,174.9164,207.0434,0.870404,0.03688235,4.406561E-05,4.406561E-05,0.09262549
7677,2023-01-20 10:50:13.238913,133267000,0,212.4829,1.257451,212.8879,221.5611,278.8979,174.2801,205.5546,0.8693494,0.03445102,4.328143E-05,4.473639E-05,0.09611155
7707,2023-01-20 10:50:13.338930,133367020,0,211.1726,1.257734,211.5777,220.2498,277.5878,172.9701,204.2443,0.8693494,0.03445102,4.328143E-05,4.473639E-05,0.09611155
7740,2023-01-20 10:50:13.438904,133466996,0,209.7293,1.240562,210.1132,218.5871,274.9995,172.2757,202.9523,0.8707172,0.03456539,3.790425E-05,3.790425E-05,0.09464157
7772,2023-01-20 10:50:13.538909,133567000,0,208.0364,1.240841,208.4204,216.893,273.3069,170.583,201.2595,0.8707172,0.03456539,3.790425E-05,3.790425E-05,0.09464157
7806,2023-01-20 10:50:13.638903,133666995,0,206.3705,1.228736,206.7594,215.0541,270.7762,169.7221,199.749,0.8709247,0.03361211,4.047681E-05,4.047681E-05,0.09538227
7838,2023-01-20 10:50:13.738905,133766998,0,205.3422,1.229026,205.7312,214.0251,269.7482,168.6937,198.7208,0.8709247,0.03361211,4.047681E-05,4.047681E-05,0.09538227
7872,2023-01-20 10:50:13.838880,133867006,0,205.2378,1.218871,205.5955,213.7198,268.5071,169.2009,198.7368,0.8727936,0.03426342,3.972142E-05,3.972142E-05,0.09286353
7904,2023-01-20 10:50:13.938794,133967003,0,205.6652,1.219167,206.0228,214.1474,268.9347,169.6284,199.1643,0.8727936,0.03426342,3.972142E-05,3.972142E-05,0.09286353
7937,2023-01-20 10:50:14.038783,134067014,0,206.1479,1.212554,206.4969,214.5361,268.9159,170.44,199.713,0.873396,0.0343104,3.412665E-05,3.58306E-05,0.09222367
7967,2023-01-20 10:50:14.138845,134167003,0,206.6099,1.212837,206.9581,215.0072,269.4103,170.865,200.1802,0.873396,0.0343104,3.412665E-05,3.58306E-05,0.09222367
8002,2023-01-20 10:50:14.238890,134267000,0,206.9724,1.21165,207.3306,215.3553,269.7606,171.3672,200.5571,0.8729266,0.0338223,5.824012E-05,5.824012E-05,0.0931346
8032,2023-01-20 10:50:14.338900,134367002,0,207.5765,1.211948,207.9347,215.9597,270.3649,171.9716,201.1613,0.8729266,0.0338223,5.824012E-05,5.824012E-05,0.0931346
8065,2023-01-20 10:50:14.438902,134467000,0,208.0811,1.210287,208.4397,216.4386,270.7455,172.5974,201.6891,0.8729912,0.03370044,5.326933E-05,5.730618E-05,0.09319776
8098,2023-01-20 10:50:14.538904,134567002,0,208.4491,1.210587,208.8077,216.8069,271.1131,172.9651,202.057,0.8729912,0.03370044,5.326933E-05,5.730618E-05,0.09319776
8132,2023-01-20 10:50:14.638898,134666996,0,208.9614,1.209566,209.3065,217.289,271.4232,173.4787,202.5732,0.8736312,0.03423135,5.672213E-05,5.301855E-05,0.09202765
8164,2023-01-20 10:50:14.738902,134767000,0,209.4091,1.209865,209.7542,217.737,271.871,173.9264,203.021,0.8736312,0.03423135,5.672213E-05,5.301855E-05,0.09202765
8198,2023-01-20 10:50:14.838871,134867002,0,209.7236,1.208958,210.0787,218.0484,272.2187,174.3548,203.3551,0.8732284,0.03373758,4.95817E-05,5.512592E-05,0.09292942
8228,2023-01-20 10:50:14.938800,134967015,0,210.0154,1.209258,210.3705,218.3405,272.5104,174.6465,203.6468,0.8732284,0.03373758,4.95817E-05,5.512592E-05,0.09292942
8261,2023-01-20 10:50:15.038758,135066999,0,210.0123,1.208271,210.3614,218.3109,272.3562,174.7087,203.6568,0.8735623,0.03391625,4.895015E-05,5.283824E-05,0.09241966
8291,2023-01-20 10:50:15.138827,135167003,0,209.7025,1.208563,210.0517,218.0009,272.0466,174.399,203.347,0.8735623,0.03391625,4.895015E-05,5.283824E-05,0.09241966
8326,2023-01-20 10:50:15.238872,135267000,0,209.1635,1.208065,209.5111,217.4475,271.437,173.9114,202.8177,0.8736703,0.03392957,4.764479E-05,5.204383E-05,0.09230035
8356,2023-01-20 10:50:15.338903,135367011,0,208.8591,1.208363,209.2068,217.143,271.1329,173.6073,202.5134,0.8736703,0.03392957,4.764479E-05,5.204383E-05,0.09230035
8389,2023-01-20 10:50:15.438903,135467000,0,208.7077,1.208137,209.0568,216.9798,270.9363,173.5316,202.3747,0.8736207,0.03378922,5.272703E-05,5.272703E-05,0.09248458
8421,2023-01-20 10:50:15.538903,135567003,0,208.6978,1.208436,209.0469,216.9699,270.9266,173.5218,202.3649,0.8736207,0.03378922,5.272703E-05,5.272703E-05,0.09248458
8455,2023-01-20 10:50:15.638904,135667005,0,208.6091,1.207994,208.9559,216.8671,270.7644,173.4804,202.2847,0.8737687,0.03384704,5.184046E-05,5.171536E-05,0.09228068
8487,2023-01-20 10:50:15.738904,135767003,0,208.2671,1.208286,208.6138,216.5248,270.4224,173.1384,201.9426,0.8737687,0.03384704,5.184046E-05,5.171536E-05,0.09228068
8521,2023-01-20 10:50:15.838910,135867019,0,207.8958,1.208238,208.2387,216.1446,269.9974,172.7714,201.5726,0.8739622,0.03399954,5.290082E-05,5.060384E-05,0.09193482
8551,2023-01-20 10:50:15.938862,135967002,0,207.0138,1.208534,207.3567,215.2621,269.1157,171.8896,200.6906,0.8739622,0.03399954,5.290082E-05,5.060384E-05,0.09193482
8584,2023-01-20 10:50:16.038868,136067015,0,205.4333,1.208701,205.7726,213.6786,267.5123,170.279,199.1059,0.8741093,0.03416879,5.490976E-05,4.978886E-05,0.09161723
8614,2023-01-20 10:50:16.138900,136167016,0,202.7577,1.208992,203.0971,211.0013,264.8376,167.6035,196.4305,0.8741093,0.03416879,5.490976E-05,4.978886E-05,0.09161723
8649,2023-01-20 10:50:16.238878,136266996,0,199.1874,1.209701,199.5243,207.4317,261.2687,163.986,192.8536,0.8741723,0.0343153,6.579066E-05,6.579066E-05,0.09138087
8679,2023-01-20 10:50:16.338825,136366998,0,195.0947,1.209983,195.4317,203.3366,257.178,159.8929,188.7612,0.8741723,0.0343153,6.579066E-05,6.579066E-05,0.09138087
8712,2023-01-20 10:50:16.438816,136466999,0,190.8693,1.210061,191.2039,199.1018,252.9162,155.682,184.5382,0.8743024,0.03440196,6.62738E-05,6.485412E-05,0.09116459
8744,2023-01-20 10:50:16.538872,136566998,0,186.8628,1.21035,187.1974,195.0934,248.9119,151.6743,180.5319,0.8743024,0.03440196,6.62738E-05,6.485412E-05,0.09116459
8778,2023-01-20 10:50:16.638904,136666995,0,183.22,1.210324,183.5576,191.4532,245.2946,148.0367,176.8915,0.8741576,0.03427471,6.460793E-05,6.580037E-05,0.09143735
8810,2023-01-20 10:50:16.738914,136767007,0,179.9045,1.210616,180.2422,188.1368,241.9811,144.7198,173.5763,0.8741576,0.03427471,6.460793E-05,6.580037E-05,0.09143735
8844,2023-01-20 10:50:16.838906,136867010,0,176.8507,1.210367,177.1866,185.0767,238.8968,141.6774,170.5248,0.8742498,0.03433912,6.478841E-05,6.505153E-05,0.09128131
8874,2023-01-20 10:50:16.938875,136967003,0,174.1046,1.210656,174.4404,182.3301,236.1522,138.9297,167.7789,0.8742498,0.03433912,6.478841E-05,6.505153E-05,0.09128131
8907,2023-01-20 10:50:17.038871,137067002,0,171.4274,1.209853,171.7615,179.6395,233.4006,136.3014,165.1108,0.8743606,0.03437302,6.327179E-05,6.392917E-05,0.09113921
8937,2023-01-20 10:50:17.138909,137167011,0,168.5703,1.210149,168.9044,176.7822,230.5452,133.4425,162.254,0.8743606,0.03437302,6.327179E-05,6.392917E-05,0.09113921
8972,2023-01-20 10:50:17.238929,137267017,0,165.898,1.209317,166.2263,174.0925,227.772,130.8056,159.5875,0.874651,0.03458282,6.395405E-05,6.161834E-05,0.09064048
9002,2023-01-20 10:50:17.338923,137367020,0,163.6324,1.20961,163.9608,171.8272,225.5079,128.5387,157.3221,0.874651,0.03458282,6.395405E-05,6.161834E-05,0.09064048
9035,2023-01-20 10:50:17.438910,137467008,0,161.2423,1.208995,161.5668,169.4196,223.0164,126.2022,154.9413,0.8748628,0.03470126,6.311847E-05,5.982489E-05,0.09031297
9067,2023-01-20 10:50:17.538911,137566998,0,158.4059,1.209294,158.7303,166.5837,220.1814,123.3637,152.1051,0.8748628,0.03470126,6.311847E-05,5.982489E-05,0.09031297
9101,2023-01-20 10:50:17.638915,137666995,0,155.2636,1.208892,155.586,163.4326,216.9845,120.2498,148.9683,0.8749733,0.03476185,6.259783E-05,5.889267E-05,0.09014346
9133,2023-01-20 10:50:17.738930,137767012,0,151.5047,1.209348,151.826,159.7082,213.2005,116.4958,145.2068,0.8749733,0.03476185,6.259783E-05,5.889267E-05,0.09014346
9167,2023-01-20 10:50:17.835450,137866999,0,147.8682,1.209318,148.1882,156.0655,209.5361,112.8725,141.5718,0.8750439,0.03481246,6.268953E-05,5.834915E-05,0.09002258
9197,2023-01-20 10:50:17.926548,137967004,0,144.2692,1.209605,144.5893,152.4647,205.9361,109.2759,137.9725,0.8750439,0.03481246,6.268953E-05,5.834915E-05,0.09002258
9230,2023-01-20 10:50:18.021482,138067027,0,140.6767,1.20974,140.9944,148.8644,202.3101,105.6935,134.3807,0.8751681,0.03491333,6.344689E-05,5.750336E-05,0.08979755
9261,2023-01-20 10:50:18.132253,138167002,0,137.1652,1.21003,137.483,145.3508,198.7979,102.1838,130.869,0.8751681,0.03491333,6.344689E-05,5.750336E-05,0.08979755
9296,2023-01-20 10:50:18.238871,138267001,0,133.7338,1.210297,134.0512,141.9169,195.3655,98.75159,127.4368,0.8751929,0.0349366,6.38347E-05,5.738978E-05,0.08974923
9326,2023-01-20 10:50:18.338922,138367012,0,130.1438,1.210586,130.4613,138.3245,191.7755,95.16318,123.8468,0.8751929,0.0349366,6.38347E-05,5.738978E-05,0.08974923
9359,2023-01-20 10:50:18.435470,138466999,0,126.7416,1.210868,127.0588,134.9191,188.369,91.76242,120.4445,0.875212,0.03495101,6.401914E-05,5.729083E-05,0.0897157
9391,2023-01-20 10:50:18.526576,138567002,0,123.5819,1.211151,123.8992,131.7573,185.2097,88.60362,117.2849,0.875212,0.03495101,6.401914E-05,5.729083E-05,0.0897157
9425,2023-01-20 10:50:18.619396,138667000,0,121.2702,1.211414,121.5872,129.4447,182.9033,86.28574,114.9718,0.8752295,0.03497311,6.45551E-05,5.724885E-05,0.08967568
9457,2023-01-20 10:50:18.719379,138767017,0,120.071,1.211709,120.388,128.2447,181.7042,85.08652,113.7726,0.8752295,0.03497311,6.45551E-05,5.724885E-05,0.08967568
9491,2023-01-20 10:50:18.819326,138866998,0,119.7718,1.211686,120.0863,127.942,181.385,84.7827,113.4719,0.875341,0.03508222,6.58127E-05,5.652625E-05,0.0894544
9523,2023-01-20 10:50:18.919290,138966998,0,120.0806,1.211985,120.3951,128.251,181.6936,85.09128,113.7807,0.875341,0.03508222,6.58127E-05,5.652625E-05,0.0894544
9556,2023-01-20 10:50:19.019273,139067003,0,120.5093,1.212046,120.8222,128.6772,182.1055,85.52003,114.209,0.8754128,0.03514867,6.647161E-05,5.604545E-05,0.08931601
9586,2023-01-20 10:50:19.119303,139166998,0,120.0578,1.212335,120.3707,128.2253,181.6544,85.06885,113.7577,0.8754128,0.03514867,6.647161E-05,5.604545E-05,0.08931601
9621,2023-01-20 10:50:19.219324,139266995,0,118.6562,1.212511,118.9671,126.8199,180.2374,83.66405,112.3549,0.8755036,0.03523866,6.752236E-05,5.545918E-05,0.08913483
9651,2023-01-20 10:50:19.319306,139367002,0,117.4345,1.212805,117.7454,125.5973,179.0161,82.44257,111.1333,0.8755036,0.03523866,6.752236E-05,5.545918E-05,0.08913483
9684,2023-01-20 10:50:19.419272,139466999,0,116.8255,1.213018,117.137,124.9888,178.4122,81.83362,110.5244,0.875483,0.03521801,6.734531E-05,5.561282E-05,0.08917616
9716,2023-01-20 10:50:19.519240,139567020,0,116.536,1.213315,116.8475,124.6991,178.1228,81.54408,110.2349,0.875483,0.03521801,6.734531E-05,5.561282E-05,0.08917616
9750,2023-01-20 10:50:19.619174,139666998,0,116.4505,1.213573,116.7637,124.6211,178.0831,81.43873,110.146,0.8753955,0.03515617,6.762303E-05,5.638125E-05,0.08932429
9782,2023-01-20 10:50:19.719173,139766999,0,116.5316,1.21387,116.8448,124.7022,178.1642,81.51981,110.2271,0.8753955,0.03515617,6.762303E-05,5.638125E-05,0.08932429
9816,2023-01-20 10:50:19.819166,139866997,0,116.8506,1.21397,117.165,125.0252,178.5054,81.83169,110.5449,0.8753399,0.03510997,6.750602E-05,5.683999E-05,0.08942588
9846,2023-01-20 10:50:19.919157,139967005,0,117.2702,1.21427,117.5845,125.4452,178.9246,82.25097,110.9644,0.8753399,0.03510997,6.750602E-05,5.683999E-05,0.08942588
9879,2023-01-20 10:50:20.019142,140067002,0,117.562,1.214105,117.8777,125.7453,179.2417,82.52779,111.2652,0.8752604,0.03500304,6.564715E-05,5.729658E-05,0.08961364
9909,2023-01-20 10:50:20.119149,140166999,0,117.6684,1.214397,117.984,125.8516,179.3481,82.6342,111.3715,0.8752604,0.03500304,6.564715E-05,5.729658E-05,0.08961364
9944,2023-01-20 10:50:20.219164,140266994,0,117.9006,1.214262,118.2206,126.0934,179.6392,82.85873,111.6031,0.8750567,0.03481797,6.427719E-05,5.883704E-05,0.09000221
9977,2023-01-20 10:50:20.319240,140367006,0,118.1401,1.214559,118.4602,126.3328,179.8787,83.09821,111.8426,0.8750567,0.03481797,6.427719E-05,5.883704E-05,0.09000221
10010,2023-01-20 10:50:20.419280,140466995,0,117.981,1.213854,118.3017,126.1742,179.7226,82.94241,111.6842,0.8750314,0.03478624,6.390012E-05,5.903613E-05,0.0900595
10042,2023-01-20 10:50:20.519280,140566999,0,117.8237,1.214151,118.1443,126.017,179.5651,82.78488,111.5269,0.8750314,0.03478624,6.390012E-05,5.903613E-05,0.0900595
10076,2023-01-20 10:50:20.619284,140667000,0,117.6442,1.212556,117.9638,125.8251,179.3094,82.65458,111.3565,0.8751143,0.03479438,6.218438E-05,5.819557E-05,0.08997101
10108,2023-01-20 10:50:20.719325,140767003,0,117.461,1.212848,117.7805,125.642,179.1265,82.47176,111.1733,0.8751143,0.03479438,6.218438E-05,5.819557E-05,0.08997101
10142,2023-01-20 10:50:20.819329,140866999,0,117.3073,1.210684,117.635,125.463,178.8436,82.49092,111.0423,0.8748503,0.03437292,5.40066E-05,5.930721E-05,0.09066352
10172,2023-01-20 10:50:20.919219,140967008,0,117.6896,1.210984,118.0173,125.8458,179.2255,82.873,111.4245,0.8748503,0.03437292,5.40066E-05,5.930721E-05,0.09066352
10205,2023-01-20 10:50:21.019128,141067002,0,118.2542,1.209878,118.5776,126.4063,179.7612,83.42284,111.9854,0.8750479,0.03456487,5.602661E-05,5.803411E-05,0.09027328
10235,2023-01-20 10:50:21.119177,141166996,0,118.6561,1.210178,118.9795,126.8085,180.1631,83.82476,112.3873,0.8750479,0.03456487,5.602661E-05,5.803411E-05,0.09027328
10270,2023-01-20 10:50:21.219234,141267013,0,118.911,1.209854,119.2351,127.0685,180.4476,84.06197,112.639,0.875012,0.03455092,5.65157E-05,5.841634E-05,0.0903221
10300,2023-01-20 10:50:21.319208,141367011,0,119.0732,1.210148,119.3973,127.2309,180.6097,84.22408,112.8012,0.875012,0.03455092,5.65157E-05,5.841634E-05,0.0903221
10333,2023-01-20 10:50:21.419179,141466995,0,119.3107,1.210303,119.637,127.4764,180.8955,84.44437,113.0359,0.8748941,0.03446313,5.639675E-05,5.937872E-05,0.09052686
10365,2023-01-20 10:50:21.519221,141567001,0,119.6274,1.210601,119.9538,127.7933,181.2123,84.76115,113.3526,0.8748941,0.03446313,5.639675E-05,5.937872E-05,0.09052686
10399,2023-01-20 10:50:21.619237,141667000,0,119.6165,1.210413,119.9461,127.7752,181.1576,84.80996,113.3538,0.8747789,0.03428085,5.305322E-05,5.986335E-05,0.09082739
10431,2023-01-20 10:50:21.719181,141767005,0,118.4265,1.210707,118.7561,126.5842,179.968,83.62029,112.1639,0.8747789,0.03428085,5.305322E-05,5.986335E-05,0.09082739
10465,2023-01-20 10:50:21.819121,141866998,0,115.1089,1.209811,115.4435,123.2512,176.5733,80.40543,108.8667,0.8745924,0.03398572,4.785712E-05,6.058307E-05,0.0913135
10495,2023-01-20 10:50:21.919116,141967006,0,109.9917,1.210096,110.3264,118.1307,171.4577,75.28797,103.7496,0.8745924,0.03398572,4.785712E-05,6.058307E-05,0.0913135
10528,2023-01-20 10:50:22.019107,142066998,0,103.6838,1.208287,104.0342,111.7935,165.0026,69.22986,97.49214,0.8739253,0.03312232,3.898939E-05,6.369573E-05,0.09284982
10558,2023-01-20 10:50:22.119158,142166999,0,96.85944,1.208573,97.20987,104.966,158.1812,62.40284,90.66798,0.8739253,0.03312232,3.898939E-05,6.369573E-05,0.09284982
10593,2023-01-20 10:50:22.219192,142266999,0,88.74439,1.205465,89.10242,96.84563,149.8433,54.53026,82.60755,0.8735487,0.03251768,3.062488E-05,6.452159E-05,0.09383845
10623,2023-01-20 10:50:22.319180,142367022,0,81.26807,1.205764,81.6261,89.37009,142.3632,47.05876,75.13093,0.8735487,0.03251768,3.062488E-05,6.452159E-05,0.09383845
10656,2023-01-20 10:50:22.419134,142466995,0,74.68705,1.201727,75.05661,82.73817,135.4833,40.81472,68.6141,0.8730102,0.03174879,2.869557E-05,6.579106E-05,0.09514658
10688,2023-01-20 10:50:22.519187,142567002,0,70.07361,1.202025,70.44323,78.12365,130.8672,36.20402,64.0005,0.8730102,0.03174879,2.869557E-05,6.579106E-05,0.09514658
10722,2023-01-20 10:50:22.619219,142666999,0,67.50497,1.195332,67.85522,75.40955,127.417,34.14014,61.52295,0.874218,0.03210556,2.867406E-05,5.469084E-05,0.09359297
10754,2023-01-20 10:50:22.719202,142766999,0,66.23814,1.195633,66.5884,74.1422,126.1486,32.87302,60.25599,0.874218,0.03210556,2.867406E-05,5.469084E-05,0.09359297
10788,2023-01-20 10:50:22.819185,142867002,0,65.72799,1.183573,66.08275,73.43752,124.4656,33.3061,59.92281,0.8741505,0.03106804,2.934472E-05,4.95135E-05,0.09470253
10818,2023-01-20 10:50:22.919154,142967003,0,66.29988,1.183873,66.65464,74.00973,125.0375,33.87732,60.49463,0.8741505,0.03106804,2.934472E-05,4.95135E-05,0.09470253
10851,2023-01-20 10:50:23.019150,143067014,0,67.21612,1.164249,67.56122,74.5938,123.9288,36.25953,61.68258,0.8748934,0.03016243,3.094294E-05,3.880551E-05,0.0948744
10881,2023-01-20 10:50:23.119206,143167019,0,68.76119,1.164559,69.10626,76.13931,125.4744,37.8035,63.22776,0.8748934,0.03016243,3.094294E-05,3.880551E-05,0.0948744
10917,2023-01-20 10:50:23.219222,143266999,0,69.55235,1.140945,69.89935,76.59961,124.2445,40.15985,64.30924,0.8747362,0.02865497,3.096626E-05,3.286867E-05,0.09654497
10947,2023-01-20 10:50:23.319196,143367002,0,70.29078,1.14126,70.63776,77.33816,124.9836,40.89817,65.0478,0.8747362,0.02865497,3.096626E-05,3.286867E-05,0.09654497
10980,2023-01-20 10:50:23.419168,143466995,0,70.11022,1.115484,70.47485,76.78459,122.5295,42.62702,65.22022,0.8728462,0.02612165,4.324301E-05,4.324301E-05,0.1009457
11012,2023-01-20 10:50:23.519189,143567002,0,70.75333,1.1158,71.11794,77.42774,123.1728,43.2697,65.86344,0.8728462,0.02612165,4.324301E-05,4.324301E-05,0.1009457
11046,2023-01-20 10:50:23.619204,143667008,0,71.90068,1.078665,72.20526,77.98644,120.536,46.63315,67.41264,0.877017,0.02682298,3.909587E-05,3.909587E-05,0.09608193
11078,2023-01-20 10:50:23.719177,143766995,0,72.59649,1.079,72.90105,78.68239,121.2324,47.32883,68.10854,0.877017,0.02682298,3.909587E-05,3.909587E-05,0.09608193
11112,2023-01-20 10:50:23.819170,143867002,0,74.10001,1.032672,74.33128,79.503,118.1448,51.32056,70.06875,0.882511,0.02845919,3.811856E-05,3.811856E-05,0.08895358
11145,2023-01-20 10:50:23.919178,143967027,0,74.57789,1.033021,74.80914,79.98092,118.6229,51.79832,70.5467,0.882511,0.02845919,3.811856E-05,3.811856E-05,0.08895358
11178,2023-01-20 10:50:24.019161,144067011,0,73.86533,0.9841283,74.08591,78.55293,113.1267,54.30053,70.42196,0.8818583,0.02594009,5.481146E-05,5.481146E-05,0.09209204
11208,2023-01-20 10:50:24.119210,144166999,0,73.6254,0.9844872,73.84598,78.31279,112.8874,54.06158,70.18214,0.8818583,0.02594009,5.481146E-05,5.481146E-05,0.09209204
11243,2023-01-20 10:50:24.219257,144267008,0,74.28178,0.9417574,74.45756,78.4924,110.1251,56.48583,71.16455,0.8857614,0.02725052,3.103452E-05,3.103452E-05,0.08692592
11273,2023-01-20 10:50:24.319185,144366998,0,74.30988,0.9421405,74.48565,78.52046,110.1532,56.51408,71.19267,0.8857614,0.02725052,3.103452E-05,3.103452E-05,0.08692592
11306,2023-01-20 10:50:24.419144,144466995,0,73.85645,0.906414,74.01801,77.54877,106.0463,58.33446,71.15012,0.8854114,0.02589708,6.516904E-05,6.516904E-05,0.08856115
11339,2023-01-20 10:50:24.519226,144567011,0,73.83696,0.9068046,73.99851,77.52926,106.0268,58.31507,71.13065,0.8854114,0.02589708,6.516904E-05,6.516904E-05,0.08856115
11374,2023-01-20 10:50:24.619247,144666995,0,71.50452,0.8820029,71.68453,74.89519,101.742,57.62275,69.07916,0.8800613,0.02241563,0.0001039569,0.0001039569,0.0973152
11406,2023-01-20 10:50:24.719166,144766995,0,70.88429,0.8824121,71.06432,74.27476,101.121,57.00261,68.45889,0.8800613,0.02241563,0.0001039569,0.0001039569,0.0973152
11440,2023-01-20 10:50:24.819116,144867011,0,70.90383,0.8601854,71.0592,73.96906,98.76184,58.3078,68.71015,0.8819795,0.02297548,6.432596E-05,8.134549E-05,0.09489936
11471,2023-01-20 10:50:24.919108,144967002,0,69.7946,0.8606048,69.94998,72.85943,97.65211,57.19907,67.60086,0.8819795,0.02297548,6.432596E-05,8.134549E-05,0.09489936
11504,2023-01-20 10:50:25.019109,145066998,0,68.23176,0.8445677,68.38123,71.05231,94.38936,56.75285,66.23048,0.8804406,0.02203641,8.184184E-05,8.910757E-05,0.09735205
11534,2023-01-20 10:50:25.119153,145167012,0,68.1266,0.8449862,68.27609,70.94705,94.27944,56.64661,66.1253,0.8804406,0.02203641,8.184184E-05,8.910757E-05,0.09735205
11570,2023-01-20 10:50:25.219168,145267005,0,68.55354,0.8363607,68.69398,71.17339,93.58691,57.818,66.6766,0.8806083,0.02206747,7.40935E-05,8.700904E-05,0.09716319
11600,2023-01-20 10:50:25.319158,145367001,0,69.11221,0.8368028,69.25153,71.75907,94.03595,58.35506,67.23933,0.8806083,0.02206747,7.40935E-05,8.700904E-05,0.09716319
11633,2023-01-20 10:50:25.419162,145467007,0,70.35318,0.8366728,70.48288,72.95407,94.75977,59.60807,68.4987,0.8820739,0.02287589,0.0001407338,0.0001407338,0.09476876
11665,2023-01-20 10:50:25.519176,145567008,0,70.45318,0.8371034,70.5829,73.05395,94.84805,59.70535,68.59865,0.8820739,0.02287589,0.0001407338,0.0001407338,0.09476876
11699,2023-01-20 10:50:25.619174,145666997,0,70.91467,0.8356251,71.04095,73.48853,95.26585,60.28293,69.07959,0.8822322,0.02308366,0.0001638383,0.000142577,0.09437781
11731,2023-01-20 10:50:25.719171,145767007,0,72.32275,0.8360466,72.44899,74.89667,96.67217,61.69209,70.48806,0.8822322,0.02308366,0.0001638383,0.000142577,0.09437781
11764,2023-01-20 10:50:25.819156,145867007,0,73.61375,0.8241335,73.73585,76.14116,97.68956,63.17532,71.81275,0.8824087,0.0232565,0.0001827613,0.0001433156,0.09400873
11796,2023-01-20 10:50:25.919123,145966998,0,73.99168,0.8245704,74.11375,76.519,98.06647,63.55382,72.19083,0.8824087,0.0232565,0.0001827613,0.0001433156,0.09400873
11829,2023-01-20 10:50:26.019112,146066999,0,73.58168,0.7940168,73.7026,76.00143,96.72115,63.62271,71.86583,0.8817531,0.02281416,0.0001304224,0.0001518381,0.09515049
11859,2023-01-20 10:50:26.119153,146167002,0,73.38995,0.7944717,73.51088,75.80974,96.53082,63.43096,71.67403,0.8817531,0.02281416,0.0001304224,0.0001518381,0.09515049
11894,2023-01-20 10:50:26.219173,146266999,0,74.70644,0.7530768,74.80957,76.95979,96.42262,65.39818,73.10213,0.8842522,0.02391514,0.0001443572,0.0001384104,0.09154992
11924,2023-01-20 10:50:26.319138,146367000,0,75.31412,0.7535453,75.41724,77.56741,97.02595,66.00565,73.70997,0.8842522,0.02391514,0.0001443572,0.0001384104,0.09154992
11957,2023-01-20 10:50:26.419113,146466998,0,76.04147,0.7043623,76.12766,78.11014,96.12503,67.4615,74.56247,0.886537,0.02500532,0.0001901644,0.0001901644,0.08807749
11989,2023-01-20 10:50:26.519163,146567018,0,75.35953,0.7048755,75.44576,77.4283,95.44287,66.77827,73.88029,0.886537,0.02500532,0.0001901644,0.0001901644,0.08807749
12023,2023-01-20 10:50:26.619179,146667011,0,73.7407,0.6531703,73.82497,75.5904,91.72832,66.13013,72.43263,0.8854852,0.023784,6.885692E-05,0.0001984335,0.09046345
12055,2023-01-20 10:50:26.719165,146767002,0,73.07572,0.6537231,73.16001,74.92532,91.06331,65.4649,71.76754,0.8854852,0.023784,6.885692E-05,0.0001984335,0.09046345
12088,2023-01-20 10:50:26.819160,146867006,0,72.59246,0.60852,72.66806,74.28288,89.11971,65.64008,71.39796,0.8858203,0.02361887,0.0001328698,0.0001819681,0.09024602
12119,2023-01-20 10:50:26.919128,146966998,0,72.0128,0.6091016,72.08842,73.70319,88.54043,65.05988,70.81815,0.8858203,0.02361887,0.0001328698,0.0001819681,0.09024602
12152,2023-01-20 10:50:27.019115,147067003,0,71.52492,0.5886559,71.58981,73.11517,87.58289,64.85596,70.36645,0.8885762,0.02515639,0.0001893489,0.0001722518,0.08590572
12182,2023-01-20 10:50:27.119123,147167002,0,70.94531,0.5892681,71.01019,72.53559,87.00233,64.27686,69.78702,0.8885762,0.02515639,0.0001893489,0.0001722518,0.08590572
12217,2023-01-20 10:50:27.219127,147266995,0,71.2067,0.5717971,71.26109,72.73394,86.71009,64.74912,70.08283,0.8908492,0.02669826,0.0002714924,0.0001939105,0.08198715
12247,2023-01-20 10:50:27.319146,147367000,0,71.07729,0.5724162,71.13169,72.60455,86.58047,64.61979,69.95345,0.8908492,0.02669826,0.0002714924,0.0001939105,0.08198715
12280,2023-01-20 10:50:27.417458,147467020,0,71.52052,0.5552776,71.56931,72.98717,86.4632,65.29474,70.43616,0.892022,0.02743482,0.000278207,0.0001643049,0.08010063
12312,2023-01-20 10:50:27.508476,147567008,0,72.2179,0.5558982,72.26528,73.70562,86.93765,65.98193,71.14289,0.892022,0.02743482,0.000278207,0.0001643049,0.08010063
12346,2023-01-20 10:50:27.599494,147666995,0,72.70482,0.5565336,72.75219,74.19253,87.42353,66.46938,71.62995,0.892022,0.02743482,0.000278207,0.0001643049,0.08010063
12378,2023-01-20 10:50:27.699444,147767002,0,73.50416,0.5412863,73.54942,74.94749,87.80284,67.45277,72.46152,0.8925239,0.02764306,0.000243932,0.00015264,0.07943649
12411,2023-01-20 10:50:27.799435,147867001,0,74.18652,0.5419518,74.23176,75.6298,88.48346,68.13594,73.1441,0.8925239,0.02764306,0.000243932,0.00015264,0.07943649
12443,2023-01-20 10:50:27.899368,147966998,0,74.78181,0.5294691,74.82183,76.18967,88.76489,68.85497,73.75953,0.8936641,0.02861482,0.0002922213,0.0001929023,0.077236
12476,2023-01-20 10:50:27.999305,148066999,0,74.64288,0.5301503,74.68291,76.05071,88.6259,68.71607,73.6206,0.8936641,0.02861482,0.0002922213,0.0001929023,0.077236
12506,2023-01-20 10:50:28.099333,148167002,0,75.09,0.5209138,75.1195,76.45612,88.72488,69.28142,74.08421,0.8954504,0.03057522,0.0004840354,0.0001665388,0.07332388
12541,2023-01-20 10:50:28.199356,148267000,0,74.90117,0.5215937,74.93067,76.2673,88.53656,69.09235,73.89531,0.8954504,0.03057522,0.0004840354,0.0001665388,0.07332388
12572,2023-01-20 10:50:28.299409,148367028,0,74.90293,0.5133801,74.92885,76.23659,88.23914,69.21551,73.91712,0.8961045,0.03125064,0.0005207121,0.0001468674,0.07197737
12605,2023-01-20 10:50:28.399425,148467019,0,74.996,0.5140826,75.02192,76.32964,88.33201,69.3087,74.01022,0.8961045,0.03125064,0.0005207121,0.0001468674,0.07197737
12637,2023-01-20 10:50:28.510302,148566998,0,75.63496,0.5072861,75.65549,76.95101,88.8355,69.99269,74.65439,0.8967617,0.0323701,0.0006809955,0.000235411,0.06995187
12671,2023-01-20 10:50:28.617436,148666995,0,76.13536,0.5015932,76.15274,77.43158,89.16135,70.56236,75.1654,0.8972015,0.03297639,0.0007466441,0.000212826,0.06886271
12703,2023-01-20 10:50:28.708443,148767002,0,76.23122,0.5023119,76.2486,77.52741,89.25675,70.65841,75.2613,0.8972015,0.03297639,0.0007466441,0.000212826,0.06886271
12736,2023-01-20 10:50:28.799439,148866998,0,76.07262,0.5030171,76.09,77.3688,89.0984,70.49968,75.10266,0.8972015,0.03297639,0.0007466441,0.000212826,0.06886271
12769,2023-01-20 10:50:28.899272,148966999,0,75.60862,0.4976754,75.62735,76.88808,88.45959,70.11782,74.65408,0.897304,0.0328234,0.0006468201,0.0002125541,0.06901315
12802,2023-01-20 10:50:28.999158,149066999,0,75.08266,0.4984008,75.1014,76.36213,87.9346,69.59139,74.12799,0.897304,0.0328234,0.0006468201,0.0002125541,0.06901315
12832,2023-01-20 10:50:29.099230,149167018,0,74.80024,0.4943976,74.81518,76.06657,87.55106,69.34403,73.84948,0.8977166,0.03354684,0.0007586886,0.0001908111,0.0677871
12868,2023-01-20 10:50:29.199267,149267001,0,74.38615,0.4951274,74.4011,75.65247,87.13753,68.92963,73.4353,0.8977166,0.03354684,0.0007586886,0.0001908111,0.0677871
12898,2023-01-20 10:50:29.299217,149367015,0,73.79977,0.492005,73.81918,75.03706,86.67561,68.40122,72.8494,0.8976367,0.03306293,0.0006139674,0.0002003187,0.06848603
12931,2023-01-20 10:50:29.399160,149467023,0,73.98439,0.4926608,74.00233,75.24157,86.62495,68.58638,73.04566,0.8976367,0.03306293,0.0006139674,0.0002003187,0.06848603
12963,2023-01-20 10:50:29.499153,149566998,0,74.29857,0.4901837,74.31802,75.52639,87.08134,68.9419,73.35561,0.8977407,0.03309155,0.0005873713,0.000197187,0.06838322
12997,2023-01-20 10:50:29.599173,149666998,0,74.9034,0.49092,74.92287,76.1312,87.68713,69.54633,73.96031,0.8977407,0.03309155,0.0005873713,0.000197187,0.06838322
13029,2023-01-20 10:50:29.699169,149767003,0,75.30778,0.4888324,75.32636,76.52876,88.03178,69.97531,74.36845,0.8978992,0.03328987,0.0006004069,0.0001904955,0.06802006
13062,2023-01-20 10:50:29.799155,149866998,0,75.0612,0.4895699,75.07979,76.28218,87.78463,69.729,74.12196,0.8978992,0.03328987,0.0006004069,0.0001904955,0.06802006
13093,2023-01-20 10:50:29.899134,149966999,0,74.55177,0.4879572,74.56945,75.76728,87.22682,69.23904,73.61547,0.8980405,0.03348503,0.0006174164,0.0001844275,0.06767263
13126,2023-01-20 10:50:29.999113,150067001,0,74.04201,0.4886809,74.05968,75.25752,86.71599,68.72977,73.10585,0.8980405,0.03348503,0.0006174164,0.0001844275,0.06767263
13156,2023-01-20 10:50:30.099144,150166998,0,73.64275,0.4873614,73.66159,74.85467,86.27228,68.35418,72.7115,0.8980086,0.03327512,0.000562014,0.0001882834,0.06796592
13191,2023-01-20 10:50:30.199175,150266995,0,73.93478,0.4881017,73.95363,75.14668,86.56473,68.64597,73.00346,0.8980086,0.03327512,0.000562014,0.0001882834,0.06796592
13221,2023-01-20 10:50:30.299201,150367020,0,74.79846,0.4870201,74.818,76.02883,87.1634,69.53109,73.88377,0.8978539,0.03283716,0.0004794125,0.0001983705,0.06863114
13254,2023-01-20 10:50:30.399197,150467015,0,75.53883,0.4877983,75.55991,76.74923,88.14263,70.26882,74.61189,0.8978539,0.03283716,0.0004794125,0.0001983705,0.06863114
13286,2023-01-20 10:50:30.499176,150566999,0,76.50798,0.487137,76.52695,77.73466,88.83701,71.25525,75.59576,0.8979478,0.03295951,0.0004877867,0.0001943089,0.06841061
13320,2023-01-20 10:50:30.599179,150667008,0,76.78961,0.4879322,76.81017,77.99633,89.36266,71.53156,75.86437,0.8979478,0.03295951,0.0004877867,0.0001943089,0.06841061
13353,2023-01-20 10:50:30.699171,150767002,0,77.34172,0.4875463,77.36011,78.5446,89.89275,72.08681,76.41573,0.8981799,0.03342072,0.0005540816,0.0001823716,0.06766286
13386,2023-01-20 10:50:30.799165,150866998,0,77.98724,0.4882229,78.00401,79.21008,90.29109,72.73943,77.07478,0.8981799,0.03342072,0.0005540816,0.0001823716,0.06766286
13417,2023-01-20 10:50:30.899136,150967002,0,78.08974,0.4879565,78.10835,79.29073,90.6216,72.84399,77.16541,0.8981943,0.03338802,0.0005406474,0.0001825528,0.06769446
13450,2023-01-20 10:50:30.999107,151067007,0,78.03217,0.4886819,78.05077,79.23315,90.56391,72.78648,77.10786,0.8981943,0.03338802,0.0005406474,0.0001825528,0.06769446
13480,2023-01-20 10:50:31.099185,151166998,0,77.57388,0.4884079,77.59328,78.77225,90.07327,72.34507,76.65307,0.8981553,0.03322873,0.0005055899,0.0001855935,0.06792472
13515,2023-01-20 10:50:31.199270,151266995,0,76.93954,0.4891457,76.95893,78.1379,89.43796,71.71133,76.0189,0.8981553,0.03322873,0.0005055899,0.0001855935,0.06792472
13545,2023-01-20 10:50:31.299237,151367011,0,76.26276,0.48902,76.28297,77.45921,88.73527,71.0488,75.34518,0.8981007,0.03305374,0.0004720557,0.0001892375,0.06818418
13578,2023-01-20 10:50:31.399178,151467001,0,75.95695,0.4897061,75.97559,77.17332,88.18723,70.74754,75.05214,0.8981007,0.03305374,0.0004720557,0.0001892375,0.06818418
13610,2023-01-20 10:50:31.499176,151567019,0,75.54793,0.4897033,75.56792,76.76337,87.76083,70.35074,74.64597,0.8979815,0.03275832,0.0004255478,0.0001961617,0.06863855
13643,2023-01-20 10:50:31.599145,151667008,0,75.52098,0.4904251,75.54097,76.73642,87.73392,70.32376,74.61902,0.8979815,0.03275832,0.0004255478,0.0001961617,0.06863855
13676,2023-01-20 10:50:31.699149,151766999,0,75.89384,0.4905852,75.91376,77.10881,88.10238,70.69875,74.99223,0.898004,0.03277498,0.0004258101,0.0001955001,0.06859972
13709,2023-01-20 10:50:31.799161,151866998,0,76.73524,0.4913197,76.75515,77.95023,88.9426,71.54079,75.83382,0.898004,0.03277498,0.0004258101,0.0001955001,0.06859972
13741,2023-01-20 10:50:31.899148,151967008,0,77.68176,0.4915921,77.70171,78.89658,89.88603,72.48937,76.7808,0.8980075,0.03275883,0.000422305,0.0001957475,0.06861551
13774,2023-01-20 10:50:31.999119,152067002,0,78.1284,0.4923749,78.15001,79.32327,90.57967,72.92853,77.21383,0.8980075,0.03275883,0.000422305,0.0001957475,0.06861551
13804,2023-01-20 10:50:32.099144,152167000,0,78.47322,0.4927752,78.49515,79.66795,90.92167,73.27571,77.55918,0.897983,0.03269057,0.0004119099,0.000197339,0.06871714
13839,2023-01-20 10:50:32.199179,152267008,0,78.70567,0.4934927,78.72761,79.90041,91.15443,73.50796,77.79159,0.897983,0.03269057,0.0004119099,0.000197339,0.06871714
13869,2023-01-20 10:50:32.299180,152367002,0,78.63191,0.4939608,78.65362,79.82625,91.07822,73.43472,77.7178,0.8980153,0.03274165,0.0004175723,0.0001959013,0.06862954
13902,2023-01-20 10:50:32.399195,152467011,0,78.32969,0.4946907,78.35139,79.52402,90.77559,73.13276,77.41564,0.8980153,0.03274165,0.0004175723,0.0001959013,0.06862954
13934,2023-01-20 10:50:32.499164,152567005,0,77.90284,0.4951639,77.92515,79.09718,90.34444,72.71003,76.98989,0.8979519,0.03260288,0.0003984426,0.0001993613,0.06884744
13967,2023-01-20 10:50:32.599133,152666999,0,77.53158,0.4958918,77.55388,78.7259,89.97251,72.33912,76.61872,0.8979519,0.03260288,0.0003984426,0.0001993613,0.06884744
14000,2023-01-20 10:50:32.699142,152766995,0,77.07771,0.496413,77.10022,78.27238,89.5204,71.88545,76.16503,0.8979323,0.03255549,0.000392264,0.000200578,0.06891939
14033,2023-01-20 10:50:32.799167,152867006,0,76.72391,0.497126,76.74641,77.91857,89.16604,71.53193,75.81131,0.8979323,0.03255549,0.000392264,0.000200578,0.06891939
14064,2023-01-20 10:50:32.899139,152966999,0,76.51595,0.4976859,76.53866,77.71049,88.9551,71.32608,75.60386,0.8979112,0.03250653,0.0003853856,0.0002017762,0.06899515
14097,2023-01-20 10:50:32.999121,153067002,0,76.31661,0.4984104,76.33931,77.51114,88.75541,71.12692,75.40457,0.8979112,0.03250653,0.0003853856,0.0002017762,0.06899515
14127,2023-01-20 10:50:33.099151,153167004,0,76.25495,0.4989128,76.27859,77.45004,88.6931,71.06875,75.34405,0.8977992,0.03228983,0.0003590669,0.0002075703,0.06934439
