LineNo,UTC_Approx,TimeUS,C,IVN0,IVN1,IVN2,IVN3,IVN4,IVE0,IVE1,IVE2,IVE3,IVE4
366,2023-01-20 10:49:56.258497,116247435,0,0,0,0,0,0,0,0,0,0,0
956,2023-01-20 10:49:56.349466,116347450,0,0,0,0,0,0,0,0,0,0,0
1114,2023-01-20 10:49:56.451414,116453964,0,0.02410955,0.0271733,0.0313795,0.03091535,0.02642229,-0.05839484,-0.06182204,-0.05996731,-0.05539384,-0.05442199
1333,2023-01-20 10:49:56.564043,116565584,0,0.02410955,0.0271733,0.0313795,0.03091535,0.02642229,-0.05839484,-0.06182204,-0.05996731,-0.05539384,-0.05442199
1551,2023-01-20 10:49:56.664880,116666343,0,0.04109056,0.04553874,0.05223219,0.05191988,0.04503435,0.06239697,0.05680453,0.05930732,0.06644627,0.06835531
1873,2023-01-20 10:49:56.764500,116766338,0,0.04109056,0.04553874,0.05223219,0.05191988,0.04503435,0.06239697,0.05680453,0.05930732,0.06644627,0.06835531
1918,2023-01-20 10:49:56.864372,116866343,0,-0.1087571,-0.1028822,-0.09423885,-0.09477253,-0.1037467,0.04589303,0.0387152,0.04208396,0.05134643,0.05369972
1966,2023-01-20 10:49:56.964368,116966340,0,-0.1087571,-0.1028822,-0.09423885,-0.09477253,-0.1037467,0.04589303,0.0387152,0.04208396,0.05134643,0.05369972
2016,2023-01-20 10:49:57.064380,117066339,0,-0.08639947,-0.07835376,-0.06620683,-0.06673819,-0.07921939,-0.05082216,-0.06098218,-0.05647295,-0.04352588,-0.04002932
2060,2023-01-20 10:49:57.164406,117166344,0,-0.08639947,-0.07835376,-0.06620683,-0.06673819,-0.07921939,-0.05082216,-0.06098218,-0.05647295,-0.04352588,-0.04002932
2112,2023-01-20 10:49:57.271510,117266340,0,-0.0817129,-0.07140655,-0.0576859,-0.05950177,-0.07434699,-0.1435886,-0.1546748,-0.1482999,-0.1332845,-0.1303644
2171,2023-01-20 10:49:57.382565,117366367,0,-0.0817129,-0.07140655,-0.0576859,-0.05950177,-0.07434699,-0.1435886,-0.1546748,-0.1482999,-0.1332845,-0.1303644
2227,2023-01-20 10:49:57.476613,117466341,0,-0.080607,-0.07010517,-0.05491319,-0.05602344,-0.07188024,0.006275397,-0.006304562,-0.0001929514,0.01612465,0.02013126
2286,2023-01-20 10:49:57.567525,117566339,0,-0.080607,-0.07010517,-0.05491319,-0.05602344,-0.07188024,0.006275397,-0.006304562,-0.0001929514,0.01612465,0.02013126
2340,2023-01-20 10:49:57.664269,117666343,0,-0.03442111,-0.02213866,-0.004530251,-0.005915977,-0.02435973,-0.00108403,-0.015637,-0.008441772,0.01050292,0.01506907
2399,2023-01-20 10:49:57.764245,117766341,0,-0.03442111,-0.02213866,-0.004530251,-0.005915977,-0.02435973,-0.00108403,-0.015637,-0.008441772,0.01050292,0.01506907
2443,2023-01-20 10:49:57.864220,117866343,0,0.001537807,0.01460237,0.03431432,0.03344963,0.01322784,0.04235049,0.02583432,0.03316851,0.05415217,0.05984947
2488,2023-01-20 10:49:57.964187,117966340,0,0.001537807,0.01460237,0.03431432,0.03344963,0.01322784,0.04235049,0.02583432,0.03316851,0.05415217,0.05984947
2527,2023-01-20 10:49:58.064248,118066359,0,0.007425535,0.02191867,0.04299617,0.0415564,0.01959994,-0.01619828,-0.03368462,-0.02529878,-0.002684806,0.002965786
2567,2023-01-20 10:49:58.164315,118166343,0,0.007425535,0.02191867,0.04299617,0.0415564,0.01959994,-0.01619828,-0.03368462,-0.02529878,-0.002684806,0.002965786
2609,2023-01-20 10:49:58.264328,118266346,0,-0.08125196,-0.06569249,-0.04349457,-0.04531765,-0.06862413,-0.01351139,-0.03182596,-0.02267812,0.001235679,0.006921565
2649,2023-01-20 10:49:58.364299,118366348,0,-0.08125196,-0.06569249,-0.04349457,-0.04531765,-0.06862413,-0.01351139,-0.03182596,-0.02267812,0.001235679,0.006921565
2688,2023-01-20 10:49:58.464282,118466343,0,0.07657586,0.09336315,0.1178075,0.1161614,0.09072199,0.1071765,0.08688034,0.09658566,0.1227961,0.1293774
2729,2023-01-20 10:49:58.564280,118566343,0,0.07657586,0.09336315,0.1178075,0.1161614,0.09072199,0.1071765,0.08688034,0.09658566,0.1227961,0.1293774
2769,2023-01-20 10:49:58.664277,118666358,0,-0.08836811,-0.07222477,-0.04926141,-0.05117479,-0.07534901,-0.09257085,-0.1114843,-0.1019908,-0.07721333,-0.0713686
2810,2023-01-20 10:49:58.764239,118766347,0,-0.08836811,-0.07222477,-0.04926141,-0.05117479,-0.07534901,-0.09257085,-0.1114843,-0.1019908,-0.07721333,-0.0713686
2854,2023-01-20 10:49:58.864246,118866362,0,0.06239751,0.0797457,0.1017807,0.09808441,0.07376979,-0.05667227,-0.07423919,-0.06316636,-0.03880968,-0.03476613
2893,2023-01-20 10:49:58.964232,118966347,0,0.06239751,0.0797457,0.1017807,0.09808441,0.07376979,-0.05667227,-0.07423919,-0.06316636,-0.03880968,-0.03476613
2932,2023-01-20 10:49:59.064260,119066357,0,-0.07663016,-0.05740069,-0.03433255,-0.03931921,-0.06542561,-0.07480557,-0.09283236,-0.08009192,-0.0542454,-0.0509762
2971,2023-01-20 10:49:59.164279,119166350,0,-0.07663016,-0.05740069,-0.03433255,-0.03931921,-0.06542561,-0.07480557,-0.09283236,-0.08009192,-0.0542454,-0.0509762
3012,2023-01-20 10:49:59.264288,119266350,0,-0.1056606,-0.09323506,-0.07206313,-0.07143006,-0.09214053,0.1636627,0.1454104,0.1516241,0.1736343,0.1810747
3051,2023-01-20 10:49:59.364301,119366364,0,-0.1056606,-0.09323506,-0.07206313,-0.07143006,-0.09214053,0.1636627,0.1454104,0.1516241,0.1736343,0.1810747
3091,2023-01-20 10:49:59.464283,119466350,0,-0.03214341,-0.02929738,-0.000623554,0.01426104,-0.005149335,-0.04145347,-0.07073531,-0.07704367,-0.05178193,-0.02975753
3132,2023-01-20 10:49:59.564294,119566365,0,-0.03214341,-0.02929738,-0.000623554,0.01426104,-0.005149335,-0.04145347,-0.07073531,-0.07704367,-0.05178193,-0.02975753
3171,2023-01-20 10:49:59.664291,119666375,0,-0.003224351,0.02165269,0.05199749,0.04593646,0.01186699,-0.01797699,-0.04187423,-0.02558853,0.008253228,0.01301663
3212,2023-01-20 10:49:59.764251,119766353,0,-0.003224351,0.02165269,0.05199749,0.04593646,0.01186699,-0.01797699,-0.04187423,-0.02558853,0.008253228,0.01301663
3251,2023-01-20 10:49:59.864240,119866352,0,0.03508461,0.06725048,0.09442294,0.07911872,0.04249914,-0.1713512,-0.1895429,-0.1645672,-0.1310521,-0.1351835
3290,2023-01-20 10:49:59.964237,119966354,0,0.03508461,0.06725048,0.09442294,0.07911872,0.04249914,-0.1713512,-0.1895429,-0.1645672,-0.1310521,-0.1351835
3329,2023-01-20 10:50:00.064254,120066356,0,-0.09611253,-0.08227196,-0.04891552,-0.04230753,-0.07132774,-0.03893368,-0.06954436,-0.06570768,-0.03292518,-0.01643822
3369,2023-01-20 10:50:00.164280,120166355,0,-0.09611253,-0.08227196,-0.04891552,-0.04230753,-0.07132774,-0.03893368,-0.06954436,-0.06570768,-0.03292518,-0.01643822
3410,2023-01-20 10:50:00.264293,120266363,0,0.06630978,0.09493074,0.1291712,0.1216245,0.08301254,-0.05752981,-0.08437309,-0.06529388,-0.02703639,-0.02221803
3449,2023-01-20 10:50:00.364270,120366348,0,0.06630978,0.09493074,0.1291712,0.1216245,0.08301254,-0.05752981,-0.08437309,-0.06529388,-0.02703639,-0.02221803
3489,2023-01-20 10:50:00.464283,120466359,0,0.06432374,0.08526622,0.1118081,0.1070793,0.07792775,-0.000536466,-0.02169867,-0.008155888,0.02110541,0.02575404
3529,2023-01-20 10:50:00.564280,120566349,0,0.06432374,0.08526622,0.1118081,0.1070793,0.07792775,-0.000536466,-0.02169867,-0.008155888,0.02110541,0.02575404
3570,2023-01-20 10:50:00.664271,120666346,0,0.02905883,0.0514359,0.08543872,0.08375321,0.0491145,-0.008251741,-0.03673821,-0.0240453,0.0120399,0.02165768
3611,2023-01-20 10:50:00.764268,120766355,0,0.02905883,0.0514359,0.08543872,0.08375321,0.0491145,-0.008251741,-0.03673821,-0.0240453,0.0120399,0.02165768
3652,2023-01-20 10:50:00.864250,120866353,0,0.06721925,0.08897566,0.1231049,0.1220688,0.0877154,-0.1278607,-0.1566431,-0.1446265,-0.108613,-0.09843277
3689,2023-01-20 10:50:00.964226,120966347,0,0.06721925,0.08897566,0.1231049,0.1220688,0.0877154,-0.1278607,-0.1566431,-0.1446265,-0.108613,-0.09843277
3721,2023-01-20 10:50:01.064251,121066375,0,-0.002067842,0.01485384,0.04688097,0.04923385,0.01915646,0.06096886,0.03290358,0.04058534,0.07326949,0.08558726
3752,2023-01-20 10:50:01.164248,121166365,0,-0.002067842,0.01485384,0.04688097,0.04923385,0.01915646,0.06096886,0.03290358,0.04058534,0.07326949,0.08558726
3786,2023-01-20 10:50:01.264210,121266360,0,-0.1026563,-0.06801331,-0.03783637,-0.0543034,-0.09405372,-0.02664398,-0.04713088,-0.02019592,0.01656184,0.01237008
3817,2023-01-20 10:50:01.364148,121366352,0,-0.1026563,-0.06801331,-0.03783637,-0.0543034,-0.09405372,-0.02664398,-0.04713088,-0.02019592,0.01656184,0.01237008
3849,2023-01-20 10:50:01.464163,121466353,0,-0.1603654,-0.1417455,-0.1083963,-0.1068532,-0.1387927,0.02407757,-0.004863193,0.004142391,0.03848922,0.05057739
3882,2023-01-20 10:50:01.564214,121566352,0,-0.1603654,-0.1417455,-0.1083963,-0.1068532,-0.1387927,0.02407757,-0.004863193,0.004142391,0.03848922,0.05057739
3915,2023-01-20 10:50:01.664229,121666348,0,0.07336239,0.1006302,0.1304794,0.1213765,0.08634333,0.04950658,0.02691073,0.04609462,0.08018319,0.08219442
3948,2023-01-20 10:50:01.764239,121766356,0,0.07336239,0.1006302,0.1304794,0.1213765,0.08634333,0.04950658,0.02691073,0.04609462,0.08018319,0.08219442
3981,2023-01-20 10:50:01.864187,121866351,0,0.0710437,0.1577228,0.2201439,0.1713284,0.07986875,-0.1085552,-0.1462145,-0.07481864,0.006020993,-0.01506913
4013,2023-01-20 10:50:01.964107,121966347,0,0.0710437,0.1577228,0.2201439,0.1713284,0.07986875,-0.1085552,-0.1462145,-0.07481864,0.006020993,-0.01506913
4045,2023-01-20 10:50:02.064130,122066355,0,-0.07908631,-0.1108175,-0.05265565,0.0137028,-0.00321833,0.003701482,-0.06668955,-0.1185073,-0.07869878,-0.004215159
4076,2023-01-20 10:50:02.164194,122166353,0,-0.07908631,-0.1108175,-0.05265565,0.0137028,-0.00321833,0.003701482,-0.06668955,-0.1185073,-0.07869878,-0.004215159
4110,2023-01-20 10:50:02.264211,122266347,0,0.001879964,-0.01748788,-0.002080176,0.02642112,0.02848384,-0.2631809,-0.2851928,-0.310496,-0.3033268,-0.2744672
4141,2023-01-20 10:50:02.364215,122366353,0,0.001879964,-0.01748788,-0.002080176,0.02642112,0.02848384,-0.2631809,-0.2851928,-0.310496,-0.3033268,-0.2744672
4173,2023-01-20 10:50:02.463957,122466351,0,-0.00384786,-0.03259429,-0.06874433,-0.06092802,-0.02127182,0.03916999,0.06751513,0.04824781,0.008298091,0.00344295
4206,2023-01-20 10:50:02.563582,122566374,0,-0.00384786,-0.03259429,-0.06874433,-0.06092802,-0.02127182,0.03916999,0.06751513,0.04824781,0.008298091,0.00344295
4240,2023-01-20 10:50:02.663437,122666351,0,0.01586245,0.1256001,0.1482327,0.05058644,-0.02874398,0.1021442,0.1130062,0.22266,0.2759337,0.2010567
4272,2023-01-20 10:50:02.763489,122766365,0,0.01586245,0.1256001,0.1482327,0.05058644,-0.02874398,0.1021442,0.1130062,0.22266,0.2759337,0.2010567
4306,2023-01-20 10:50:02.863453,122866332,0,-0.1003217,0.03691927,0.09178108,-0.01705013,-0.1327001,-0.3313704,-0.3441795,-0.2142291,-0.1245442,-0.1994308
4337,2023-01-20 10:50:02.963446,122966350,0,-0.1003217,0.03691927,0.09178108,-0.01705013,-0.1327001,-0.3313704,-0.3441795,-0.2142291,-0.1245442,-0.1994308
4370,2023-01-20 10:50:03.063464,123066378,0,0.5490291,0.6599665,0.7060739,0.621567,0.5276242,-0.3128812,-0.3267364,-0.2231577,-0.1500089,-0.2057396
4400,2023-01-20 10:50:03.163459,123166375,0,0.5490291,0.6599665,0.7060739,0.621567,0.5276242,-0.3128812,-0.3267364,-0.2231577,-0.1500089,-0.2057396
4435,2023-01-20 10:50:03.263447,123266360,0,0.02708931,0.1758588,0.1856644,0.0415251,-0.0465778,-0.4573914,-0.426394,-0.2693973,-0.2203041,-0.3340215
4465,2023-01-20 10:50:03.363447,123366355,0,0.02708931,0.1758588,0.1856644,0.0415251,-0.0465778,-0.4573914,-0.426394,-0.2693973,-0.2203041,-0.3340215
4498,2023-01-20 10:50:03.463467,123466364,0,0.2284546,0.3417363,0.278595,0.1395371,0.1139281,-0.02404608,0.0685573,0.2035371,0.1806037,0.04997274
4530,2023-01-20 10:50:03.563463,123566347,0,0.2284546,0.3417363,0.278595,0.1395371,0.1139281,-0.02404608,0.0685573,0.2035371,0.1806037,0.04997274
4564,2023-01-20 10:50:03.663474,123666355,0,0.1408547,0.271117,0.1269451,-0.06414646,-0.04983363,0.1038428,0.2795689,0.451713,0.3630867,0.1673508
4596,2023-01-20 10:50:03.763479,123766364,0,0.1408547,0.271117,0.1269451,-0.06414646,-0.04983363,0.1038428,0.2795689,0.451713,0.3630867,0.1673508
4630,2023-01-20 10:50:03.863665,123866353,0,-0.009725213,0.09530337,-0.1555949,-0.366674,-0.2707002,0.3072391,0.576484,0.7474338,0.5569199,0.3164406
4662,2023-01-20 10:50:03.963980,123966357,0,-0.009725213,0.09530337,-0.1555949,-0.366674,-0.2707002,0.3072391,0.576484,0.7474338,0.5569199,0.3164406
4695,2023-01-20 10:50:04.064140,124066362,0,-0.5324879,-0.4117643,-0.7021998,-0.9414151,-0.814865,0.2184258,0.5141423,0.71614,0.4823056,0.2184481
4725,2023-01-20 10:50:04.164192,124166346,0,-0.5324879,-0.4117643,-0.7021998,-0.9414151,-0.814865,0.2184258,0.5141423,0.71614,0.4823056,0.2184481
4760,2023-01-20 10:50:04.264233,124266366,0,-0.489692,-0.4043305,-0.65125,-0.855929,-0.7179307,0.08037776,0.3176011,0.489133,0.2697785,0.05102587
4790,2023-01-20 10:50:04.364227,124366364,0,-0.489692,-0.4043305,-0.65125,-0.855929,-0.7179307,0.08037776,0.3176011,0.489133,0.2697785,0.05102587
4823,2023-01-20 10:50:04.464185,124466350,0,-0.1800788,-0.1808921,-0.2991419,-0.3467599,-0.2585285,-0.1034374,-0.007653073,0.02563631,-0.09081107,-0.1533825
4856,2023-01-20 10:50:04.564144,124566349,0,-0.1800788,-0.1808921,-0.2991419,-0.3467599,-0.2585285,-0.1034374,-0.007653073,0.02563631,-0.09081107,-0.1533825
4890,2023-01-20 10:50:04.664165,124666357,0,-0.4652249,-0.4610141,-0.3730489,-0.3337166,-0.404949,0.2017144,0.1269849,0.09958423,0.1907543,0.2357178
4922,2023-01-20 10:50:04.764212,124766361,0,-0.4652249,-0.4610141,-0.3730489,-0.3337166,-0.404949,0.2017144,0.1269849,0.09958423,0.1907543,0.2357178
4956,2023-01-20 10:50:04.864187,124866351,0,-0.02709804,-0.03661263,0.1498404,0.2519461,0.1124535,0.3396721,0.179059,0.1021089,0.2867185,0.4029819
4986,2023-01-20 10:50:04.964149,124966361,0,-0.02709804,-0.03661263,0.1498404,0.2519461,0.1124535,0.3396721,0.179059,0.1021089,0.2867185,0.4029819
5019,2023-01-20 10:50:05.064161,125066359,0,-0.01824921,0.008243136,0.2471006,0.3309991,0.1338283,-0.1589014,-0.3529224,-0.401802,-0.158799,-0.04799072
5049,2023-01-20 10:50:05.164199,125166348,0,-0.01824921,0.008243136,0.2471006,0.3309991,0.1338283,-0.1589014,-0.3529224,-0.401802,-0.158799,-0.04799072
5084,2023-01-20 10:50:05.264224,125266359,0,0.02085744,0.06536332,0.3830298,0.4708641,0.206516,-0.03089514,-0.2797583,-0.3301054,-0.0007193461,0.1225862
5114,2023-01-20 10:50:05.364216,125366356,0,0.02085744,0.06536332,0.3830298,0.4708641,0.206516,-0.03089514,-0.2797583,-0.3301054,-0.0007193461,0.1225862
5147,2023-01-20 10:50:05.464215,125466348,0,-0.1370636,-0.1519902,0.1714358,0.3448118,0.08932315,-0.1076693,-0.3758265,-0.5123636,-0.1755142,0.01079962
5179,2023-01-20 10:50:05.564249,125566368,0,-0.1370636,-0.1519902,0.1714358,0.3448118,0.08932315,-0.1076693,-0.3758265,-0.5123636,-0.1755142,0.01079962
5214,2023-01-20 10:50:05.664237,125666350,0,0.07181086,0.07017356,0.4324457,0.5890564,0.3001125,0.2183601,-0.0680862,-0.1967661,0.1877367,0.3593044
5246,2023-01-20 10:50:05.764243,125766353,0,0.07181086,0.07017356,0.4324457,0.5890564,0.3001125,0.2183601,-0.0680862,-0.1967661,0.1877367,0.3593044
5280,2023-01-20 10:50:05.858431,125866372,0,0.1423234,0.1660207,0.4912429,0.6060812,0.3254029,-0.231402,-0.4777214,-0.5679294,-0.2077153,-0.08287543
5310,2023-01-20 10:50:05.949344,125966358,0,0.1423234,0.1660207,0.4912429,0.6060812,0.3254029,-0.231402,-0.4777214,-0.5679294,-0.2077153,-0.08287543
5343,2023-01-20 10:50:06.044301,126066355,0,-0.2519564,-0.1373237,0.2663967,0.2364794,-0.121551,0.1414494,-0.1162619,-0.09382382,0.3641386,0.3709236
5373,2023-01-20 10:50:06.144339,126166357,0,-0.2519564,-0.1373237,0.2663967,0.2364794,-0.121551,0.1414494,-0.1162619,-0.09382382,0.3641386,0.3709236
5408,2023-01-20 10:50:06.243805,126266351,0,-0.1762113,0.0296441,0.4709527,0.3035008,-0.1032641,0.1413037,-0.1082736,0.03566906,0.5411472,0.4400597
5440,2023-01-20 10:50:06.342574,126366355,0,-0.1762113,0.0296441,0.4709527,0.3035008,-0.1032641,0.1413037,-0.1082736,0.03566906,0.5411472,0.4400597
5473,2023-01-20 10:50:06.441850,126466354,0,-0.3657562,-0.031997,0.4919847,0.1213643,-0.3751509,-0.02260786,-0.2709852,0.03645425,0.6502406,0.3822765
5505,2023-01-20 10:50:06.541842,126566358,0,-0.3657562,-0.031997,0.4919847,0.1213643,-0.3751509,-0.02260786,-0.2709852,0.03645425,0.6502406,0.3822765
5539,2023-01-20 10:50:06.641816,126666366,0,0.4053387,0.7822784,1.345086,0.9054157,0.3641732,-0.3308793,-0.5797945,-0.2249664,0.4498823,0.1161628
5571,2023-01-20 10:50:06.741744,126766358,0,0.4053387,0.7822784,1.345086,0.9054157,0.3641732,-0.3308793,-0.5797945,-0.2249664,0.4498823,0.1161628
5605,2023-01-20 10:50:06.841663,126866352,0,0.2177925,0.6247437,1.41716,0.7935214,0.1851386,-0.05565318,-0.4021383,0.01126902,0.8840998,0.4393212
5635,2023-01-20 10:50:06.941588,126966367,0,0.2177925,0.6247437,1.41716,0.7935214,0.1851386,-0.05565318,-0.4021383,0.01126902,0.8840998,0.4393212
5668,2023-01-20 10:50:07.041525,127066363,0,-0.01987875,0.3799012,1.453257,0.6553104,-0.0485673,-0.06200257,-0.506057,-0.1219572,1.053609,0.4719867
5698,2023-01-20 10:50:07.141493,127166349,0,-0.01987875,0.3799012,1.453257,0.6553104,-0.0485673,-0.06200257,-0.506057,-0.1219572,1.053609,0.4719867
5733,2023-01-20 10:50:07.241509,127266350,0,-0.2675313,0.1382685,1.326144,0.2625586,-0.3682152,0.1863813,-0.2399964,0.206626,1.456464,0.694672
5763,2023-01-20 10:50:07.341577,127366355,0,-0.2675313,0.1382685,1.326144,0.2625586,-0.3682152,0.1863813,-0.2399964,0.206626,1.456464,0.694672
5796,2023-01-20 10:50:07.441568,127466345,0,-0.06164455,0.3418362,1.648687,0.4147954,-0.2263225,-0.1371546,-0.5441357,-0.1359792,1.313612,0.3756166
5828,2023-01-20 10:50:07.541490,127566353,0,-0.06164455,0.3418362,1.648687,0.4147954,-0.2263225,-0.1371546,-0.5441357,-0.1359792,1.313612,0.3756166
5862,2023-01-20 10:50:07.646106,127666349,0,0.1764609,0.5261252,1.953605,0.616582,0.01586092,-0.1761209,-0.5960605,-0.2864203,1.303074,0.3000267
5894,2023-01-20 10:50:07.757380,127766350,0,0.1764609,0.5261252,1.953605,0.616582,0.01586092,-0.1761209,-0.5960605,-0.2864203,1.303074,0.3000267
5928,2023-01-20 10:50:07.856015,127866352,0,-0.165959,0.1122025,1.597767,0.1452216,-0.3186219,-0.2103518,-0.615644,-0.3864632,1.207095,0.1865261
5959,2023-01-20 10:50:07.946816,127966367,0,-0.165959,0.1122025,1.597767,0.1452216,-0.3186219,-0.2103518,-0.615644,-0.3864632,1.207095,0.1865261
5993,2023-01-20 10:50:08.041395,128066351,0,0.1101689,0.3918079,2.036419,0.3905342,-0.04890108,-0.02121764,-0.4472634,-0.2393794,1.493446,0.3805377
6023,2023-01-20 10:50:08.141378,128166352,0,0.1101689,0.3918079,2.036419,0.3905342,-0.04890108,-0.02121764,-0.4472634,-0.2393794,1.493446,0.3805377
6058,2023-01-20 10:50:08.241381,128266349,0,0.02105129,0.2794336,2.030633,0.1456665,-0.1560133,0.03043097,-0.3738286,-0.1921259,1.575808,0.3874958
6088,2023-01-20 10:50:08.341429,128366354,0,0.02105129,0.2794336,2.030633,0.1456665,-0.1560133,0.03043097,-0.3738286,-0.1921259,1.575808,0.3874958
6121,2023-01-20 10:50:08.441443,128466347,0,-0.2568824,-0.02207649,1.775271,-0.2840337,-0.4467086,-0.07324719,-0.4427644,-0.2929258,1.457406,0.2377972
6153,2023-01-20 10:50:08.541451,128566361,0,-0.2568824,-0.02207649,1.775271,-0.2840337,-0.4467086,-0.07324719,-0.4427644,-0.2929258,1.457406,0.2377972
6187,2023-01-20 10:50:08.641444,128666362,0,-0.4654093,-0.257641,1.407953,-0.5869313,-0.6516904,-0.05287504,-0.3713757,-0.2455788,1.347466,0.2104441
6219,2023-01-20 10:50:08.741436,128766362,0,-0.4654093,-0.257641,1.407953,-0.5869313,-0.6516904,-0.05287504,-0.3713757,-0.2455788,1.347466,0.2104441
6253,2023-01-20 10:50:08.841466,128866356,0,-0.5066608,-0.2948753,1.284609,-0.7188545,-0.7045554,0.02671254,-0.2505382,-0.08755708,1.371089,0.2657462
6286,2023-01-20 10:50:08.941560,128966352,0,-0.5066608,-0.2948753,1.284609,-0.7188545,-0.7045554,0.02671254,-0.2505382,-0.08755708,1.371089,0.2657462
6319,2023-01-20 10:50:09.041633,129066352,0,-0.03439486,0.1812792,1.715324,-0.3034576,-0.2414924,0.0131222,-0.2360002,-0.08483076,1.344743,0.2392656
6349,2023-01-20 10:50:09.141672,129166352,0,-0.03439486,0.1812792,1.715324,-0.3034576,-0.2414924,0.0131222,-0.2360002,-0.08483076,1.344743,0.2392656
6384,2023-01-20 10:50:09.241616,129266349,0,0.06713772,0.2553458,1.799263,-0.1648462,-0.1181157,0.0260601,-0.2239912,-0.2215377,1.334848,0.2441525
6414,2023-01-20 10:50:09.341455,129366368,0,0.06713772,0.2553458,1.799263,-0.1648462,-0.1181157,0.0260601,-0.2239912,-0.2215377,1.334848,0.2441525
6447,2023-01-20 10:50:09.441128,129466653,0,0.002894163,0.1486087,1.534712,-0.2132437,-0.1526988,-0.09619522,-0.3174487,-0.4118087,1.047876,0.08561456
6479,2023-01-20 10:50:09.539901,129566645,0,0.002894163,0.1486087,1.534712,-0.2132437,-0.1526988,-0.09619522,-0.3174487,-0.4118087,1.047876,0.08561456
6513,2023-01-20 10:50:09.639155,129666642,0,-0.3237401,-0.216117,0.9427959,-0.5105013,-0.449325,-0.2366413,-0.4226607,-0.5533532,0.7031681,-0.09220946
6545,2023-01-20 10:50:09.739153,129766641,0,-0.3237401,-0.216117,0.9427959,-0.5105013,-0.449325,-0.2366413,-0.4226607,-0.5533532,0.7031681,-0.09220946
6579,2023-01-20 10:50:09.839145,129866643,0,-0.02932,0.04071939,0.8891696,-0.1560423,-0.1226227,0.1563007,0.012061,-0.1174005,0.8547008,0.2627758
6610,2023-01-20 10:50:09.939125,129966645,0,-0.02932,0.04071939,0.8891696,-0.1560423,-0.1226227,0.1563007,0.012061,-0.1174005,0.8547008,0.2627758
6643,2023-01-20 10:50:10.039118,130066641,0,-0.1325155,-0.08904767,0.5141908,-0.2387896,-0.2051785,-0.2056758,-0.310305,-0.4096438,0.298152,-0.1339105
6673,2023-01-20 10:50:10.139156,130166654,0,-0.1325155,-0.08904767,0.5141908,-0.2387896,-0.2051785,-0.2056758,-0.310305,-0.4096438,0.298152,-0.1339105
6708,2023-01-20 10:50:10.239059,130266643,0,0.01513052,0.04005253,0.4488246,-0.07403243,-0.04088533,0.005108595,-0.06931865,-0.1286838,0.3517315,0.0509187
6738,2023-01-20 10:50:10.338820,130366663,0,0.01513052,0.04005253,0.4488246,-0.07403243,-0.04088533,0.005108595,-0.06931865,-0.1286838,0.3517315,0.0509187
6771,2023-01-20 10:50:10.438985,130466996,0,-0.2647002,-0.2484809,0.01235223,-0.3733516,-0.3133926,-0.01349294,-0.05849588,-0.04484069,0.2053381,0.008449316
6803,2023-01-20 10:50:10.538961,130567000,0,-0.2647002,-0.2484809,0.01235223,-0.3733516,-0.3133926,-0.01349294,-0.05849588,-0.04484069,0.2053381,0.008449316
6837,2023-01-20 10:50:10.638947,130667009,0,-0.3553196,-0.3468083,-0.1886073,-0.4577806,-0.3953966,-0.1353773,-0.162462,-0.1221281,-0.001117468,-0.1272448
6869,2023-01-20 10:50:10.738916,130766996,0,-0.3553196,-0.3468083,-0.1886073,-0.4577806,-0.3953966,-0.1353773,-0.162462,-0.1221281,-0.001117468,-0.1272448
6903,2023-01-20 10:50:10.838875,130867000,0,0.08034587,0.0680784,0.01968133,-0.004687428,0.05712032,0.02209353,0.0271765,0.1045718,-0.009296536,0.001977205
6933,2023-01-20 10:50:10.938795,130967009,0,0.08034587,0.0680784,0.01968133,-0.004687428,0.05712032,0.02209353,0.0271765,0.1045718,-0.009296536,0.001977205
6966,2023-01-20 10:50:11.038765,131067000,0,0.1790468,0.1286802,-0.2790436,0.1148307,0.1823083,0.1346797,0.194584,0.3427559,-0.1839712,0.06379676
6996,2023-01-20 10:50:11.138863,131167011,0,0.1790468,0.1286802,-0.2790436,0.1148307,0.1823083,0.1346797,0.194584,0.3427559,-0.1839712,0.06379676
7032,2023-01-20 10:50:11.238911,131267009,0,-0.06185275,-0.1460912,-0.8297216,-0.07735127,-0.03289902,0.09042174,0.1865656,0.3501432,-0.4403084,-0.01517856
7062,2023-01-20 10:50:11.338917,131367022,0,-0.06185275,-0.1460912,-0.8297216,-0.07735127,-0.03289902,0.09042174,0.1865656,0.3501432,-0.4403084,-0.01517856
7095,2023-01-20 10:50:11.438890,131466996,0,0.0963735,-0.003565729,-0.8400302,0.1006223,0.1381212,-0.09323174,0.02557698,0.2264828,-0.7426034,-0.2193829
7126,2023-01-20 10:50:11.538900,131567001,0,0.0963735,-0.003565729,-0.8400302,0.1006223,0.1381212,-0.09323174,0.02557698,0.2264828,-0.7426034,-0.2193829
7160,2023-01-20 10:50:11.638903,131667000,0,0.1005568,-0.009488702,-0.9564598,0.1183102,0.1503134,0.05425,0.1910253,0.437086,-0.6830623,-0.08684862
7192,2023-01-20 10:50:11.738897,131766995,0,0.1005568,-0.009488702,-0.9564598,0.1183102,0.1503134,0.05425,0.1910253,0.437086,-0.6830623,-0.08684862
7226,2023-01-20 10:50:11.838873,131867000,0,0.01399106,-0.09956688,-1.078788,0.05980861,0.06906611,0.03525349,0.1743469,0.4305309,-0.7193886,-0.1068511
7256,2023-01-20 10:50:11.938798,131967000,0,0.01399106,-0.09956688,-1.078788,0.05980861,0.06906611,0.03525349,0.1743469,0.4305309,-0.7193886,-0.1068511
7289,2023-01-20 10:50:12.038782,132066999,0,0.1500356,0.04577535,-0.8769017,0.1995829,0.2012153,0.1444715,0.2762608,0.5508439,-0.5634885,0.01136202
7319,2023-01-20 10:50:12.138860,132166996,0,0.1500356,0.04577535,-0.8769017,0.1995829,0.2012153,0.1444715,0.2762608,0.5508439,-0.5634885,0.01136202
7354,2023-01-20 10:50:12.238930,132267017,0,0.09136951,-0.01850152,-0.9840124,0.1754448,0.1493457,0.1183084,0.2518833,0.5251412,-0.6095891,-0.01594421
7384,2023-01-20 10:50:12.338937,132367028,0,0.09136951,-0.01850152,-0.9840124,0.1754448,0.1493457,0.1183084,0.2518833,0.5251412,-0.6095891,-0.01594421
7417,2023-01-20 10:50:12.438899,132466995,0,-0.05182502,-0.1653129,-1.125148,0.08501595,0.01288065,0.07200149,0.1956424,0.4235103,-0.6260157,-0.05323818
7449,2023-01-20 10:50:12.538897,132567000,0,-0.05182502,-0.1653129,-1.125148,0.08501595,0.01288065,0.07200149,0.1956424,0.4235103,-0.6260157,-0.05323818
7483,2023-01-20 10:50:12.638896,132667000,0,0.108874,-0.004015028,-0.9370347,0.2855463,0.1768965,-0.1291882,-0.01666706,0.1761789,-0.7820174,-0.2438076
7515,2023-01-20 10:50:12.738907,132767000,0,0.108874,-0.004015028,-0.9370347,0.2855463,0.1768965,-0.1291882,-0.01666706,0.1761789,-0.7820174,-0.2438076
7549,2023-01-20 10:50:12.838894,132867010,0,-0.2296498,-0.3518927,-1.304553,0.01825879,-0.1509521,0.1018972,0.2046068,0.3299752,-0.5314952,-0.00446371
7579,2023-01-20 10:50:12.938811,132967000,0,-0.2296498,-0.3518927,-1.304553,0.01825879,-0.1509521,0.1018972,0.2046068,0.3299752,-0.5314952,-0.00446371
7613,2023-01-20 10:50:13.038794,133066999,0,0.01597528,-0.1014356,-1.013845,0.2797376,0.09372653,-0.08990293,0.002907917,0.1084185,-0.6711033,-0.186438
7643,2023-01-20 10:50:13.138870,133167001,0,0.01597528,-0.1014356,-1.013845,0.2797376,0.09372653,-0.08990293,0.002907917,0.1084185,-0.6711033,-0.186438
7678,2023-01-20 10:50:13.238913,133267000,0,-0.1627126,-0.2661312,-1.057002,0.09206806,-0.09304707,0.2472061,0.3225544,0.3989652,-0.2379591,0.1681237
7708,2023-01-20 10:50:13.338930,133367020,0,-0.1627126,-0.2661312,-1.057002,0.09206806,-0.09304707,0.2472061,0.3225544,0.3989652,-0.2379591,0.1681237
7741,2023-01-20 10:50:13.438904,133466996,0,0.08143172,-0.009932324,-0.7355758,0.3046342,0.1429515,-0.004538029,0.06651399,0.1644814,-0.4479752,-0.0779652
7773,2023-01-20 10:50:13.538909,133567000,0,0.08143172,-0.009932324,-0.7355758,0.3046342,0.1429515,-0.004538029,0.06651399,0.1644814,-0.4479752,-0.0779652
7807,2023-01-20 10:50:13.638903,133666995,0,-0.17756,-0.2595502,-0.8882658,0.04298842,-0.1209672,-0.02807523,0.02757607,0.07909553,-0.3929259,-0.08677509
7839,2023-01-20 10:50:13.738905,133766998,0,-0.17756,-0.2595502,-0.8882658,0.04298842,-0.1209672,-0.02807523,0.02757607,0.07909553,-0.3929259,-0.08677509
7873,2023-01-20 10:50:13.838880,133867006,0,-0.01595813,-0.08388084,-0.6180121,0.1660275,0.03059905,-0.3025218,-0.2540747,-0.1915883,-0.612565,-0.3530467
7905,2023-01-20 10:50:13.938794,133967003,0,-0.01595813,-0.08388084,-0.6180121,0.1660275,0.03059905,-0.3025218,-0.2540747,-0.1915883,-0.612565,-0.3530467
7938,2023-01-20 10:50:14.038783,134067014,0,0.008649766,-0.04461824,-0.4721368,0.1504832,0.04464012,-0.05333099,-0.01328088,0.05508994,-0.3044879,-0.09463845
7968,2023-01-20 10:50:14.138845,134167003,0,0.008649766,-0.04461824,-0.4721368,0.1504832,0.04464012,-0.05333099,-0.01328088,0.05508994,-0.3044879,-0.09463845
8003,2023-01-20 10:50:14.238890,134267000,0,-0.04905767,-0.09249066,-0.4442544,0.0667114,-0.01988448,0.2605636,0.2938192,0.3561915,0.05354356,0.2263847
8033,2023-01-20 10:50:14.338900,134367002,0,-0.04905767,-0.09249066,-0.4442544,0.0667114,-0.01988448,0.2605636,0.2938192,0.3561915,0.05354356,0.2263847
8066,2023-01-20 10:50:14.438902,134467000,0,-0.08828021,-0.119603,-0.3874004,-0.01288928,-0.06836744,-0.02084409,0.007292047,0.08016051,-0.1866865,-0.04929165
8099,2023-01-20 10:50:14.538904,134567002,0,-0.08828021,-0.119603,-0.3874004,-0.01288928,-0.06836744,-0.02084409,0.007292047,0.08016051,-0.1866865,-0.04929165
8133,2023-01-20 10:50:14.638898,134666996,0,0.2359769,0.2112182,-0.006285995,0.2923215,0.2511745,-0.2624801,-0.2385289,-0.1684298,-0.4003497,-0.2865559
8165,2023-01-20 10:50:14.738902,134767000,0,0.2359769,0.2112182,-0.006285995,0.2923215,0.2511745,-0.2624801,-0.2385289,-0.1684298,-0.4003497,-0.2865559
8199,2023-01-20 10:50:14.838871,134867002,0,-0.2175325,-0.2380594,-0.429322,-0.176533,-0.2054857,0.2238829,0.2471138,0.3257556,0.09563641,0.2010433
8229,2023-01-20 10:50:14.938800,134967015,0,-0.2175325,-0.2380594,-0.429322,-0.176533,-0.2054857,0.2238829,0.2471138,0.3257556,0.09563641,0.2010433
8262,2023-01-20 10:50:15.038758,135066999,0,0.006551169,-0.01324309,-0.1988742,0.04639291,0.01838038,-0.1600231,-0.1374758,-0.062214,-0.2841467,-0.1820731
8292,2023-01-20 10:50:15.138827,135167003,0,0.006551169,-0.01324309,-0.1988742,0.04639291,0.01838038,-0.1600231,-0.1374758,-0.062214,-0.2841467,-0.1820731
8327,2023-01-20 10:50:15.238872,135267000,0,-0.04542039,-0.05989491,-0.1986426,-0.01835111,-0.03720595,-0.06184778,-0.04438641,0.01871255,-0.1565205,-0.07892943
8357,2023-01-20 10:50:15.338903,135367011,0,-0.04542039,-0.05989491,-0.1986426,-0.01835111,-0.03720595,-0.06184778,-0.04438641,0.01871255,-0.1565205,-0.07892943
8390,2023-01-20 10:50:15.438903,135467000,0,-0.1817241,-0.1915174,-0.3200512,-0.1809823,-0.1776599,0.05834983,0.08053076,0.1841294,-0.04802417,0.03797233
8422,2023-01-20 10:50:15.538903,135567003,0,-0.1817241,-0.1915174,-0.3200512,-0.1809823,-0.1776599,0.05834983,0.08053076,0.1841294,-0.04802417,0.03797233
8456,2023-01-20 10:50:15.638904,135667005,0,-0.06007542,-0.06725876,-0.1836068,-0.07071595,-0.05808801,-0.08259824,-0.05973843,0.05542769,-0.1874737,-0.1031754
8488,2023-01-20 10:50:15.738904,135767003,0,-0.06007542,-0.06725876,-0.1836068,-0.07071595,-0.05808801,-0.08259824,-0.05973843,0.05542769,-0.1874737,-0.1031754
8522,2023-01-20 10:50:15.838910,135867019,0,0.04618178,0.04180628,-0.03506954,0.03586021,0.0467455,-0.1877925,-0.1719736,-0.08793205,-0.259294,-0.2021116
8552,2023-01-20 10:50:15.938862,135967002,0,0.04618178,0.04180628,-0.03506954,0.03586021,0.0467455,-0.1877925,-0.1719736,-0.08793205,-0.259294,-0.2021116
8585,2023-01-20 10:50:16.038868,136067015,0,0.2496003,0.2449124,0.1779429,0.2465679,0.2509673,-0.199516,-0.1871893,-0.1249631,-0.2573048,-0.2108753
8615,2023-01-20 10:50:16.138900,136167016,0,0.2496003,0.2449124,0.1779429,0.2465679,0.2509673,-0.199516,-0.1871893,-0.1249631,-0.2573048,-0.2108753
8650,2023-01-20 10:50:16.238878,136266996,0,0.495971,0.491911,0.438761,0.4955921,0.4972805,-0.1934798,-0.1842229,-0.1381336,-0.2377331,-0.2021447
8680,2023-01-20 10:50:16.338825,136366998,0,0.495971,0.491911,0.438761,0.4955921,0.4972805,-0.1934798,-0.1842229,-0.1381336,-0.2377331,-0.2021447
8713,2023-01-20 10:50:16.438816,136466999,0,-0.1372807,-0.1344389,-0.1584298,-0.1706614,-0.1419612,-0.1451379,-0.1329674,-0.04805684,-0.1900486,-0.1554401
8745,2023-01-20 10:50:16.538872,136566998,0,-0.1372807,-0.1344389,-0.1584298,-0.1706614,-0.1419612,-0.1451379,-0.1329674,-0.04805684,-0.1900486,-0.1554401
8779,2023-01-20 10:50:16.638904,136666995,0,0.1978837,0.2068507,0.197834,0.1299821,0.1875513,0.07531784,0.09331547,0.2308659,0.01653611,0.06086505
8811,2023-01-20 10:50:16.738914,136767007,0,0.1978837,0.2068507,0.197834,0.1299821,0.1875513,0.07531784,0.09331547,0.2308659,0.01653611,0.06086505
8845,2023-01-20 10:50:16.838906,136867010,0,0.01262334,0.02881217,0.05852408,-0.08579573,-0.003737923,-0.113353,-0.09476642,0.06984939,-0.1626941,-0.1274828
8875,2023-01-20 10:50:16.938875,136967003,0,0.01262334,0.02881217,0.05852408,-0.08579573,-0.003737923,-0.113353,-0.09476642,0.06984939,-0.1626941,-0.1274828
8908,2023-01-20 10:50:17.038871,137067002,0,-0.01221994,0.009060651,0.03844569,-0.1455492,-0.03368462,-0.04192827,-0.01468661,0.2150742,-0.1184436,-0.06268425
8938,2023-01-20 10:50:17.138909,137167011,0,-0.01221994,0.009060651,0.03844569,-0.1455492,-0.03368462,-0.04192827,-0.01468661,0.2150742,-0.1184436,-0.06268425
8973,2023-01-20 10:50:17.238929,137267017,0,-0.08798531,-0.06410957,-0.01547433,-0.2296523,-0.1114051,-0.1513486,-0.1254399,0.1051589,-0.2182347,-0.1706845
9003,2023-01-20 10:50:17.338923,137367020,0,-0.08798531,-0.06410957,-0.01547433,-0.2296523,-0.1114051,-0.1513486,-0.1254399,0.1051589,-0.2182347,-0.1706845
9036,2023-01-20 10:50:17.438910,137467008,0,-0.14889,-0.1278982,-0.07388444,-0.2681082,-0.1691392,-0.002894461,0.01658528,0.2008924,-0.04823279,-0.01715376
9068,2023-01-20 10:50:17.538911,137566998,0,-0.14889,-0.1278982,-0.07388444,-0.2681082,-0.1691392,-0.002894461,0.01658528,0.2008924,-0.04823279,-0.01715376
9102,2023-01-20 10:50:17.638915,137666995,0,-0.03941829,-0.02206948,0.01117241,-0.1436132,-0.05655446,-0.05370053,-0.03414381,0.137935,-0.1054221,-0.06838436
9134,2023-01-20 10:50:17.738930,137767012,0,-0.03941829,-0.02206948,0.01117241,-0.1436132,-0.05655446,-0.05370053,-0.03414381,0.137935,-0.1054221,-0.06838436
9168,2023-01-20 10:50:17.835450,137866999,0,-0.008430541,-0.0009187497,-0.01105187,-0.06598398,-0.0168791,-0.07516345,-0.05929027,0.05866651,-0.127908,-0.0878014
9198,2023-01-20 10:50:17.926548,137967004,0,-0.008430541,-0.0009187497,-0.01105187,-0.06598398,-0.0168791,-0.07516345,-0.05929027,0.05866651,-0.127908,-0.0878014
9231,2023-01-20 10:50:18.021482,138067027,0,-0.1802505,-0.1728843,-0.1567378,-0.2239544,-0.1876639,-0.10166,-0.09389454,-0.02242877,-0.1213724,-0.1075373
9262,2023-01-20 10:50:18.132253,138167002,0,-0.1802505,-0.1728843,-0.1567378,-0.2239544,-0.1876639,-0.10166,-0.09389454,-0.02242877,-0.1213724,-0.1075373
9297,2023-01-20 10:50:18.238871,138267001,0,-0.1087312,-0.1038085,-0.07220115,-0.128045,-0.1131192,-0.07902999,-0.08003733,-0.06650775,-0.06672411,-0.07783924
9327,2023-01-20 10:50:18.338922,138367012,0,-0.1087312,-0.1038085,-0.07220115,-0.128045,-0.1131192,-0.07902999,-0.08003733,-0.06650775,-0.06672411,-0.07783924
9360,2023-01-20 10:50:18.435470,138466999,0,-0.05773973,-0.05726829,-0.05959216,-0.06281616,-0.05862609,-0.1431287,-0.141546,-0.1287178,-0.1487571,-0.1445454
9392,2023-01-20 10:50:18.526576,138567002,0,-0.05773973,-0.05726829,-0.05959216,-0.06281616,-0.05862609,-0.1431287,-0.141546,-0.1287178,-0.1487571,-0.1445454
9426,2023-01-20 10:50:18.619396,138667000,0,-0.08760977,-0.08106513,-0.03918548,-0.1128927,-0.09322625,-0.1358455,-0.1371998,-0.1208535,-0.119491,-0.1341505
9458,2023-01-20 10:50:18.719379,138767017,0,-0.08760977,-0.08106513,-0.03918548,-0.1128927,-0.09322625,-0.1358455,-0.1371998,-0.1208535,-0.119491,-0.1341505
9492,2023-01-20 10:50:18.819326,138866998,0,-0.107396,-0.09067399,-0.002907097,-0.1802794,-0.121864,-0.127943,-0.1257831,-0.0558359,-0.1093904,-0.1280721
9524,2023-01-20 10:50:18.919290,138966998,0,-0.107396,-0.09067399,-0.002907097,-0.1802794,-0.121864,-0.127943,-0.1257831,-0.0558359,-0.1093904,-0.1280721
9557,2023-01-20 10:50:19.019273,139067003,0,-0.09653953,-0.08123735,0.006677441,-0.1595323,-0.1095272,-0.07774527,-0.07804646,-0.02694963,-0.05141057,-0.07596266
9587,2023-01-20 10:50:19.119303,139166998,0,-0.09653953,-0.08123735,0.006677441,-0.1595323,-0.1095272,-0.07774527,-0.07804646,-0.02694963,-0.05141057,-0.07596266
9622,2023-01-20 10:50:19.219324,139266995,0,-0.1721213,-0.1615554,-0.09600104,-0.2133616,-0.1809785,-0.03635174,-0.03799892,-0.01052323,-0.01224088,-0.03394198
9652,2023-01-20 10:50:19.319306,139367002,0,-0.1721213,-0.1615554,-0.09600104,-0.2133616,-0.1809785,-0.03635174,-0.03799892,-0.01052323,-0.01224088,-0.03394198
9685,2023-01-20 10:50:19.419272,139466999,0,-0.004964573,0.003568893,0.06662036,-0.03339688,-0.01181237,-0.1040323,-0.1083856,-0.1031086,-0.07213008,-0.09957622
9717,2023-01-20 10:50:19.519240,139567020,0,-0.004964573,0.003568893,0.06662036,-0.03339688,-0.01181237,-0.1040323,-0.1083856,-0.1031086,-0.07213008,-0.09957622
9751,2023-01-20 10:50:19.619174,139666998,0,-0.2219158,-0.2143872,-0.1399084,-0.2378506,-0.2273644,-0.3006031,-0.3100863,-0.3371474,-0.2492702,-0.2919761
9783,2023-01-20 10:50:19.719173,139766999,0,-0.2219158,-0.2143872,-0.1399084,-0.2378506,-0.2273644,-0.3006031,-0.3100863,-0.3371474,-0.2492702,-0.2919761
9817,2023-01-20 10:50:19.819166,139866997,0,-0.08863782,-0.07637678,0.02638987,-0.1233273,-0.09798454,-0.1926055,-0.2025346,-0.2163305,-0.131703,-0.1830953
9847,2023-01-20 10:50:19.919157,139967005,0,-0.08863782,-0.07637678,0.02638987,-0.1233273,-0.09798454,-0.1926055,-0.2025346,-0.2163305,-0.131703,-0.1830953
9880,2023-01-20 10:50:20.019142,140067002,0,0.01725665,0.03035598,0.162232,-0.009020887,0.007993095,-0.1198596,-0.1370792,-0.1891413,-0.02764417,-0.1041842
9910,2023-01-20 10:50:20.119149,140166999,0,0.01725665,0.03035598,0.162232,-0.009020887,0.007993095,-0.1198596,-0.1370792,-0.1891413,-0.02764417,-0.1041842
9945,2023-01-20 10:50:20.219164,140266994,0,-0.09728456,-0.08052896,0.07053343,-0.1393887,-0.109648,-0.3204833,-0.337238,-0.3745325,-0.2242191,-0.3048009
9978,2023-01-20 10:50:20.319240,140367006,0,-0.09728456,-0.08052896,0.07053343,-0.1393887,-0.109648,-0.3204833,-0.337238,-0.3745325,-0.2242191,-0.3048009
10011,2023-01-20 10:50:20.419280,140466995,0,-0.1152386,-0.08606356,0.1345408,-0.2088963,-0.1380154,-0.2132978,-0.2297996,-0.2240058,-0.09778404,-0.1964957
10043,2023-01-20 10:50:20.519280,140566999,0,-0.1152386,-0.08606356,0.1345408,-0.2088963,-0.1380154,-0.2132978,-0.2297996,-0.2240058,-0.09778404,-0.1964957
10077,2023-01-20 10:50:20.619284,140667000,0,-0.09287293,-0.05275401,0.2381775,-0.2275826,-0.1245399,-0.1388931,-0.1578816,-0.1294048,0.004720077,-0.1188507
10109,2023-01-20 10:50:20.719325,140767003,0,-0.09287293,-0.05275401,0.2381775,-0.2275826,-0.1245399,-0.1388931,-0.1578816,-0.1294048,0.004720077,-0.1188507
10143,2023-01-20 10:50:20.819329,140866999,0,0.1426368,0.1848269,0.4905338,0.0007301867,0.1093351,-0.1073217,-0.1271827,-0.09690943,0.04319454,-0.08633627
10173,2023-01-20 10:50:20.919219,140967008,0,0.1426368,0.1848269,0.4905338,0.0007301867,0.1093351,-0.1073217,-0.1271827,-0.09690943,0.04319454,-0.08633627
10206,2023-01-20 10:50:21.019128,141067002,0,-0.2503769,-0.2182064,0.03165077,-0.3508109,-0.2752714,-0.1747323,-0.1947618,-0.1993307,-0.04010303,-0.1546778
10236,2023-01-20 10:50:21.119177,141166996,0,-0.2503769,-0.2182064,0.03165077,-0.3508109,-0.2752714,-0.1747323,-0.1947618,-0.1993307,-0.04010303,-0.1546778
10271,2023-01-20 10:50:21.219234,141267013,0,-0.1762045,-0.1563114,0.01172832,-0.2318079,-0.1911891,-0.2078965,-0.2243416,-0.2499527,-0.1079306,-0.1921249
10301,2023-01-20 10:50:21.319208,141367011,0,-0.1762045,-0.1563114,0.01172832,-0.2318079,-0.1911891,-0.2078965,-0.2243416,-0.2499527,-0.1079306,-0.1921249
10334,2023-01-20 10:50:21.419179,141466995,0,-0.1818438,-0.1737955,-0.08737907,-0.1955065,-0.1873558,-0.235033,-0.2471882,-0.2883319,-0.1719762,-0.2240837
10366,2023-01-20 10:50:21.519221,141567001,0,-0.1818438,-0.1737955,-0.08737907,-0.1955065,-0.1873558,-0.235033,-0.2471882,-0.2883319,-0.1719762,-0.2240837
10400,2023-01-20 10:50:21.619237,141667000,0,-0.06041041,-0.07322726,-0.1197187,0.004969452,-0.04890217,-0.2693007,-0.2771313,-0.3639104,-0.258007,-0.2641616
10432,2023-01-20 10:50:21.719181,141767005,0,-0.06041041,-0.07322726,-0.1197187,0.004969452,-0.04890217,-0.2693007,-0.2771313,-0.3639104,-0.258007,-0.2641616
10466,2023-01-20 10:50:21.819121,141866998,0,-0.1355688,-0.1600415,-0.2786189,-0.02494207,-0.1144786,-0.1491991,-0.1553013,-0.2715164,-0.1639286,-0.1467299
10496,2023-01-20 10:50:21.919116,141967006,0,-0.1355688,-0.1600415,-0.2786189,-0.02494207,-0.1144786,-0.1491991,-0.1553013,-0.2715164,-0.1639286,-0.1467299
10529,2023-01-20 10:50:22.019107,142066998,0,-0.3680233,-0.3998188,-0.5768634,-0.2351902,-0.3413173,-0.2858628,-0.2870143,-0.3999139,-0.332681,-0.2882805
10559,2023-01-20 10:50:22.119158,142166999,0,-0.3680233,-0.3998188,-0.5768634,-0.2351902,-0.3413173,-0.2858628,-0.2870143,-0.3999139,-0.332681,-0.2882805
10594,2023-01-20 10:50:22.219192,142266999,0,-0.1830484,-0.2249315,-0.468579,-0.01261824,-0.148146,-0.1065773,-0.1052668,-0.2381967,-0.1793621,-0.1120865
10624,2023-01-20 10:50:22.319180,142367022,0,-0.1830484,-0.2249315,-0.468579,-0.01261824,-0.148146,-0.1065773,-0.1052668,-0.2381967,-0.1793621,-0.1120865
10657,2023-01-20 10:50:22.419134,142466995,0,-0.1942951,-0.2406119,-0.5043754,-0.002515972,-0.1554785,-0.1049408,-0.1055211,-0.2639952,-0.1765322,-0.1093087
10689,2023-01-20 10:50:22.519187,142567002,0,-0.1942951,-0.2406119,-0.5043754,-0.002515972,-0.1554785,-0.1049408,-0.1055211,-0.2639952,-0.1765322,-0.1093087
10723,2023-01-20 10:50:22.619219,142666999,0,0.1405467,0.08764628,-0.1934434,0.3698923,0.1855594,-0.2852004,-0.2923827,-0.5106575,-0.3393737,-0.2847142
10755,2023-01-20 10:50:22.719202,142766999,0,0.1405467,0.08764628,-0.1934434,0.3698923,0.1855594,-0.2852004,-0.2923827,-0.5106575,-0.3393737,-0.2847142
10789,2023-01-20 10:50:22.819185,142867002,0,-0.131584,-0.2056278,-0.6218921,0.1814469,-0.06920421,-0.2948786,-0.2991523,-0.5694565,-0.3927768,-0.2988688
10819,2023-01-20 10:50:22.919154,142967003,0,-0.131584,-0.2056278,-0.6218921,0.1814469,-0.06920421,-0.2948786,-0.2991523,-0.5694565,-0.3927768,-0.2988688
10852,2023-01-20 10:50:23.019150,143067014,0,-0.09678109,-0.1888412,-0.7357657,0.2837414,-0.01989591,-0.3852348,-0.3841462,-0.6804328,-0.5293388,-0.3952532
10882,2023-01-20 10:50:23.119206,143167019,0,-0.09678109,-0.1888412,-0.7357657,0.2837414,-0.01989591,-0.3852348,-0.3841462,-0.6804328,-0.5293388,-0.3952532
10918,2023-01-20 10:50:23.219222,143266999,0,-0.1916086,-0.2965246,-0.961682,0.2328345,-0.1048484,-0.2497159,-0.2401363,-0.5210747,-0.4413785,-0.2675462
10948,2023-01-20 10:50:23.319196,143367002,0,-0.1916086,-0.2965246,-0.961682,0.2328345,-0.1048484,-0.2497159,-0.2401363,-0.5210747,-0.4413785,-0.2675462
10981,2023-01-20 10:50:23.419168,143466995,0,-0.4028828,-0.5193043,-1.288991,0.0655126,-0.3070195,-0.3775461,-0.3627121,-0.640107,-0.5989486,-0.4002168
11013,2023-01-20 10:50:23.519189,143567002,0,-0.4028828,-0.5193043,-1.288991,0.0655126,-0.3070195,-0.3775461,-0.3627121,-0.640107,-0.5989486,-0.4002168
11047,2023-01-20 10:50:23.619204,143667008,0,0.05679148,-0.0721381,-0.9779665,0.5676765,0.1622311,-0.482692,-0.4576285,-0.6992455,-0.751308,-0.514158
11079,2023-01-20 10:50:23.719177,143766995,0,0.05679148,-0.0721381,-0.9779665,0.5676765,0.1622311,-0.482692,-0.4576285,-0.6992455,-0.751308,-0.514158
11113,2023-01-20 10:50:23.819170,143867002,0,0.1852691,0.04837158,-0.9269612,0.7454385,0.2975615,-0.4672923,-0.4463401,-0.7098348,-0.7139404,-0.4947245
11146,2023-01-20 10:50:23.919178,143967027,0,0.1852691,0.04837158,-0.9269612,0.7454385,0.2975615,-0.4672923,-0.4463401,-0.7098348,-0.7139404,-0.4947245
11179,2023-01-20 10:50:24.019161,144067011,0,-0.33714,-0.4687621,-1.42375,0.2224544,-0.2288923,-0.6892185,-0.6753478,-0.9310956,-0.8823545,-0.7088661
11209,2023-01-20 10:50:24.119210,144166999,0,-0.33714,-0.4687621,-1.42375,0.2224544,-0.2288923,-0.6892185,-0.6753478,-0.9310956,-0.8823545,-0.7088661
11244,2023-01-20 10:50:24.219257,144267008,0,0.2000509,0.084351,-0.8233886,0.6961878,0.294823,-0.2481134,-0.2305176,-0.3806899,-0.4159541,-0.2680984
11274,2023-01-20 10:50:24.319185,144366998,0,0.2000509,0.084351,-0.8233886,0.6961878,0.294823,-0.2481134,-0.2305176,-0.3806899,-0.4159541,-0.2680984
11307,2023-01-20 10:50:24.419144,144466995,0,-0.299368,-0.4038331,-1.242378,0.1599791,-0.2137793,-0.7965531,-0.782625,-0.9009619,-0.9275215,-0.8119278
11340,2023-01-20 10:50:24.519226,144567011,0,-0.299368,-0.4038331,-1.242378,0.1599791,-0.2137793,-0.7965531,-0.782625,-0.9009619,-0.9275215,-0.8119278
11375,2023-01-20 10:50:24.619247,144666995,0,-0.9504448,-1.035269,-1.766361,-0.5747021,-0.881245,-0.5507426,-0.5335875,-0.5545049,-0.6648173,-0.5667477
11407,2023-01-20 10:50:24.719166,144766995,0,-0.9504448,-1.035269,-1.766361,-0.5747021,-0.881245,-0.5507426,-0.5335875,-0.5545049,-0.6648173,-0.5667477
11441,2023-01-20 10:50:24.819116,144867011,0,-0.05223048,-0.1225204,-0.7764949,0.2542648,0.004837871,-0.7975764,-0.7761631,-0.7242012,-0.909461,-0.8159871
11472,2023-01-20 10:50:24.919108,144967002,0,-0.05223048,-0.1225204,-0.7764949,0.2542648,0.004837871,-0.7975764,-0.7761631,-0.7242012,-0.909461,-0.8159871
11505,2023-01-20 10:50:25.019109,145066998,0,-0.5729626,-0.6312699,-1.191084,-0.3136463,-0.5256478,-0.7865486,-0.7688289,-0.7055602,-0.8703437,-0.8010826
11535,2023-01-20 10:50:25.119153,145167012,0,-0.5729626,-0.6312699,-1.191084,-0.3136463,-0.5256478,-0.7865486,-0.7688289,-0.7055602,-0.8703437,-0.8010826
11571,2023-01-20 10:50:25.219168,145267005,0,-0.3209693,-0.3600445,-0.7644775,-0.1452541,-0.2893541,-0.86659,-0.8508453,-0.7592735,-0.9276466,-0.8786902
11601,2023-01-20 10:50:25.319158,145367001,0,-0.3209693,-0.3600445,-0.7644775,-0.1452541,-0.2893541,-0.86659,-0.8508453,-0.7592735,-0.9276466,-0.8786902
11634,2023-01-20 10:50:25.419162,145467007,0,1.083606,1.071697,0.9192316,1.145102,1.093318,-0.5462108,-0.5395155,-0.4708748,-0.5545006,-0.5501828
11666,2023-01-20 10:50:25.519176,145567008,0,1.083606,1.071697,0.9192316,1.145102,1.093318,-0.5462108,-0.5395155,-0.4708748,-0.5545006,-0.5501828
11700,2023-01-20 10:50:25.619174,145666997,0,-0.4999614,-0.4799453,-0.3271114,-0.5744123,-0.5159299,-0.9621291,-0.9663005,-0.933131,-0.9106512,-0.9566057
11732,2023-01-20 10:50:25.719171,145767007,0,-0.4999614,-0.4799453,-0.3271114,-0.5744123,-0.5159299,-0.9621291,-0.9663005,-0.933131,-0.9106512,-0.9566057
11765,2023-01-20 10:50:25.819156,145867007,0,-0.3481887,-0.2968079,0.15083,-0.5582138,-0.3894638,-1.084792,-1.095778,-1.066277,-0.9900301,-1.073013
11797,2023-01-20 10:50:25.919123,145966998,0,-0.3481887,-0.2968079,0.15083,-0.5582138,-0.3894638,-1.084792,-1.095778,-1.066277,-0.9900301,-1.073013
11830,2023-01-20 10:50:26.019112,146066999,0,-0.1497183,-0.06896633,0.6610079,-0.4861329,-0.2145922,-1.090025,-1.108768,-1.095853,-0.9493227,-1.071344
11860,2023-01-20 10:50:26.119153,146167002,0,-0.1497183,-0.06896633,0.6610079,-0.4861329,-0.2145922,-1.090025,-1.108768,-1.095853,-0.9493227,-1.071344
11895,2023-01-20 10:50:26.219173,146266999,0,-0.6525832,-0.5499718,0.3992997,-1.082344,-0.7350386,-1.052361,-1.079839,-1.112451,-0.8665706,-1.026299
11925,2023-01-20 10:50:26.319138,146367000,0,-0.6525832,-0.5499718,0.3992997,-1.082344,-0.7350386,-1.052361,-1.079839,-1.112451,-0.8665706,-1.026299
11958,2023-01-20 10:50:26.419113,146466998,0,-0.644736,-0.5295552,0.5436198,-1.130119,-0.7369764,-1.237855,-1.267217,-1.307422,-1.042867,-1.210401
11990,2023-01-20 10:50:26.519163,146567018,0,-0.644736,-0.5295552,0.5436198,-1.130119,-0.7369764,-1.237855,-1.267217,-1.307422,-1.042867,-1.210401
12024,2023-01-20 10:50:26.619179,146667011,0,0.04811943,0.1642217,1.253539,-0.443245,-0.04458717,-0.7751652,-0.8046594,-0.8623037,-0.5848672,-0.7481003
12056,2023-01-20 10:50:26.719165,146767002,0,0.04811943,0.1642217,1.253539,-0.443245,-0.04458717,-0.7751652,-0.8046594,-0.8623037,-0.5848672,-0.7481003
12089,2023-01-20 10:50:26.819160,146867006,0,-0.3007337,-0.1953015,0.8011048,-0.7485213,-0.3851329,-1.153985,-1.180727,-1.256437,-0.9872072,-1.129792
12120,2023-01-20 10:50:26.919128,146966998,0,-0.3007337,-0.1953015,0.8011048,-0.7485213,-0.3851329,-1.153985,-1.180727,-1.256437,-0.9872072,-1.129792
12153,2023-01-20 10:50:27.019115,147067003,0,-0.9813248,-0.8873366,0.005171478,-1.382269,-1.056603,-1.002351,-1.025052,-1.098538,-0.8627181,-0.9819866
12183,2023-01-20 10:50:27.119123,147167002,0,-0.9813248,-0.8873366,0.005171478,-1.382269,-1.056603,-1.002351,-1.025052,-1.098538,-0.8627181,-0.9819866
12218,2023-01-20 10:50:27.219127,147266995,0,-0.978734,-0.8878695,-0.02846551,-1.36873,-1.051388,-1.124122,-1.14282,-1.191367,-1.005247,-1.107223
12248,2023-01-20 10:50:27.319146,147367000,0,-0.978734,-0.8878695,-0.02846551,-1.36873,-1.051388,-1.124122,-1.14282,-1.191367,-1.005247,-1.107223
12281,2023-01-20 10:50:27.417458,147467020,0,-0.5464702,-0.4588162,0.3687594,-0.924377,-0.6164463,-1.03453,-1.05098,-1.088845,-0.9283524,-1.019664
12313,2023-01-20 10:50:27.508476,147567008,0,-0.5464702,-0.4588162,0.3687594,-0.924377,-0.6164463,-1.03453,-1.05098,-1.088845,-0.9283524,-1.019664
12347,2023-01-20 10:50:27.599494,147666995,0,-0.5464702,-0.4588162,0.3687594,-0.924377,-0.6164463,-1.03453,-1.05098,-1.088845,-0.9283524,-1.019664
12379,2023-01-20 10:50:27.699444,147767002,0,-0.3519858,-0.2700854,0.5039427,-0.7060186,-0.4173347,-1.230659,-1.245729,-1.284103,-1.134236,-1.217143
12412,2023-01-20 10:50:27.799435,147867001,0,-0.3519858,-0.2700854,0.5039427,-0.7060186,-0.4173347,-1.230659,-1.245729,-1.284103,-1.134236,-1.217143
12444,2023-01-20 10:50:27.899368,147966998,0,-0.7394686,-0.6638337,0.05462837,-1.066418,-0.7997968,-1.281781,-1.297528,-1.353867,-1.185903,-1.267966
12477,2023-01-20 10:50:27.999305,148066999,0,-0.7394686,-0.6638337,0.05462837,-1.066418,-0.7997968,-1.281781,-1.297528,-1.353867,-1.185903,-1.267966
12507,2023-01-20 10:50:28.099333,148167002,0,-1.161564,-1.092344,-0.4337631,-1.461129,-1.216727,-0.7661665,-0.7812601,-0.8416619,-0.6761343,-0.7530795
12542,2023-01-20 10:50:28.199356,148267000,0,-1.161564,-1.092344,-0.4337631,-1.461129,-1.216727,-0.7661665,-0.7812601,-0.8416619,-0.6761343,-0.7530795
12573,2023-01-20 10:50:28.299409,148367028,0,-0.5360964,-0.4706455,0.1512723,-0.8202209,-0.5881763,-0.7428985,-0.7569576,-0.8144613,-0.6594288,-0.73081
12606,2023-01-20 10:50:28.399425,148467019,0,-0.5360964,-0.4706455,0.1512723,-0.8202209,-0.5881763,-0.7428985,-0.7569576,-0.8144613,-0.6594288,-0.73081
12638,2023-01-20 10:50:28.510302,148566998,0,-0.9533975,-0.8918793,-0.3043051,-1.220274,-1.002297,-1.31534,-1.330906,-1.408655,-1.227345,-1.302232
12672,2023-01-20 10:50:28.617436,148666995,0,-0.632507,-0.5758659,-0.03284451,-0.8779983,-0.6774743,-0.8834922,-0.8998131,-0.9902078,-0.7940359,-0.869935
12704,2023-01-20 10:50:28.708443,148767002,0,-0.632507,-0.5758659,-0.03284451,-0.8779983,-0.6774743,-0.8834922,-0.8998131,-0.9902078,-0.7940359,-0.869935
12737,2023-01-20 10:50:28.799439,148866998,0,-0.632507,-0.5758659,-0.03284451,-0.8779983,-0.6774743,-0.8834922,-0.8998131,-0.9902078,-0.7940359,-0.869935
12770,2023-01-20 10:50:28.899272,148966999,0,-0.1714068,-0.1172619,0.4043878,-0.4058697,-0.2143551,-0.7566692,-0.7742333,-0.8795508,-0.6630368,-0.7422402
12803,2023-01-20 10:50:28.999158,149066999,0,-0.1714068,-0.1172619,0.4043878,-0.4058697,-0.2143551,-0.7566692,-0.7742333,-0.8795508,-0.6630368,-0.7422402
12833,2023-01-20 10:50:29.099230,149167018,0,-0.8693177,-0.8192945,-0.3347618,-1.08555,-0.9089832,-0.9656118,-0.9838138,-1.100426,-0.8708757,-0.9507819
12869,2023-01-20 10:50:29.199267,149267001,0,-0.8693177,-0.8192945,-0.3347618,-1.08555,-0.9089832,-0.9656118,-0.9838138,-1.100426,-0.8708757,-0.9507819
12899,2023-01-20 10:50:29.299217,149367015,0,0.1587863,0.2043489,0.6465765,-0.03804129,0.1226836,-0.6638473,-0.6814654,-0.7976204,-0.5731525,-0.6495676
12932,2023-01-20 10:50:29.399160,149467023,0,0.1587863,0.2043489,0.6465765,-0.03804129,0.1226836,-0.6638473,-0.6814654,-0.7976204,-0.5731525,-0.6495676
12964,2023-01-20 10:50:29.499153,149566998,0,-0.2980019,-0.2563572,0.1493613,-0.4776208,-0.3310025,-0.6067343,-0.6239982,-0.741638,-0.5189836,-0.5927941
12998,2023-01-20 10:50:29.599173,149666998,0,-0.2980019,-0.2563572,0.1493613,-0.4776208,-0.3310025,-0.6067343,-0.6239982,-0.741638,-0.5189836,-0.5927941
13030,2023-01-20 10:50:29.699169,149767003,0,-0.5237373,-0.4860246,-0.1176451,-0.6862092,-0.5536138,-0.7247614,-0.7413282,-0.8569443,-0.6413549,-0.7114318
13063,2023-01-20 10:50:29.799155,149866998,0,-0.5237373,-0.4860246,-0.1176451,-0.6862092,-0.5536138,-0.7247614,-0.7413282,-0.8569443,-0.6413549,-0.7114318
13094,2023-01-20 10:50:29.899134,149966999,0,-0.5256383,-0.4906453,-0.1488251,-0.6764911,-0.5533627,-0.7097952,-0.7250559,-0.8315534,-0.6329966,-0.6975234
13127,2023-01-20 10:50:29.999113,150067001,0,-0.5256383,-0.4906453,-0.1488251,-0.6764911,-0.5533627,-0.7097952,-0.7250559,-0.8315534,-0.6329966,-0.6975234
13157,2023-01-20 10:50:30.099144,150166998,0,-0.02890232,0.003713757,0.3202225,-0.1701044,-0.05477536,-0.6733036,-0.6853887,-0.7653,-0.611119,-0.6635191
13192,2023-01-20 10:50:30.199175,150266995,0,-0.02890232,0.003713757,0.3202225,-0.1701044,-0.05477536,-0.6733036,-0.6853887,-0.7653,-0.611119,-0.6635191
13222,2023-01-20 10:50:30.299201,150367020,0,0.2746064,0.3047575,0.5969797,0.1439212,0.2506737,-0.7527621,-0.7633827,-0.8324427,-0.6977611,-0.7441434
13255,2023-01-20 10:50:30.399197,150467015,0,0.2746064,0.3047575,0.5969797,0.1439212,0.2506737,-0.7527621,-0.7633827,-0.8324427,-0.6977611,-0.7441434
13287,2023-01-20 10:50:30.499176,150566999,0,-0.3746712,-0.3471707,-0.07919849,-0.4935466,-0.3964916,-0.4959641,-0.5068675,-0.5811648,-0.4405622,-0.4871649
13321,2023-01-20 10:50:30.599179,150667008,0,-0.3746712,-0.3471707,-0.07919849,-0.4935466,-0.3964916,-0.4959641,-0.5068675,-0.5811648,-0.4405622,-0.4871649
13354,2023-01-20 10:50:30.699171,150767002,0,-0.8374299,-0.8111418,-0.5548042,-0.9511284,-0.8582886,-0.5164853,-0.5268793,-0.597629,-0.4637338,-0.5081022
13387,2023-01-20 10:50:30.799165,150866998,0,-0.8374299,-0.8111418,-0.5548042,-0.9511284,-0.8582886,-0.5164853,-0.5268793,-0.597629,-0.4637338,-0.5081022
13418,2023-01-20 10:50:30.899136,150967002,0,-0.1790838,-0.1550452,0.07933368,-0.2830785,-0.198152,-0.5460316,-0.555595,-0.6208061,-0.4975514,-0.5383282
13451,2023-01-20 10:50:30.999107,151067007,0,-0.1790838,-0.1550452,0.07933368,-0.2830785,-0.198152,-0.5460316,-0.555595,-0.6208061,-0.4975514,-0.5383282
13481,2023-01-20 10:50:31.099185,151166998,0,0.11188,0.1342331,0.3533352,0.01541233,0.09416187,-0.329046,-0.3389637,-0.4089746,-0.2795478,-0.3210971
13516,2023-01-20 10:50:31.199270,151266995,0,0.11188,0.1342331,0.3533352,0.01541233,0.09416187,-0.329046,-0.3389637,-0.4089746,-0.2795478,-0.3210971
13546,2023-01-20 10:50:31.299237,151367011,0,0.160261,0.1808887,0.3839349,0.07141149,0.1439178,-0.3569067,-0.3668055,-0.4383146,-0.3080262,-0.3489992
13579,2023-01-20 10:50:31.399178,151467001,0,0.160261,0.1808887,0.3839349,0.07141149,0.1439178,-0.3569067,-0.3668055,-0.4383146,-0.3080262,-0.3489992
13611,2023-01-20 10:50:31.499176,151567019,0,0.3980753,0.4161808,0.5967557,0.3206939,0.3837616,-0.4842224,-0.4953015,-0.5800297,-0.4309224,-0.4754446
13644,2023-01-20 10:50:31.599145,151667008,0,0.3980753,0.4161808,0.5967557,0.3206939,0.3837616,-0.4842224,-0.4953015,-0.5800297,-0.4309224,-0.4754446
13677,2023-01-20 10:50:31.699149,151766999,0,-0.3868383,-0.3701264,-0.2027825,-0.4581205,-0.4000463,-0.520479,-0.5312822,-0.6148326,-0.4688051,-0.5119329
13710,2023-01-20 10:50:31.799161,151866998,0,-0.3868383,-0.3701264,-0.2027825,-0.4581205,-0.4000463,-0.520479,-0.5312822,-0.6148326,-0.4688051,-0.5119329
13742,2023-01-20 10:50:31.899148,151967008,0,-0.3244072,-0.3103909,-0.1688302,-0.3838211,-0.3354659,-0.4856617,-0.4961187,-0.579046,-0.436218,-0.4774225
13775,2023-01-20 10:50:31.999119,152067002,0,-0.3244072,-0.3103909,-0.1688302,-0.3838211,-0.3354659,-0.4856617,-0.4961187,-0.579046,-0.436218,-0.4774225
13805,2023-01-20 10:50:32.099144,152167000,0,-0.06912726,-0.05707607,0.06426442,-0.120249,-0.07864022,-0.410695,-0.4194538,-0.4887061,-0.3691731,-0.4037913
13840,2023-01-20 10:50:32.199179,152267008,0,-0.06912726,-0.05707607,0.06426442,-0.120249,-0.07864022,-0.410695,-0.4194538,-0.4887061,-0.3691731,-0.4037913
13870,2023-01-20 10:50:32.299180,152367002,0,-0.3942397,-0.3827693,-0.2673601,-0.4429544,-0.4032978,-0.2880812,-0.296238,-0.3604734,-0.2493681,-0.2816491
13903,2023-01-20 10:50:32.399195,152467011,0,-0.3942397,-0.3827693,-0.2673601,-0.4429544,-0.4032978,-0.2880812,-0.296238,-0.3604734,-0.2493681,-0.2816491
13935,2023-01-20 10:50:32.499164,152567005,0,0.3600787,0.371077,0.4795468,0.3128056,0.3513612,-0.3775884,-0.3831736,-0.4242919,-0.3502145,-0.3731423
13968,2023-01-20 10:50:32.599133,152666999,0,0.3600787,0.371077,0.4795468,0.3128056,0.3513612,-0.3775884,-0.3831736,-0.4242919,-0.3502145,-0.3731423
14001,2023-01-20 10:50:32.699142,152766995,0,-0.08145016,-0.0709233,0.03311586,-0.1266782,-0.08979365,-0.5022659,-0.5077298,-0.5481324,-0.4755766,-0.4979201
14034,2023-01-20 10:50:32.799167,152867006,0,-0.08145016,-0.0709233,0.03311586,-0.1266782,-0.08979365,-0.5022659,-0.5077298,-0.5481324,-0.4755766,-0.4979201
14065,2023-01-20 10:50:32.899139,152966999,0,0.08722967,0.09695217,0.1923708,0.04528737,0.07951298,-0.2731774,-0.2775385,-0.3085743,-0.2515169,-0.2696919
14098,2023-01-20 10:50:32.999121,153067002,0,0.08722967,0.09695217,0.1923708,0.04528737,0.07951298,-0.2731774,-0.2775385,-0.3085743,-0.2515169,-0.2696919
14128,2023-01-20 10:50:33.099151,153167004,0,0.7776959,0.7873014,0.8810484,0.7360843,0.7700626,-0.472314,-0.4759829,-0.5007377,-0.453725,-0.4693632
14163,2023-01-20 10:50:33.199174,153266999,0,0.7776959,0.7873014,0.8810484,0.7360843,0.7700626,-0.472314,-0.4759829,-0.5007377,-0.453725,-0.4693632
14193,2023-01-20 10:50:33.299181,153367002,0,0.1922991,0.2023208,0.2984698,0.14841,0.1843074,-0.4800888,-0.482068,-0.4909143,-0.468775,-0.4784319
14227,2023-01-20 10:50:33.399187,153467004,0,0.1922991,0.2023208,0.2984698,0.14841,0.1843074,-0.4800888,-0.482068,-0.4909143,-0.468775,-0.4784319
14260,2023-01-20 10:50:33.499185,153567006,0,0.39506,0.4040239,0.4877349,0.3552614,0.3878784,-0.4219689,-0.421509,-0.4090485,-0.4215448,-0.4222043
14294,2023-01-20 10:50:33.599173,153666999,0,0.39506,0.4040239,0.4877349,0.3552614,0.3878784,-0.4219689,-0.421509,-0.4090485,-0.4215448,-0.4222043
14327,2023-01-20 10:50:33.699172,153767004,0,0.6341802,0.6433132,0.7264093,0.5930512,0.6268296,-0.3474142,-0.3446486,-0.3108853,-0.3569946,-0.3494217
14360,2023-01-20 10:50:33.799159,153866998,0,0.6341802,0.6433132,0.7264093,0.5930512,0.6268296,-0.3474142,-0.3446486,-0.3108853,-0.3569946,-0.3494217
14393,2023-01-20 10:50:33.899140,153967005,0,0.7288251,0.7370699,0.8109572,0.6914272,0.7221722,-0.2821878,-0.2785836,-0.2379708,-0.2956536,-0.2848539
14426,2023-01-20 10:50:33.999115,154067007,0,0.7288251,0.7370699,0.8109572,0.6914272,0.7221722,-0.2821878,-0.2785836,-0.2379708,-0.2956536,-0.2848539
14456,2023-01-20 10:50:34.099117,154166995,0,0.7860705,0.7944645,0.8682443,0.74761,0.779275,-0.3312101,-0.3260128,-0.2706333,-0.3515815,-0.3351008
14491,2023-01-20 10:50:34.199140,154267004,0,0.7860705,0.7944645,0.8682443,0.74761,0.779275,-0.3312101,-0.3260128,-0.2706333,-0.3515815,-0.3351008
14521,2023-01-20 10:50:34.299169,154367009,0,0.5872588,0.5956678,0.6686678,0.5484776,0.5804364,-0.3093778,-0.3031853,-0.2386321,-0.3340874,-0.3140351
14554,2023-01-20 10:50:34.399179,154466995,0,0.5872588,0.5956678,0.6686678,0.5484776,0.5804364,-0.3093778,-0.3031853,-0.2386321,-0.3340874,-0.3140351
14587,2023-01-20 10:50:34.499219,154566999,0,0.5381887,0.5462396,0.6137214,0.5004674,0.5316217,-0.311572,-0.3032433,-0.2194706,-0.3456667,-0.3178791
14619,2023-01-20 10:50:34.599256,154666999,0,0.5381887,0.5462396,0.6137214,0.5004674,0.5316217,-0.311572,-0.3032433,-0.2194706,-0.3456667,-0.3178791
14653,2023-01-20 10:50:34.699203,154766995,0,0.07191136,0.08131434,0.1596535,0.02766763,0.06423318,-0.254427,-0.2440363,-0.1400281,-0.2971619,-0.2623023
14686,2023-01-20 10:50:34.799161,154867002,0,0.07191136,0.08131434,0.1596535,0.02766763,0.06423318,-0.254427,-0.2440363,-0.1400281,-0.2971619,-0.2623023
14719,2023-01-20 10:50:34.899132,154967006,0,0.1450711,0.1551441,0.2381009,0.09739586,0.1368312,-0.3014108,-0.289205,-0.1679136,-0.3518869,-0.3106739
14752,2023-01-20 10:50:34.999091,155066998,0,0.1450711,0.1551441,0.2381009,0.09739586,0.1368312,-0.3014108,-0.289205,-0.1679136,-0.3518869,-0.3106739
14782,2023-01-20 10:50:35.099185,155167007,0,0.07100876,0.08051552,0.1566389,0.02547592,0.06320025,-0.2900879,-0.2763908,-0.1420059,-0.3472036,-0.3005071
14817,2023-01-20 10:50:35.199262,155266999,0,0.07100876,0.08051552,0.1566389,0.02547592,0.06320025,-0.2900879,-0.2763908,-0.1420059,-0.3472036,-0.3005071
14847,2023-01-20 10:50:35.299260,155366998,0,0.01937491,0.02718738,0.08678928,-0.01874512,0.01291531,-0.1319417,-0.1177948,0.01904288,-0.1914508,-0.1427313
14880,2023-01-20 10:50:35.399254,155466995,0,0.01937491,0.02718738,0.08678928,-0.01874512,0.01291531,-0.1319417,-0.1177948,0.01904288,-0.1914508,-0.1427313
