LineNo,UTC_Approx,TimeUS,Roll,Pitch,Yaw,Alt,Lat,Lng,Q1,Q2,Q3,Q4
686,2023-01-20 11:08:47.421992,161676735,-2.1,0.38,173.57,740.04,39.8044363,32.3787903,0.05596792,-0.004349688,-0.01814226,0.9982582
1037,2023-01-20 11:08:47.516980,161776723,-2.08,0.32,173.57,740.05,39.8044362,32.3787903,0.05594153,-0.003882848,-0.01800086,0.9982643
1153,2023-01-20 11:08:47.631581,161894072,-2.1,0.27,173.57,740.06,39.8044358,32.3787911,0.05596725,-0.00338857,-0.01819254,0.9982611
1416,2023-01-20 11:08:47.739549,161996495,-2.25,0.23,173.57,740.05,39.8044357,32.3787914,0.05600297,-0.003140026,-0.01951203,0.998235
1835,2023-01-20 11:08:47.843064,162097009,-2.31,0.27,173.57,740.05,39.804436,32.3787913,0.05594591,-0.00351486,-0.01999689,0.9982274
1882,2023-01-20 11:08:47.942866,162197053,-2.23,0.42,173.58,740.07,39.8044362,32.3787914,0.05587706,-0.004836782,-0.01924187,0.9982405
1927,2023-01-20 11:08:48.042676,162297000,-2.17,0.38,173.58,740.05,39.8044346,32.3787917,0.05588507,-0.00442637,-0.0187514,0.9982513
1973,2023-01-20 11:08:48.142689,162397009,-2.14,0.05,173.58,740.04,39.8044343,32.3787918,0.05591999,-0.001496306,-0.01870184,0.9982589
2026,2023-01-20 11:08:48.242700,162497003,-2.14,-0.12,173.58,740.01,39.8044339,32.3787923,0.05590985,5.929133E-05,-0.01876447,0.9982595
2067,2023-01-20 11:08:48.342759,162597029,-2.17,-0.06,173.59,740.01,39.8044337,32.3787925,0.05587757,-0.0005320765,-0.01902295,0.9982563
2125,2023-01-20 11:08:48.438930,162697050,-2.16,0.06,173.59,740.02,39.8044342,32.3787921,0.05583932,-0.001591344,-0.01881893,0.9982611
2184,2023-01-20 11:08:48.529856,162797015,-2.06,0.27,173.59,740,39.8044343,32.3787921,0.055781,-0.003404342,-0.01789233,0.9982769
2244,2023-01-20 11:08:48.622914,162897041,-1.99,0.42,173.59,740,39.8044339,32.3787921,0.05573513,-0.004716674,-0.01715527,0.9982871
2298,2023-01-20 11:08:48.722885,162996992,-2,0.33,173.59,740,39.8044339,32.3787921,0.05574562,-0.003896666,-0.01730691,0.9982874
2354,2023-01-20 11:08:48.822922,163097014,-2,0.27,173.59,740.01,39.8044337,32.3787918,0.05578615,-0.003359081,-0.01734058,0.9982865
2409,2023-01-20 11:08:48.922953,163197044,-1.93,0.34,173.59,739.99,39.8044337,32.3787916,0.05575707,-0.003993105,-0.01670554,0.9982966
2449,2023-01-20 11:08:49.022907,163297001,-1.91,0.39,173.59,740,39.8044335,32.3787921,0.05580141,-0.004378607,-0.0164665,0.9982965
2493,2023-01-20 11:08:49.122888,163396998,-2.05,0.31,173.58,740.02,39.8044335,32.3787922,0.05584196,-0.003742174,-0.01776646,0.9982745
2535,2023-01-20 11:08:49.225393,163496992,-2.17,0.23,173.58,740.03,39.804433,32.3787924,0.05585274,-0.003135654,-0.01880687,0.998257
2575,2023-01-20 11:08:49.336437,163596999,-2.16,0.19,173.59,740.02,39.8044329,32.3787925,0.05582772,-0.002725993,-0.01876522,0.9982604
2618,2023-01-20 11:08:49.442760,163697033,-2.14,0.18,173.59,740.01,39.8044328,32.3787925,0.05584104,-0.002692354,-0.01856378,0.9982634
2656,2023-01-20 11:08:49.542702,163797040,-2.09,0.25,173.58,740.01,39.8044327,32.3787925,0.05590126,-0.003236787,-0.01809261,0.9982671
2696,2023-01-20 11:08:49.638796,163896996,-2.07,0.27,173.58,739.99,39.8044324,32.3787928,0.05590693,-0.003365536,-0.01791246,0.9982696
2734,2023-01-20 11:08:49.729850,163997026,-2.08,0.22,173.59,739.95,39.8044322,32.3787928,0.05584222,-0.002942376,-0.01807068,0.9982717
2777,2023-01-20 11:08:49.822901,164096998,-2.11,0.19,173.59,739.97,39.8044324,32.3787931,0.05579785,-0.00274215,-0.01829125,0.9982708
2817,2023-01-20 11:08:49.922931,164197051,-2.15,0.26,173.59,739.93,39.8044324,32.3787933,0.05581767,-0.003357122,-0.01866725,0.9982608
2857,2023-01-20 11:08:50.022881,164297010,-2.16,0.33,173.57,739.9,39.8044324,32.378793,0.05592533,-0.003955869,-0.01872126,0.9982516
2896,2023-01-20 11:08:50.122909,164397001,-2.01,0.4,173.57,739.92,39.8044325,32.3787928,0.05598209,-0.004515494,-0.01739536,0.99827
2939,2023-01-20 11:08:50.222971,164497043,-1.91,0.45,173.58,739.95,39.8044323,32.3787933,0.05588835,-0.004942853,-0.01647724,0.9982888
2977,2023-01-20 11:08:50.322898,164597011,-2,0.45,173.58,739.95,39.8044323,32.3787934,0.05583024,-0.004902865,-0.01723523,0.9982795
3019,2023-01-20 11:08:50.422885,164697040,-2.06,0.43,173.58,739.96,39.8044322,32.3787934,0.0558917,-0.004779689,-0.01779976,0.9982667
3059,2023-01-20 11:08:50.522800,164797002,-2.02,0.37,173.55,739.95,39.8044321,32.3787934,0.05612644,-0.004246987,-0.01747026,0.9982617
3099,2023-01-20 11:08:50.622775,164897001,-2,0.32,173.51,739.89,39.8044319,32.3787937,0.05644612,-0.003778154,-0.01732457,0.9982482
3137,2023-01-20 11:08:50.722827,164996995,-2.04,0.29,173.54,739.89,39.8044318,32.3787938,0.05618868,-0.003563311,-0.01768038,0.9982572
3178,2023-01-20 11:08:50.822858,165096996,-2.06,0.25,173.54,739.89,39.8044316,32.3787938,0.0562364,-0.0032519,-0.01787546,0.9982522
3218,2023-01-20 11:08:50.922894,165197096,-2.03,0.24,173.58,739.84,39.8044314,32.3787938,0.05591916,-0.00309818,-0.01763779,0.9982747
3258,2023-01-20 11:08:51.022756,165297005,-2.02,0.21,173.57,739.87,39.804431,32.3787943,0.0560135,-0.002839626,-0.01756134,0.9982715
3296,2023-01-20 11:08:51.122769,165397003,-2.06,0.16,173.6,739.93,39.8044307,32.3787944,0.05570035,-0.00240325,-0.01794459,0.9982833
3339,2023-01-20 11:08:51.222808,165497041,-2.08,0.13,173.6,739.76,39.8044305,32.3787946,0.05572759,-0.002188802,-0.01812684,0.998279
3377,2023-01-20 11:08:51.322736,165597013,-2.07,0.14,173.58,739.74,39.8044303,32.3787947,0.05590455,-0.002286346,-0.01803366,0.9982706
3419,2023-01-20 11:08:51.422738,165697053,-2.05,0.18,173.6,739.78,39.8044302,32.3787944,0.05568251,-0.00258004,-0.01782086,0.9982861
3457,2023-01-20 11:08:51.522670,165797001,-1.94,0.2,173.61,739.84,39.80443,32.3787943,0.05564864,-0.002735299,-0.01687822,0.9983039
3498,2023-01-20 11:08:51.622658,165897001,-1.87,0.25,173.63,739.85,39.8044305,32.3787943,0.05545218,-0.003098937,-0.01625413,0.9983242
3535,2023-01-20 11:08:51.722662,165996998,-1.92,0.43,173.62,739.85,39.8044306,32.3787943,0.05550131,-0.004734271,-0.01659325,0.9983095
3578,2023-01-20 11:08:51.822675,166097006,-1.98,0.54,173.61,739.75,39.8044303,32.3787943,0.0555888,-0.005699797,-0.017052,0.9982919
3618,2023-01-20 11:08:51.922725,166197059,-2.01,0.4,173.62,739.8,39.8044302,32.3787944,0.05548114,-0.004543995,-0.01739068,0.9982979
3658,2023-01-20 11:08:52.022673,166297007,-2.03,0.3,173.64,739.86,39.8044303,32.3787945,0.0553619,-0.00360303,-0.01755705,0.9983055
3694,2023-01-20 11:08:52.122675,166397002,-2.06,0.31,173.65,739.86,39.8044302,32.3787946,0.0552531,-0.003775998,-0.01785921,0.9983056
3729,2023-01-20 11:08:52.222727,166497049,-2.06,0.34,173.63,739.87,39.8044304,32.3787943,0.05540699,-0.003978704,-0.01782411,0.9982968
3759,2023-01-20 11:08:52.322681,166597006,-1.99,0.41,173.64,739.87,39.8044305,32.3787943,0.05534324,-0.00457821,-0.01714374,0.9983097
3794,2023-01-20 11:08:52.422725,166697058,-1.93,0.48,173.65,739.9,39.8044307,32.3787942,0.05528224,-0.005153985,-0.01659896,0.9983195
3824,2023-01-20 11:08:52.522697,166797055,-1.96,0.49,173.67,739.91,39.8044308,32.3787942,0.05504877,-0.005279653,-0.01691469,0.9983264
3857,2023-01-20 11:08:52.622623,166896994,-2,0.49,173.66,739.9,39.8044306,32.3787943,0.05517549,-0.005294838,-0.01719374,0.9983146
3887,2023-01-20 11:08:52.722660,166996998,-1.98,0.47,173.66,739.94,39.8044306,32.3787943,0.05512395,-0.005103808,-0.01704915,0.9983209
3922,2023-01-20 11:08:52.822691,167097003,-1.98,0.44,173.67,739.89,39.8044304,32.3787942,0.05507913,-0.004823804,-0.01704335,0.9983249
3954,2023-01-20 11:08:52.922741,167197051,-2,0.36,173.67,739.9,39.8044303,32.3787942,0.05507705,-0.004126889,-0.01727659,0.9983242
3987,2023-01-20 11:08:53.022707,167297023,-2.01,0.29,173.7,739.98,39.80443,32.3787944,0.05484534,-0.003541597,-0.01745872,0.9983359
4017,2023-01-20 11:08:53.122664,167397011,-2.05,0.22,173.68,739.94,39.8044299,32.3787945,0.05501264,-0.002972462,-0.01782228,0.9983222
4052,2023-01-20 11:08:53.222689,167497058,-2.06,0.24,173.73,739.91,39.8044304,32.3787941,0.05459863,-0.003090781,-0.01784754,0.9983441
4082,2023-01-20 11:08:53.322700,167597059,-1.99,0.46,173.71,739.87,39.8044306,32.378794,0.05476187,-0.005012649,-0.01711704,0.9983401
4117,2023-01-20 11:08:53.422721,167697081,-1.94,0.64,173.73,739.87,39.8044306,32.3787939,0.05451828,-0.006539017,-0.01664029,0.9983526
4147,2023-01-20 11:08:53.522663,167797064,-1.96,0.62,173.74,739.89,39.8044307,32.3787939,0.05442017,-0.006394347,-0.01686108,0.9983552
4180,2023-01-20 11:08:53.622640,167897065,-1.95,0.6,173.8,739.97,39.8044306,32.378794,0.05395071,-0.006233356,-0.0167519,0.9983836
4210,2023-01-20 11:08:53.722654,167997047,-1.94,0.52,173.68,739.8,39.8044306,32.378794,0.05493698,-0.005520249,-0.0166882,0.9983351
4245,2023-01-20 11:08:53.822688,168097060,-1.82,0.5,173.2,739.8,39.8044297,32.378794,0.05917024,-0.00534502,-0.01561725,0.9981114
4278,2023-01-20 11:08:53.922733,168197121,-1.31,0.36,173.4,739.77,39.8044294,32.378794,0.05749954,-0.003853705,-0.01126915,0.9982745
4311,2023-01-20 11:08:54.022703,168297107,-0.24,0.62,173.69,739.39,39.8044299,32.3787941,0.05495861,-0.005571743,-0.001805202,0.9984714
4342,2023-01-20 11:08:54.122650,168397067,-0.76,1.2,174.13,739.13,39.8044302,32.3787941,0.05108953,-0.01085725,-0.00614413,0.9986162
4377,2023-01-20 11:08:54.222627,168497048,-1.37,1.53,174.56,739.88,39.8044306,32.3787935,0.04726121,-0.01393856,-0.01133758,0.9987209
4407,2023-01-20 11:08:54.322709,168597106,-1.13,1.05,174.41,740.31,39.8044309,32.3787932,0.04864005,-0.009712897,-0.009408879,0.9987248
4442,2023-01-20 11:08:54.422701,168697087,-0.48,0.42,173.65,740.3,39.8044306,32.3787935,0.05527224,-0.003971321,-0.004053444,0.9984552
4472,2023-01-20 11:08:54.522649,168797073,-0.66,0.12,172.78,740.57,39.8044307,32.3787935,0.06292857,-0.001419556,-0.00575338,0.9980004
4505,2023-01-20 11:08:54.622651,168897100,-1.16,-0.49,172.76,740.68,39.8044298,32.3787933,0.06314033,0.003710173,-0.01038861,0.9979437
4535,2023-01-20 11:08:54.722623,168997056,-2.29,-0.15,173.35,740.68,39.8044296,32.3787932,0.0579568,0.000168622,-0.02006716,0.9981174
4570,2023-01-20 11:08:54.822645,169097063,-3.33,0.53,174.01,740.92,39.8044292,32.3787925,0.05201841,-0.006204716,-0.02885083,0.99821
4602,2023-01-20 11:08:54.922742,169197149,-4.31,1.03,175.08,741,39.804429,32.3787921,0.04250461,-0.0105997,-0.03726358,0.9983448
4635,2023-01-20 11:08:55.022674,169297070,-4.52,2.08,175.96,741.03,39.8044283,32.3787921,0.03441441,-0.01959831,-0.03876981,0.9984631
4665,2023-01-20 11:08:55.122684,169397070,-4.92,3.1,176.78,741.07,39.8044281,32.378792,0.02686463,-0.02823152,-0.04216485,0.9983503
4700,2023-01-20 11:08:55.222684,169497063,-5.08,3.96,177.37,741.14,39.8044285,32.3787918,0.02131996,-0.03560257,-0.04354374,0.9981893
4730,2023-01-20 11:08:55.322670,169597055,-5.38,4.84,177.71,741.22,39.8044287,32.3787917,0.01793357,-0.04313642,-0.0460625,0.9978456
4765,2023-01-20 11:08:55.422702,169697097,-5.98,4.37,177.57,741.37,39.8044279,32.3787914,0.01908139,-0.03917478,-0.05137291,0.9977284
4797,2023-01-20 11:08:55.522651,169797074,-5.41,3.15,176.4,741.46,39.8044278,32.3787912,0.02995871,-0.02897332,-0.04633789,0.998056
4830,2023-01-20 11:08:55.622635,169897073,-4.65,3.18,174.68,741.41,39.8044275,32.3787918,0.04516659,-0.0296564,-0.03923553,0.997768
4860,2023-01-20 11:08:55.722717,169997125,-3.7,3.97,173.34,741.38,39.8044274,32.3787919,0.05684924,-0.03647389,-0.03024411,0.9972578
4895,2023-01-20 11:08:55.822668,170097055,-2.7,4.35,172.39,741.38,39.8044267,32.3787924,0.06536451,-0.03943024,-0.02098265,0.9968613
4927,2023-01-20 11:08:55.922726,170197116,-2.1,3.9,171.45,741.42,39.8044265,32.3787926,0.07379879,-0.03533246,-0.01580742,0.9965217
4960,2023-01-20 11:08:56.022696,170297086,-2.19,3.37,170.53,741.5,39.8044263,32.3787926,0.08187062,-0.03088948,-0.01661566,0.9960256
4990,2023-01-20 11:08:56.122671,170397055,-1.99,3.62,169.64,741.65,39.8044263,32.3787928,0.0896141,-0.03306161,-0.01448578,0.9953222
5025,2023-01-20 11:08:56.222686,170497065,-1.24,3.52,169.73,741.66,39.8044268,32.3787933,0.08907453,-0.03162987,-0.008019872,0.9954903
5055,2023-01-20 11:08:56.322700,170597081,-1.6,2.96,170.84,741.65,39.804427,32.3787935,0.07942151,-0.02687295,-0.01188986,0.9964079
5090,2023-01-20 11:08:56.422702,170697092,-2.01,2.4,172.36,741.7,39.804426,32.3787939,0.06617069,-0.02208204,-0.01610401,0.997434
5120,2023-01-20 11:08:56.522692,170797114,-2.12,1.78,173.86,741.77,39.8044257,32.3787941,0.05317501,-0.01649946,-0.01766105,0.9982927
5153,2023-01-20 11:08:56.622629,170897068,-2.25,2.41,174.92,741.87,39.8044265,32.3787948,0.04383204,-0.02188319,-0.01872738,0.9986237
5183,2023-01-20 11:08:56.722658,170997063,-1.57,3.14,175.32,741.94,39.8044267,32.3787953,0.04040116,-0.02796078,-0.01262274,0.9987125
5218,2023-01-20 11:08:56.822688,171097069,-0.88,3.91,175.18,742.02,39.8044268,32.3787953,0.04172558,-0.03442975,-0.006241456,0.9985162
5250,2023-01-20 11:08:56.922736,171197125,-0.43,3.44,174.81,742.08,39.8044271,32.3787956,0.04509485,-0.03016692,-0.002407558,0.9985242
5283,2023-01-20 11:08:57.022674,171297067,-0.13,2.67,174.44,742.19,39.8044257,32.3787958,0.04838907,-0.02337397,-4.636222E-05,0.9985551
5314,2023-01-20 11:08:57.122666,171397051,0.29,2.22,174.34,742.24,39.8044255,32.3787959,0.04936193,-0.01925442,0.003561811,0.998589
5349,2023-01-20 11:08:57.222682,171497060,0.83,2.47,174.49,742.34,39.8044248,32.3787971,0.04814906,-0.02118361,0.008320115,0.9985809
5379,2023-01-20 11:08:57.322725,171597101,1.28,2.95,174.61,742.46,39.8044245,32.3787977,0.04719567,-0.02521062,0.01238133,0.9984907
5414,2023-01-20 11:08:57.422696,171697079,1.9,3.34,174.69,742.58,39.8044247,32.3787979,0.04674313,-0.02841238,0.01794276,0.9983416
5444,2023-01-20 11:08:57.522643,171797062,2.58,2.66,174.84,742.74,39.8044246,32.3787984,0.04542929,-0.02224764,0.02355256,0.9984421
5477,2023-01-20 11:08:57.622627,171897067,2.36,2.23,175.5,742.8,39.8044248,32.3787982,0.03957368,-0.01866924,0.02137987,0.9988135
5507,2023-01-20 11:08:57.722652,171997059,2.18,1.97,176.19,742.93,39.8044248,32.3787984,0.03351732,-0.01655857,0.01965976,0.9991075
5542,2023-01-20 11:08:57.822729,172097111,2.16,1.4,176.99,743.13,39.8044245,32.3787984,0.02638198,-0.01176535,0.01921882,0.9993979
5574,2023-01-20 11:08:57.922722,172197109,1.72,1.65,177.98,743.26,39.8044243,32.3787985,0.01780406,-0.0142096,0.01528123,0.9996237
5609,2023-01-20 11:08:58.022691,172297081,2.72,1.48,178.32,743.33,39.8044248,32.3787995,0.01487248,-0.01259561,0.0239442,0.9995233
5639,2023-01-20 11:08:58.122711,172397098,4.53,-0.62,177.84,743.58,39.804425,32.3788,0.0185712,0.00622891,0.03944043,0.9990299
5674,2023-01-20 11:08:58.222962,172497347,5.16,-2.13,177.2,743.95,39.8044257,32.3787997,0.0234868,0.01967006,0.04458074,0.9985359
5704,2023-01-20 11:08:58.322680,172597066,4.23,-3.78,176.55,743.92,39.804426,32.3787999,0.02875855,0.03408698,0.03587793,0.9983606
5739,2023-01-20 11:08:58.422699,172697093,3.95,-4.42,175.55,743.98,39.8044259,32.3787995,0.03740659,0.03989582,0.0329654,0.9979591
5769,2023-01-20 11:08:58.522652,172797081,3.98,-4.34,174.17,744.35,39.804426,32.3787996,0.04938186,0.03958116,0.03275282,0.9974578
5802,2023-01-20 11:08:58.622646,172897094,3.59,-4.62,172.74,744.54,39.8044253,32.3787992,0.06186505,0.04221976,0.02876679,0.9967762
5832,2023-01-20 11:08:58.722665,172997076,3.02,-4.34,172.09,744.68,39.8044252,32.3787989,0.06782834,0.03965949,0.02367523,0.9966273
5867,2023-01-20 11:08:58.822696,173097083,2.36,-4.08,171.99,744.88,39.8044246,32.3787981,0.0690062,0.03699001,0.01808119,0.9967662
5899,2023-01-20 11:08:58.922730,173197133,2.17,-3.37,172.29,744.94,39.8044243,32.3787977,0.06657791,0.03064137,0.01691127,0.9971673
5933,2023-01-20 11:08:59.020609,173297088,1.17,-2.19,172.84,745.09,39.8044246,32.3787962,0.06214868,0.01978253,0.009032669,0.9978299
5964,2023-01-20 11:08:59.111539,173397124,-0.15,0.05,173.54,744.99,39.8044243,32.3787954,0.05627484,-0.0005462653,-0.001285498,0.9984143
5999,2023-01-20 11:08:59.202908,173497352,-1.94,0.9,174.34,745.08,39.8044244,32.3787947,0.04912817,-0.00869373,-0.0165571,0.9986174
6029,2023-01-20 11:08:59.302628,173597069,-4.03,0.65,175.01,745.16,39.8044242,32.378794,0.04326099,-0.00721188,-0.03489339,0.9984283
6064,2023-01-20 11:08:59.403016,173697152,-4.95,-1.19,175.12,745.23,39.8044237,32.3787932,0.04290527,0.008573097,-0.04358911,0.9980909
6093,2023-01-20 11:08:59.514045,173797073,-5.61,-3.52,174.81,745.4,39.8044234,32.3787924,0.04664408,0.02845927,-0.0502701,0.9972399
6126,2023-01-20 11:08:59.620593,173897082,-6.71,-5.26,174.2,745.52,39.8044225,32.3787918,0.05305939,0.04286258,-0.06072535,0.9958212
6156,2023-01-20 11:08:59.711480,173997063,-7.93,-5.87,173.41,745.52,39.804422,32.3787911,0.06069745,0.04709812,-0.07191556,0.9944474
6192,2023-01-20 11:08:59.802644,174097085,-9.34,-6.06,172.71,745.52,39.80442,32.3787911,0.06754436,0.04743232,-0.08454366,0.9929956
6224,2023-01-20 11:08:59.902628,174197099,-9.54,-4.88,171.86,745.47,39.8044188,32.3787906,0.07415457,0.03644241,-0.08589374,0.9928722
6257,2023-01-20 11:09:00.002581,174297083,-9.21,-3.37,171.27,745.5,39.8044182,32.3787897,0.07810289,0.02318514,-0.08229652,0.9932722
6287,2023-01-20 11:09:00.102548,174397123,-8.4,-1.24,170.99,745.51,39.8044172,32.3787891,0.07904426,0.005090931,-0.07391539,0.994114
6322,2023-01-20 11:09:00.202709,174497355,-8.18,0.36,170.85,745.61,39.8044155,32.3787891,0.07926553,-0.008873233,-0.07091865,0.994288
6352,2023-01-20 11:09:00.302463,174597057,-7.46,1.71,170.69,745.63,39.8044142,32.3787888,0.07993765,-0.02018302,-0.06365787,0.9945604
6387,2023-01-20 11:09:00.402567,174697112,-7.44,2.48,170.51,745.71,39.8044118,32.3787881,0.08105209,-0.02697315,-0.06293453,0.9943551
6419,2023-01-20 11:09:00.502454,174797054,-7.16,3.07,170.18,745.76,39.80441,32.3787877,0.0836646,-0.03202212,-0.05991796,0.9941754
6452,2023-01-20 11:09:00.602423,174897075,-7.43,4.16,169.73,745.83,39.804408,32.3787883,0.08688185,-0.0419475,-0.06124852,0.9934489
6482,2023-01-20 11:09:00.702447,174997067,-7.21,4.87,169.31,745.93,39.8044062,32.3787884,0.09016306,-0.04814024,-0.05867117,0.9930311
6518,2023-01-20 11:09:00.802485,175097074,-7.21,5.76,168.8,746.09,39.8044039,32.3787895,0.09403434,-0.05610393,-0.05762352,0.9923152
6550,2023-01-20 11:09:00.902557,175197170,-6.46,5.9,168.32,746.28,39.8044019,32.37879,0.09853513,-0.05685645,-0.05081486,0.9922076
6583,2023-01-20 11:09:01.002455,175297089,-3.64,6.69,168.09,746.51,39.8044001,32.3787904,0.1016324,-0.06138483,-0.02553676,0.9925979
6613,2023-01-20 11:09:01.102533,175397092,-0.64,7.69,167.93,746.47,39.8043982,32.3787908,0.1044847,-0.06735566,0.001456253,0.9922419
6648,2023-01-20 11:09:01.202905,175497392,1.48,8.8,167.75,746.47,39.8043966,32.3787921,0.107327,-0.0749244,0.02100372,0.9911741
6678,2023-01-20 11:09:01.302511,175597066,2.54,9.5,167.21,746.8,39.8043949,32.3787929,0.1127027,-0.07982258,0.0311796,0.9899264
6713,2023-01-20 11:09:01.402493,175697114,3.17,9.87,166.42,746.74,39.8043933,32.3787938,0.1200735,-0.08216824,0.03753649,0.9886464
6743,2023-01-20 11:09:01.502409,175797058,3.73,10.43,165.52,746.65,39.8043917,32.3787946,0.1283272,-0.0860868,0.04367919,0.9870225
6776,2023-01-20 11:09:01.602441,175897116,4.28,10.91,164.64,746.71,39.8043899,32.3787951,0.1363675,-0.08920465,0.04955245,0.9853887
6807,2023-01-20 11:09:01.702425,175997095,5,10.66,163.79,746.83,39.8043882,32.3787957,0.1441827,-0.08582457,0.05616594,0.9842209
6842,2023-01-20 11:09:01.802405,176097069,4.12,10.64,163.08,747.05,39.8043875,32.378796,0.1495999,-0.08643968,0.04908982,0.9837369
6874,2023-01-20 11:09:01.902455,176197115,2.54,10.48,162.31,747.23,39.8043863,32.3787965,0.155036,-0.08687335,0.03587626,0.9834275
6907,2023-01-20 11:09:02.002424,176297080,0.59,10.49,161.56,747.21,39.8043856,32.3787965,0.1599765,-0.08946934,0.0197978,0.9828584
6937,2023-01-20 11:09:02.102458,176397102,-0.57,10.13,161.18,747.25,39.8043846,32.3787967,0.1623401,-0.08800037,0.009481953,0.9827572
6972,2023-01-20 11:09:02.202790,176497422,-1.22,9.64,161.09,747.53,39.804384,32.3787974,0.162761,-0.08465425,0.003324184,0.9830216
7002,2023-01-20 11:09:02.302446,176597074,-1.38,9.16,160.83,747.52,39.8043831,32.3787978,0.1649744,-0.08075318,0.001435972,0.9829854
7037,2023-01-20 11:09:02.402478,176697104,-0.68,8.79,160.37,747.46,39.8043825,32.3787978,0.1694467,-0.07658239,0.007165758,0.9825332
7067,2023-01-20 11:09:02.502393,176797068,-0.02,8.58,159.94,747.61,39.8043819,32.3787979,0.1736061,-0.0737597,0.01282935,0.9819653
7100,2023-01-20 11:09:02.602346,176897068,0.28,8.37,159.61,747.57,39.8043826,32.3787986,0.1766132,-0.07139067,0.01534068,0.981568
7130,2023-01-20 11:09:02.702382,176997059,-0.24,7.6,159.13,747.75,39.8043825,32.3787989,0.1805283,-0.06557548,0.009922978,0.9813312
7165,2023-01-20 11:09:02.802446,177097079,-0.03,6.21,158.57,747.71,39.8043827,32.3787985,0.1855967,-0.05330205,0.009769321,0.9811307
7197,2023-01-20 11:09:02.902542,177197180,0.77,5.12,158.03,747.82,39.8043827,32.3787986,0.1906025,-0.04263258,0.01513579,0.9806243
7230,2023-01-20 11:09:03.002438,177297080,1.37,2.6,157.77,747.9,39.804383,32.378799,0.1929489,-0.02002678,0.01614318,0.9808716
7260,2023-01-20 11:09:03.102429,177397083,1.45,0.62,157.93,748.17,39.804383,32.3787993,0.1913814,-0.002943096,0.01352674,0.9814181
7295,2023-01-20 11:09:03.202564,177497229,1.84,-0.37,158.24,748.28,39.8043831,32.3787989,0.1885851,0.006249979,0.01521202,0.9819191
7325,2023-01-20 11:09:03.302403,177597073,1.6,-1.13,158.57,748.39,39.8043832,32.3787989,0.1856944,0.01231986,0.01191109,0.9824581
7360,2023-01-20 11:09:03.402436,177697110,1.23,-1.25,159.15,748.51,39.8043836,32.3787975,0.1807403,0.01274586,0.008600458,0.9834107
7390,2023-01-20 11:09:03.502414,177797087,0.36,-0.46,159.92,748.48,39.8043838,32.3787969,0.1742469,0.004539943,0.002456068,0.9846885
7423,2023-01-20 11:09:03.602394,177897066,0.08,0.37,160.39,748.49,39.8043828,32.3787966,0.1702352,-0.003093913,0.001320167,0.9853977
7454,2023-01-20 11:09:03.702424,177997083,-0.57,0.82,160.67,748.65,39.8043825,32.3787961,0.1677675,-0.007933756,-0.003781099,0.9857874
7489,2023-01-20 11:09:03.802422,178097069,-2.13,1.28,161.18,748.78,39.8043818,32.3787954,0.1631652,-0.01406688,-0.01653969,0.9863598
7521,2023-01-20 11:09:03.902445,178197105,-2.72,2.01,161.45,748.95,39.8043813,32.3787948,0.1606112,-0.02117791,-0.0206469,0.9865745
7554,2023-01-20 11:09:04.002415,178297087,-2.98,1.37,161.8,749.08,39.804381,32.3787939,0.1577346,-0.01594933,-0.02384178,0.9870648
7585,2023-01-20 11:09:04.102391,178397072,-2.72,1.29,161.88,749.38,39.8043807,32.3787933,0.1570868,-0.0149032,-0.02172207,0.9872334
7620,2023-01-20 11:09:04.202537,178497225,-1.75,1.86,161.47,749.52,39.8043799,32.3787924,0.1606933,-0.01853055,-0.01245141,0.9867519
7650,2023-01-20 11:09:04.302408,178597073,-0.99,2.11,160.82,749.46,39.8043794,32.3787917,0.1663267,-0.01967793,-0.005441012,0.9858593
7685,2023-01-20 11:09:04.402459,178697101,-1.15,2.58,160.01,749.54,39.8043796,32.3787912,0.1732425,-0.02398654,-0.00597553,0.9845689
7715,2023-01-20 11:09:04.502446,178797104,-1.7,2.94,159.08,749.65,39.8043793,32.3787906,0.1809907,-0.02800656,-0.009981316,0.9830353
7748,2023-01-20 11:09:04.602405,178897078,-1.99,2.99,158.11,749.81,39.8043781,32.3787902,0.1892868,-0.02897323,-0.01215452,0.981419
7778,2023-01-20 11:09:04.702421,178997070,-2.04,2.56,157.32,750,39.8043775,32.3787896,0.1960943,-0.02548338,-0.01304712,0.980167
7813,2023-01-20 11:09:04.802441,179097067,-1.93,2.95,156.79,750.13,39.8043768,32.3787888,0.2005848,-0.02868111,-0.01135648,0.9791906
7845,2023-01-20 11:09:04.902448,179197110,-3.05,4.86,156.66,750.18,39.8043761,32.3787882,0.2008192,-0.04690506,-0.01749284,0.9783484
7878,2023-01-20 11:09:05.002393,179297091,-4.06,6.62,156.83,750.13,39.8043754,32.3787878,0.1982796,-0.06371596,-0.02306464,0.9778003
7908,2023-01-20 11:09:05.102388,179397062,-4.36,6.98,157.12,750.37,39.8043746,32.3787872,0.1955103,-0.0672439,-0.02519996,0.978069
7943,2023-01-20 11:09:05.202458,179497110,-3.21,3.88,157.57,750.62,39.8043742,32.3787864,0.193269,-0.03867343,-0.02092307,0.9801601
7973,2023-01-20 11:09:05.302429,179597067,-2.57,1.06,158.1,750.72,39.8043735,32.3787858,0.1896065,-0.01339053,-0.02033788,0.9815582
8009,2023-01-20 11:09:05.402475,179697100,-2.69,-0.46,158.84,750.73,39.804372,32.3787854,0.1835542,-0.0003164666,-0.02384174,0.9827203
8041,2023-01-20 11:09:05.502383,179797064,-2.83,-1.3,159.64,750.83,39.804371,32.3787849,0.1769121,0.006860182,-0.02632743,0.9838505
8074,2023-01-20 11:09:05.602366,179897101,-2.72,-0.78,159.95,750.85,39.8043707,32.3787844,0.1741513,0.002606876,-0.02461981,0.9844077
8104,2023-01-20 11:09:05.702456,179997130,-2.43,0.34,159.39,750.95,39.8043701,32.3787839,0.1787067,-0.006748246,-0.02036075,0.9836685
8139,2023-01-20 11:09:05.802459,180097075,-2.61,0.76,157.54,751.16,39.8043684,32.3787835,0.1944934,-0.01095108,-0.0210861,0.980616
8171,2023-01-20 11:09:05.902448,180197104,-2.67,0.61,154.08,751.27,39.8043674,32.378783,0.2240078,-0.01043245,-0.02150937,0.9742941
8204,2023-01-20 11:09:06.002384,180297079,-2.91,0.75,149.88,751.12,39.8043671,32.3787827,0.2595042,-0.01295698,-0.02283756,0.965385
8234,2023-01-20 11:09:06.102426,180397112,-3.68,1.47,145.56,751.14,39.8043664,32.3787824,0.2954163,-0.02177307,-0.02688015,0.9547422
8269,2023-01-20 11:09:06.202421,180497098,-4.16,2.06,141.25,751.05,39.804364,32.3787811,0.33078,-0.02901189,-0.02832194,0.9428365
8299,2023-01-20 11:09:06.302382,180597061,-4.63,3.24,137.12,751.13,39.8043627,32.3787802,0.3639251,-0.04110894,-0.02725672,0.9301213
8334,2023-01-20 11:09:06.402420,180697102,-5.97,3.81,133.48,751.18,39.8043624,32.3787806,0.3924749,-0.05111955,-0.03476643,0.9176826
8364,2023-01-20 11:09:06.502400,180797074,-7.43,4.02,130.14,751.21,39.8043615,32.3787804,0.418221,-0.05910903,-0.04399061,0.9053519
8397,2023-01-20 11:09:06.602403,180897069,-9,3.79,127,751.28,39.8043608,32.3787803,0.4421874,-0.06453941,-0.05550871,0.8928738
8427,2023-01-20 11:09:06.702392,180997062,-9.55,3.08,123.99,751.27,39.8043599,32.3787802,0.4657236,-0.06277956,-0.06088925,0.8805979
8462,2023-01-20 11:09:06.802409,181097083,-10.17,2.6,120.89,751.28,39.8043588,32.3787801,0.4894059,-0.06340273,-0.06597603,0.8672422
8494,2023-01-20 11:09:06.902452,181197113,-10.42,3.3,117.7,751.18,39.8043578,32.3787801,0.5126378,-0.07159031,-0.06286928,0.8533023
8527,2023-01-20 11:09:07.002413,181297062,-10.44,4.69,114.32,751.17,39.8043562,32.3787807,0.5364013,-0.08361614,-0.05432325,0.8380518
8557,2023-01-20 11:09:07.102419,181397065,-10.55,5.82,111,750.88,39.8043551,32.3787809,0.5593516,-0.09370365,-0.04709559,0.8222698
8592,2023-01-20 11:09:07.202541,181497185,-10.14,6.05,108.15,750.98,39.8043546,32.3787819,0.5797711,-0.09442521,-0.04060566,0.8082702
8622,2023-01-20 11:09:07.302441,181597083,-9.26,5.23,105.9,750.91,39.8043537,32.3787825,0.5969394,-0.08496404,-0.03699475,0.7969164
8658,2023-01-20 11:09:07.402479,181697120,-8.54,5.46,104.13,750.97,39.8043535,32.3787832,0.609516,-0.0832471,-0.02948373,0.7878394
8688,2023-01-20 11:09:07.502478,181797131,-7.09,5.97,102.54,751.09,39.8043529,32.3787839,0.6210279,-0.07920744,-0.01567288,0.7796184
8721,2023-01-20 11:09:07.602417,181897082,-5.34,6.03,101.23,751.17,39.8043528,32.3787847,0.6310304,-0.0701428,-0.002618691,0.772576
8751,2023-01-20 11:09:07.702431,181997075,-4.58,5,100.55,751.34,39.8043525,32.3787853,0.6365864,-0.0591009,-0.002893086,0.768932
8786,2023-01-20 11:09:07.802502,182097126,-4.19,3.81,100.67,751.34,39.8043528,32.3787857,0.636525,-0.04896469,-0.006926014,0.769669
8818,2023-01-20 11:09:07.902481,182197117,-4.05,2.13,101.58,751.24,39.8043528,32.3787862,0.6310998,-0.03678346,-0.01568136,0.7746703
8851,2023-01-20 11:09:08.002429,182297078,-3.92,-0.51,102.64,751.21,39.8043523,32.3787863,0.624691,-0.0178787,-0.02958301,0.7801066
8881,2023-01-20 11:09:08.102441,182397107,-3.43,-2.54,103.36,751.29,39.804352,32.3787866,0.6201215,-0.001179485,-0.03731309,0.7836171
8916,2023-01-20 11:09:08.202407,182497090,-3.25,-3.11,103.38,751.58,39.8043518,32.3787875,0.6199945,0.003731288,-0.0390757,0.7836237
8946,2023-01-20 11:09:08.302415,182597075,-3.36,-1.99,103.05,751.68,39.8043516,32.3787882,0.6221834,-0.004620956,-0.03378011,0.7821288
8981,2023-01-20 11:09:08.402509,182697148,-3.35,-1.02,102.6,751.64,39.8043514,32.3787888,0.6251171,-0.0113068,-0.02844916,0.7799304
9011,2023-01-20 11:09:08.502402,182797072,-3.81,-0.24,102.13,751.62,39.8043512,32.3787894,0.6281254,-0.01924575,-0.02729042,0.7773951
9044,2023-01-20 11:09:08.602371,182897071,-4.24,0.62,101.52,751.72,39.8043512,32.3787902,0.6319063,-0.02759217,-0.02523356,0.7741423
9074,2023-01-20 11:09:08.702403,182997071,-4.6,0.86,100.88,751.83,39.804351,32.3787909,0.6360923,-0.03137971,-0.02618466,0.7705298
9109,2023-01-20 11:09:08.802439,183097075,-4.77,0.5,100.17,751.87,39.804351,32.3787918,0.6409059,-0.03010448,-0.02911906,0.766476
9143,2023-01-20 11:09:08.902477,183197126,-4.91,-0.6,99.49,751.95,39.8043509,32.3787925,0.6457405,-0.02367506,-0.03617442,0.762332
9176,2023-01-20 11:09:09.002210,183297088,-5.33,-1.76,98.8,751.82,39.804351,32.3787927,0.6504828,-0.01856338,-0.04533865,0.7579393
9206,2023-01-20 11:09:09.093261,183397041,-5.53,-2.64,98.1,752,39.804351,32.3787931,0.6552805,-0.01422838,-0.05159231,0.7534874
9239,2023-01-20 11:09:09.184412,183497103,-5.75,-3.15,97.5,752.18,39.804351,32.3787935,0.6592271,-0.0124268,-0.05581566,0.7497665
9272,2023-01-20 11:09:09.282855,183597081,-6,-3.16,97.11,752.25,39.8043509,32.3787957,0.6617815,-0.01398286,-0.05745182,0.7473614
9305,2023-01-20 11:09:09.382887,183697126,-5.64,-3.45,96.85,752.36,39.8043508,32.3787966,0.6635693,-0.01013487,-0.05677478,0.7458885
9337,2023-01-20 11:09:09.482851,183797088,-5.05,-3.27,96.69,752.45,39.8043506,32.3787974,0.6646379,-0.00799273,-0.05189417,0.7453185
9368,2023-01-20 11:09:09.582844,183897077,-4.93,-2.52,96.58,752.58,39.8043505,32.3787984,0.6652205,-0.01221837,-0.04680638,0.7450782
9401,2023-01-20 11:09:09.682845,183997061,-4.85,-1.59,96.59,752.72,39.8043502,32.3787996,0.6650119,-0.01782027,-0.04087596,0.7455004
9435,2023-01-20 11:09:09.782876,184097073,-4.85,-0.71,96.68,752.94,39.80435,32.3788008,0.6642213,-0.02346907,-0.03581669,0.7463086
9469,2023-01-20 11:09:09.882901,184197114,-4.67,0.11,96.77,753.04,39.8043494,32.3788023,0.6634597,-0.0278339,-0.02979863,0.7471001
9500,2023-01-20 11:09:09.982869,184297105,-4.45,0.64,96.8,753.21,39.8043491,32.3788035,0.663227,-0.03000312,-0.02528049,0.7473891
9532,2023-01-20 11:09:10.082862,184397106,-4.77,1.07,96.53,753.31,39.8043488,32.3788051,0.6647454,-0.03475897,-0.02485452,0.7458469
9564,2023-01-20 11:09:10.182849,184497097,-4.69,1.7,96.15,753.44,39.8043485,32.3788065,0.6670467,-0.03839185,-0.0205511,0.7437422
9597,2023-01-20 11:09:10.282830,184597079,-4.44,1.99,95.53,753.58,39.8043481,32.3788074,0.6710347,-0.03893297,-0.0170116,0.7402076
9630,2023-01-20 11:09:10.382878,184697128,-4.59,2,94.78,753.73,39.8043478,32.3788087,0.6757993,-0.03997598,-0.01764456,0.7357894
9662,2023-01-20 11:09:10.482756,184797098,-4.72,1.61,93.99,753.76,39.8043476,32.3788095,0.6809514,-0.03841234,-0.02057228,0.7310311
9695,2023-01-20 11:09:10.582754,184897207,-4.79,0.93,93.46,753.95,39.8043474,32.3788107,0.6845386,-0.03462616,-0.02489449,0.727728
9727,2023-01-20 11:09:10.682642,184997059,-4.85,0.88,92.97,754.3,39.8043474,32.3788115,0.6876206,-0.03472827,-0.02540097,0.7247942
9760,2023-01-20 11:09:10.782828,185097178,-5.08,1.01,92.42,754.41,39.8043473,32.3788126,0.6909616,-0.03708524,-0.02586503,0.721476
9794,2023-01-20 11:09:10.882800,185197158,-5.37,0.8,92.1,754.58,39.8043464,32.3788132,0.692967,-0.03758035,-0.02887047,0.7194101
9825,2023-01-20 11:09:10.982792,185297172,-5.72,0.44,91.89,754.81,39.8043461,32.3788142,0.6942919,-0.03750112,-0.03324046,0.7179466
9858,2023-01-20 11:09:11.082679,185397069,-6.29,0.56,91.84,754.88,39.804346,32.3788153,0.6943842,-0.04177641,-0.03600354,0.7174881
9890,2023-01-20 11:09:11.182801,185497199,-6.75,0.65,91.86,754.89,39.8043457,32.3788163,0.694038,-0.04509792,-0.03834772,0.7175004
9923,2023-01-20 11:09:11.282655,185597065,-6.57,0.31,91.96,755.12,39.8043451,32.3788175,0.6935891,-0.04184829,-0.03934726,0.7180771
9956,2023-01-20 11:09:11.382821,185697245,-6.66,0.71,91.87,755.37,39.8043447,32.3788186,0.6939477,-0.04494522,-0.03745469,0.7176445
9987,2023-01-20 11:09:11.482639,185797063,-7.26,0.94,91.57,755.38,39.8043451,32.3788197,0.6955356,-0.0500831,-0.03965529,0.715646
10018,2023-01-20 11:09:11.582761,185897181,-7.24,0.82,91.4,755.54,39.804345,32.3788208,0.6966547,-0.04929632,-0.04018136,0.7145821
10050,2023-01-20 11:09:11.682704,185997107,-6.76,0.49,91.75,755.61,39.8043449,32.3788217,0.6947887,-0.04420002,-0.03932399,0.7167765
10083,2023-01-20 11:09:11.782780,186097163,-6.32,0.51,92.27,755.84,39.8043448,32.3788227,0.6916739,-0.04147975,-0.03668094,0.7200841
10117,2023-01-20 11:09:11.882735,186197118,-6.27,0.66,92.65,756.08,39.8043447,32.3788233,0.6892166,-0.04198814,-0.03557654,0.7224624
10148,2023-01-20 11:09:11.982775,186297164,-6.29,0.57,93.07,756.17,39.8043447,32.3788242,0.6866105,-0.04140778,-0.03643693,0.7249302
10180,2023-01-20 11:09:12.082654,186397069,-6.24,0.63,93.45,756.39,39.8043447,32.3788254,0.6842282,-0.0413526,-0.03588998,0.7272095
10212,2023-01-20 11:09:12.182802,186497247,-6.3,0.77,93.88,756.52,39.8043447,32.3788263,0.6814189,-0.0425196,-0.03559072,0.7297902
10245,2023-01-20 11:09:12.282634,186597057,-6.32,0.79,94.25,756.6,39.8043448,32.3788269,0.6790144,-0.04260935,-0.03575458,0.7320147
10279,2023-01-20 11:09:12.382800,186697190,-6.21,1.14,94.61,756.87,39.8043448,32.3788277,0.6766219,-0.04412018,-0.03304944,0.7342643
10311,2023-01-20 11:09:12.482726,186797129,-6.08,1.24,95.04,757.05,39.8043451,32.3788282,0.6738931,-0.04384503,-0.03183781,0.7368392
10342,2023-01-20 11:09:12.582724,186897151,-6.27,1.17,95.39,757.18,39.8043452,32.3788289,0.6715867,-0.04444886,-0.03357303,0.7388291
10374,2023-01-20 11:09:12.682651,186997056,-5.8,0.91,95.66,757.39,39.8043449,32.3788298,0.6701162,-0.03991,-0.03212548,0.740486
10407,2023-01-20 11:09:12.782786,187097160,-5.64,0.69,95.76,757.58,39.8043449,32.3788306,0.6696162,-0.03751727,-0.03246181,0.7410485
10441,2023-01-20 11:09:12.882738,187197112,-5.57,0.57,95.87,757.65,39.8043454,32.3788315,0.6689606,-0.0363395,-0.03273357,0.741687
10472,2023-01-20 11:09:12.982689,187297070,-5.67,0.41,96.09,757.8,39.8043456,32.3788323,0.6675431,-0.03581451,-0.03440107,0.7429133
10504,2023-01-20 11:09:13.082676,187397064,-5.79,0.51,96.38,757.96,39.8043452,32.3788332,0.6655669,-0.03702493,-0.03468713,0.7446117
10536,2023-01-20 11:09:13.182700,187497095,-5.89,0.84,96.7,758.13,39.8043452,32.3788341,0.6633599,-0.03968997,-0.03349542,0.7464961
10569,2023-01-20 11:09:13.282670,187597056,-5.7,1.42,96.98,758.35,39.8043452,32.3788355,0.6613777,-0.04230323,-0.02906834,0.7482947
10602,2023-01-20 11:09:13.382780,187697154,-5.54,2.19,97.22,758.65,39.8043453,32.3788365,0.6595085,-0.04633809,-0.02360989,0.749896
10634,2023-01-20 11:09:13.482666,187797062,-5.6,2.68,97.56,758.77,39.8043457,32.3788374,0.6570708,-0.04978812,-0.0213687,0.7518794
10665,2023-01-20 11:09:13.582639,187897064,-5.73,3.2,97.8,758.96,39.8043459,32.3788384,0.6551617,-0.05394144,-0.01930666,0.7533131
10697,2023-01-20 11:09:13.682701,187997111,-5.43,3.27,97.99,759.23,39.8043459,32.3788388,0.6540279,-0.05260877,-0.01701003,0.7544471
10730,2023-01-20 11:09:13.782674,188097060,-4.98,3.45,98.15,759.37,39.8043461,32.3788396,0.6531379,-0.05123008,-0.0131022,0.7553905
10764,2023-01-20 11:09:13.882735,188197113,-3.41,3.84,98.24,759.22,39.804346,32.3788402,0.6530321,-0.04486223,-0.0006095321,0.756
10795,2023-01-20 11:09:13.982705,188297079,-1.95,4.56,98.55,759.39,39.8043462,32.378841,0.65126,-0.04127802,0.01305662,0.7576187
10827,2023-01-20 11:09:14.082682,188397064,-1.31,4.45,99.04,759.27,39.8043463,32.3788412,0.6482371,-0.03704315,0.01649694,0.760358
10859,2023-01-20 11:09:14.182721,188497113,-1.54,4.12,99.61,759.29,39.8043465,32.3788418,0.6444801,-0.03619295,0.01297236,0.7636538
10893,2023-01-20 11:09:14.282696,188597083,-1.92,3.52,99.93,759.31,39.8043466,32.3788414,0.6424131,-0.03432761,0.006956682,0.7655576
10927,2023-01-20 11:09:14.382728,188697105,-2.66,3.01,100.22,759.16,39.8043468,32.3788416,0.6403672,-0.03513892,-0.0009773434,0.7672641
10959,2023-01-20 11:09:14.482660,188797060,-3.27,1.52,100.4,759.2,39.8043474,32.3788427,0.6394722,-0.02848941,-0.01343487,0.7681688
10990,2023-01-20 11:09:14.582645,188897074,-3.88,0.28,100.36,759.04,39.8043477,32.3788432,0.6398614,-0.02359916,-0.02443819,0.7677391
11022,2023-01-20 11:09:14.682696,188997105,-3.87,-0.31,100.55,759.02,39.8043468,32.3788424,0.6387625,-0.01949275,-0.02776747,0.7686557
11055,2023-01-20 11:09:14.782677,189097055,-4.09,-0.38,100.81,758.78,39.8043468,32.3788425,0.6370148,-0.02018526,-0.02966456,0.770016
11089,2023-01-20 11:09:14.882726,189197116,-4.22,-0.11,101.32,758.38,39.8043467,32.3788424,0.6334618,-0.02260914,-0.02918633,0.7728927
11120,2023-01-20 11:09:14.982702,189297113,-5.06,0.35,101.69,758.77,39.8043467,32.3788424,0.6306611,-0.03026221,-0.03230539,0.7747949
11152,2023-01-20 11:09:15.082652,189397057,-5.08,0.12,101.97,758.84,39.8043466,32.3788423,0.6287951,-0.02873935,-0.0337734,0.7763054
11184,2023-01-20 11:09:15.182690,189497085,-5.26,-0.47,102.38,758.94,39.8043467,32.3788423,0.6261549,-0.02555434,-0.03836083,0.778335
11217,2023-01-20 11:09:15.282681,189597059,-5.58,-1.06,102.91,759.02,39.8043466,32.3788422,0.6227001,-0.02308108,-0.04389835,0.7808872
11253,2023-01-20 11:09:15.382721,189697080,-6.06,-0.92,103.46,759.1,39.8043467,32.3788422,0.6187409,-0.02639756,-0.04654994,0.7837704
11285,2023-01-20 11:09:15.482685,189797080,-7.05,-0.47,104.04,758.81,39.8043464,32.3788421,0.6143934,-0.03460656,-0.05102262,0.7865874
11318,2023-01-20 11:09:15.582652,189897094,-7.63,0.24,104.69,758.8,39.8043464,32.3788421,0.6094111,-0.04240831,-0.05139957,0.7900493
11350,2023-01-20 11:09:15.682626,189997039,-7.76,0.64,105.43,758.72,39.8043458,32.3788421,0.6040128,-0.04551837,-0.05048472,0.7940704
11383,2023-01-20 11:09:15.782673,190097042,-8.25,1.22,106.08,758.86,39.8043457,32.3788421,0.5989688,-0.05179841,-0.05106459,0.797462
11417,2023-01-20 11:09:15.882715,190197076,-8.92,1.5,106.66,758.66,39.8043463,32.3788423,0.5944521,-0.05700228,-0.05459226,0.8002482
11448,2023-01-20 11:09:15.982707,190297068,-9.63,1.65,107.18,758.69,39.8043465,32.3788425,0.5904092,-0.06140382,-0.05900659,0.8025988
11480,2023-01-20 11:09:16.082688,190397052,-10,1.61,107.66,758.72,39.8043465,32.3788425,0.5868628,-0.06279325,-0.06208079,0.8048571
11512,2023-01-20 11:09:16.182734,190497101,-10.42,1.31,108.08,758.54,39.8043467,32.3788427,0.5838952,-0.06254829,-0.06681115,0.8066539
11545,2023-01-20 11:09:16.282666,190597033,-10.96,1.01,108.44,758.52,39.8043473,32.3788427,0.5812014,-0.06302179,-0.07230335,0.8080876
11578,2023-01-20 11:09:16.382715,190697080,-11.43,0.45,108.85,758.59,39.8043477,32.3788428,0.5785128,-0.06114998,-0.07871893,0.8095597
11610,2023-01-20 11:09:16.482670,190797049,-11.73,0.21,108.9,758.71,39.8043483,32.3788431,0.5781426,-0.06095378,-0.08207738,0.8095054
11641,2023-01-20 11:09:16.582639,190897036,-12.4,0.31,107.7,758.5,39.8043488,32.3788433,0.5861716,-0.06597441,-0.08565054,0.802941
11673,2023-01-20 11:09:16.682657,190997045,-13.11,-0.38,104.57,758.55,39.8043497,32.3788435,0.6079568,-0.06716548,-0.09237955,0.7857119
11706,2023-01-20 11:09:16.782663,191097037,-13.53,-1.18,99.67,758.66,39.8043503,32.3788437,0.6413721,-0.06811517,-0.09665688,0.758063
11740,2023-01-20 11:09:16.882748,191197115,-13.74,-2.37,93.69,758.71,39.804352,32.3788445,0.6806831,-0.06677569,-0.1013601,0.7224526
11771,2023-01-20 11:09:16.982703,191297065,-13.89,-3.8,87.34,758.99,39.8043529,32.3788448,0.7203711,-0.06466991,-0.1073467,0.682173
11803,2023-01-20 11:09:17.082671,191397035,-13.84,-5.74,80.74,758.83,39.8043548,32.3788452,0.7592734,-0.05945477,-0.1158584,0.6376095
11835,2023-01-20 11:09:17.182688,191497055,-12.78,-8.97,74.07,758.66,39.8043559,32.3788455,0.7960784,-0.04179524,-0.1288975,0.5898286
11868,2023-01-20 11:09:17.282678,191597041,-11.61,-11.84,67.31,758.58,39.8043578,32.3788461,0.829442,-0.02685497,-0.1412216,0.5397789
11901,2023-01-20 11:09:17.382716,191697072,-9.83,-14.37,60.45,758.6,39.8043591,32.3788465,0.8594913,-0.01074462,-0.1505676,0.4883529
11933,2023-01-20 11:09:17.482722,191797105,-8.49,-15.71,53.62,758.29,39.8043609,32.3788474,0.8862329,-0.004002007,-0.1548251,0.4365827
11964,2023-01-20 11:09:17.582676,191897092,-5.95,-17.25,47.36,758.41,39.8043623,32.378848,0.9073005,0.01318097,-0.157846,0.3895083
11996,2023-01-20 11:09:17.682644,191997038,-3.58,-17.91,41.42,758.57,39.8043637,32.3788491,0.9252258,0.0261168,-0.1565436,0.3446292
12029,2023-01-20 11:09:17.782673,192097034,-1.08,-18.55,35.8,758.58,39.8043651,32.3788498,0.9395564,0.04067106,-0.156293,0.3019143
12063,2023-01-20 11:09:17.882714,192197072,0.31,-19.99,31.11,758.59,39.804368,32.3788515,0.9486062,0.04918959,-0.1664913,0.2645889
12094,2023-01-20 11:09:17.982702,192297064,1.61,-21.43,27.76,758.65,39.8043699,32.3788525,0.953133,0.05808106,-0.1771454,0.2382926
12127,2023-01-20 11:09:18.082676,192397055,2.53,-22.7,25.96,758.71,39.8043734,32.3788547,0.9541623,0.06535619,-0.186887,0.2244462
12159,2023-01-20 11:09:18.182716,192497115,4.59,-22.08,26.1,758.9,39.8043758,32.3788562,0.9536127,0.08155395,-0.1775612,0.2290059
12192,2023-01-20 11:09:18.275229,192597044,6.29,-22.2,27.39,758.89,39.8043803,32.3788593,0.9494354,0.09786334,-0.1740258,0.2423018
12225,2023-01-20 11:09:18.366292,192697080,7.26,-21.72,29.63,758.98,39.8043833,32.3788613,0.9444451,0.1082418,-0.1659247,0.2622522
12257,2023-01-20 11:09:18.462905,192797058,7.32,-21.41,32.5,759.26,39.8043862,32.3788638,0.9380597,0.1121173,-0.1604475,0.2858851
12288,2023-01-20 11:09:18.562819,192897043,6.94,-21.3,36.01,759.44,39.8043893,32.3788661,0.9294315,0.1136395,-0.157102,0.3139461
12321,2023-01-20 11:09:18.662779,192997029,7.39,-21.89,39.62,759.44,39.8043927,32.3788698,0.9176052,0.1237701,-0.1568702,0.3436182
12354,2023-01-20 11:09:18.762831,193097080,6.86,-21.72,43.04,759.37,39.8043958,32.3788726,0.9078138,0.1237232,-0.1534186,0.3701748
12388,2023-01-20 11:09:18.862848,193197132,6.57,-22.36,45.62,759.63,39.8043998,32.3788773,0.8984743,0.1269393,-0.1566399,0.3899926
12419,2023-01-20 11:09:18.962728,193297067,5.93,-22.77,47.75,759.74,39.8044031,32.3788807,0.8910779,0.1262165,-0.1597427,0.4056251
12451,2023-01-20 11:09:19.062688,193397034,6.03,-22.68,49.57,759.96,39.8044085,32.3788856,0.8845699,0.1291646,-0.156697,0.4198792
12483,2023-01-20 11:09:19.162734,193497056,6.29,-22.92,50.9,760.23,39.8044124,32.3788895,0.8789141,0.1338387,-0.1560672,0.4303954
12516,2023-01-20 11:09:19.262784,193597037,7.39,-22.55,51.79,760.5,39.8044158,32.3788948,0.8748527,0.1421678,-0.1479449,0.4387863
12551,2023-01-20 11:09:19.362949,193697104,8.36,-22.31,52.27,760.23,39.8044196,32.3788992,0.8722183,0.1492397,-0.1417358,0.4437047
12583,2023-01-20 11:09:19.462889,193797104,8.39,-22.31,52.15,760.06,39.8044221,32.3789057,0.8726181,0.1493254,-0.1418141,0.4428638
12614,2023-01-20 11:09:19.562702,193897070,7.56,-21.98,52.04,760.15,39.8044254,32.3789108,0.8746872,0.141708,-0.1425835,0.4410341
12647,2023-01-20 11:09:19.662628,193997032,6.33,-21.83,51.98,760.05,39.8044299,32.3789181,0.8766377,0.1316441,-0.1461628,0.4391043
12681,2023-01-20 11:09:19.762665,194097034,5.35,-21.27,52.24,760.53,39.8044336,32.3789239,0.8776671,0.1224177,-0.1453398,0.4399895
12715,2023-01-20 11:09:19.862701,194197064,5.45,-20.26,52.69,760.8,39.8044348,32.3789324,0.8774049,0.1199787,-0.1366806,0.4439415
12746,2023-01-20 11:09:19.962689,194297062,5.15,-19.19,53.38,761.02,39.8044376,32.3789392,0.8766634,0.1144348,-0.1288871,0.4491704
12779,2023-01-20 11:09:20.062711,194397080,4.23,-18.81,54.33,760.99,39.8044403,32.378946,0.8743451,0.1069946,-0.1286836,0.4555363
12811,2023-01-20 11:09:20.162760,194497118,2.45,-18.56,55.38,760.87,39.804443,32.3789528,0.8720287,0.09369864,-0.1329429,0.4616412
12843,2023-01-20 11:09:20.262679,194597038,1.23,-19.01,56.66,760.99,39.8044464,32.3789608,0.867219,0.08771914,-0.1403841,0.4696049
12877,2023-01-20 11:09:20.362703,194697072,-0.52,-18.36,58.15,761.25,39.8044493,32.378968,0.8631058,0.07358254,-0.1417148,0.4791147
12909,2023-01-20 11:09:20.462671,194797058,-1.19,-17.24,59.77,761.03,39.8044532,32.3789755,0.8579426,0.06575265,-0.1351549,0.491268
12942,2023-01-20 11:09:20.562631,194897041,-1.86,-16.71,61.29,761.07,39.8044565,32.3789828,0.8522728,0.06025706,-0.1332119,0.5022497
12975,2023-01-20 11:09:20.662649,194997054,-2.04,-17.31,62.4,761.34,39.804461,32.3789904,0.8468479,0.06288755,-0.137852,0.5097947
13008,2023-01-20 11:09:20.762701,195097084,-2.71,-17.06,63.15,761.22,39.8044646,32.3789979,0.8440915,0.05771011,-0.1385907,0.514754
13042,2023-01-20 11:09:20.862705,195197081,-3.47,-16.6,63.53,761.2,39.804468,32.3790059,0.8431739,0.05048466,-0.138463,0.5170463
13073,2023-01-20 11:09:20.962697,195297076,-3.32,-15.05,64.09,761.28,39.8044714,32.3790136,0.8419539,0.04514235,-0.1262762,0.5226185
13106,2023-01-20 11:09:21.062661,195397040,-3.13,-13.62,64.83,761.1,39.8044741,32.3790203,0.839597,0.04065691,-0.1146431,0.5294155
13137,2023-01-20 11:09:21.162688,195497065,-3.79,-12.41,65.45,761.11,39.804477,32.3790277,0.8377792,0.03073795,-0.108729,0.5341902
13171,2023-01-20 11:09:21.262666,195597042,-4.41,-12.29,66.34,760.71,39.8044807,32.3790351,0.8338193,0.02654631,-0.1105221,0.5402088
13205,2023-01-20 11:09:21.362694,195697070,-5.34,-12.42,67.45,760.76,39.8044838,32.3790426,0.8286688,0.0215005,-0.1156595,0.5472372
13237,2023-01-20 11:09:21.462726,195797131,-6.46,-12.55,68.53,760.83,39.8044874,32.3790488,0.8236286,0.01516064,-0.1217496,0.5536994
13268,2023-01-20 11:09:21.562641,195897092,-6.79,-12.61,69.53,760.94,39.8044906,32.3790559,0.8187669,0.01414587,-0.123653,0.5604735
13301,2023-01-20 11:09:21.662604,195997040,-7.43,-12.59,70.4,760.85,39.8044951,32.3790622,0.8145678,0.01045601,-0.1265485,0.5659994
13334,2023-01-20 11:09:21.762651,196097037,-7.66,-12.52,71.04,760.77,39.8044987,32.3790692,0.8114286,0.009166075,-0.1271701,0.5703747
13368,2023-01-20 11:09:21.862705,196197074,-7.44,-12.4,71.63,760.94,39.8045025,32.3790751,0.8085551,0.01076723,-0.1251745,0.5748513
13399,2023-01-20 11:09:21.962689,196297062,-6.54,-12.34,72.18,761.17,39.804506,32.3790817,0.8056558,0.01738046,-0.1201494,0.5798109
13432,2023-01-20 11:09:22.062710,196397097,-5.92,-12.57,72.65,760.99,39.8045079,32.3790893,0.8030547,0.02340199,-0.1185156,0.583532
13463,2023-01-20 11:09:22.162662,196497070,-5.76,-13.11,73.02,761.17,39.8045108,32.3790963,0.8008562,0.02770427,-0.1213865,0.5857705
13497,2023-01-20 11:09:22.262627,196597031,-6.26,-13.84,73.36,761.34,39.8045134,32.3791013,0.7988234,0.02839337,-0.1289475,0.5868966
13531,2023-01-20 11:09:22.362683,196697067,-7.14,-14.31,73.75,761.41,39.8045161,32.3791078,0.7967765,0.02515125,-0.1365941,0.5880958
13563,2023-01-20 11:09:22.462670,196797062,-7.91,-14.83,74.32,761.35,39.8045199,32.3791145,0.7937663,0.02322873,-0.1439894,0.5904766
13594,2023-01-20 11:09:22.562648,196897065,-8.53,-15.5,75.04,761.41,39.8045229,32.3791212,0.7897884,0.02344144,-0.1516528,0.5938739
13627,2023-01-20 11:09:22.662616,196997027,-8.85,-15.37,75.65,761.52,39.8045254,32.3791275,0.7867579,0.02135676,-0.1523123,0.5977933
13660,2023-01-20 11:09:22.762707,197097094,-8.95,-15.47,76.15,761.71,39.8045283,32.3791342,0.7841174,0.02190422,-0.1533965,0.6009572
13694,2023-01-20 11:09:22.862692,197197068,-8.95,-15.44,76.74,761.59,39.8045316,32.37914,0.7810081,0.02250771,-0.1530285,0.6050637
13725,2023-01-20 11:09:22.962679,197297052,-9.12,-15.51,77.44,761.7,39.8045344,32.3791465,0.7773145,0.02263947,-0.1542511,0.6094885
13758,2023-01-20 11:09:23.062676,197397046,-9.37,-16.28,78.46,761.91,39.804539,32.379152,0.7715461,0.02659489,-0.1605298,0.6150119
13789,2023-01-20 11:09:23.162692,197497059,-9.84,-16.9,79.67,762.27,39.8045423,32.3791582,0.7647749,0.02866509,-0.1668267,0.6216644
13823,2023-01-20 11:09:23.262671,197597042,-10.15,-16.24,80.57,762.43,39.8045464,32.3791636,0.7602587,0.02419734,-0.1640266,0.6281055
13857,2023-01-20 11:09:23.362744,197697125,-10.03,-15.39,81.18,762.39,39.8045499,32.3791697,0.7572389,0.02098634,-0.1576994,0.6334664
13889,2023-01-20 11:09:23.462667,197797059,-9.65,-15.05,81.6,762.5,39.8045533,32.3791759,0.7549735,0.02212409,-0.1532942,0.637202
13920,2023-01-20 11:09:23.562629,197897034,-8.86,-15.06,82.03,762.36,39.8045567,32.379182,0.7523988,0.02798704,-0.1488762,0.6410528
13953,2023-01-20 11:09:23.662630,197997026,-8.63,-15.99,82.52,762.48,39.8045607,32.3791884,0.7491754,0.03543584,-0.153466,0.6433729
13986,2023-01-20 11:09:23.762671,198097044,-8.49,-16.83,83.06,762.76,39.8045641,32.3791947,0.7456746,0.04193368,-0.1579023,0.6459705
14020,2023-01-20 11:09:23.862694,198197062,-8.78,-17.15,83.7,762.7,39.8045688,32.379201,0.7419866,0.04277298,-0.161296,0.6493149
14051,2023-01-20 11:09:23.962693,198297068,-8.46,-16.84,84.37,762.94,39.8045725,32.3792073,0.7381883,0.04398061,-0.1572728,0.6545296
14084,2023-01-20 11:09:24.062704,198397093,-8.44,-16.74,85.01,763.13,39.8045753,32.3792133,0.7345815,0.04438274,-0.1562884,0.6587822
14115,2023-01-20 11:09:24.162660,198497069,-8.69,-16.84,85.56,763.29,39.8045785,32.3792196,0.7314608,0.04415292,-0.1580824,0.661835
14149,2023-01-20 11:09:24.262637,198597036,-9.09,-17.19,86.2,763.35,39.8045834,32.3792257,0.7277139,0.04459172,-0.1624142,0.6648802
14183,2023-01-20 11:09:24.362697,198697070,-10.26,-16.96,86.8,763.41,39.804587,32.379232,0.7247518,0.03667591,-0.1675537,0.6673195
14216,2023-01-20 11:09:24.462687,198797068,-10.49,-17.07,87.23,763.63,39.8045898,32.3792396,0.7222906,0.03650795,-0.1693871,0.6695307
14247,2023-01-20 11:09:24.562639,198897049,-10.64,-17.43,87.45,763.39,39.8045931,32.3792463,0.7209241,0.03807525,-0.1724225,0.6701411
14280,2023-01-20 11:09:24.662667,198997085,-11.06,-17.68,87.93,763.49,39.8045975,32.3792514,0.7181503,0.03763362,-0.1762857,0.6721363
14313,2023-01-20 11:09:24.762638,199097050,-10.83,-17.17,88.49,763.32,39.8046012,32.3792575,0.7149785,0.03689503,-0.1716254,0.6767491
14347,2023-01-20 11:09:24.862662,199197060,-10.49,-16.65,88.98,763.31,39.8046056,32.3792642,0.7121383,0.03649586,-0.1663378,0.6810719
14378,2023-01-20 11:09:24.962677,199297056,-10.16,-16.42,89.42,763.3,39.8046095,32.3792706,0.709483,0.03778449,-0.1627848,0.684622
14411,2023-01-20 11:09:25.062665,199397037,-9.7,-16.3,89.86,763.31,39.8046141,32.3792775,0.7067085,0.04049674,-0.1591455,0.688183
14442,2023-01-20 11:09:25.162699,199497070,-9.89,-15.32,90.26,763.27,39.8046182,32.3792841,0.7047045,0.03380278,-0.1542967,0.6916946
14476,2023-01-20 11:09:25.262672,199597037,-10,-14.8,90.53,763.38,39.8046215,32.37929,0.7032641,0.03031292,-0.1517504,0.6938822
14510,2023-01-20 11:09:25.362772,199697128,-8.42,-14.33,91.15,763.2,39.8046253,32.3792964,0.6991482,0.03788584,-0.1391412,0.7002829
14542,2023-01-20 11:09:25.462678,199797053,-7.25,-13.72,91.52,763.34,39.8046295,32.3793026,0.6966375,0.04158444,-0.128216,0.7046472
14575,2023-01-20 11:09:25.562626,199897037,-7.54,-13.79,91.14,763.81,39.8046334,32.3793089,0.6990398,0.03982699,-0.1305156,0.7019423
14608,2023-01-20 11:09:25.662624,199997033,-8.07,-13.84,90.63,763.66,39.8046385,32.3793162,0.7023444,0.03632162,-0.1341967,0.6981291
14641,2023-01-20 11:09:25.762652,200097035,-8,-13.77,90.2,763.78,39.8046428,32.3793229,0.7049691,0.03583208,-0.1334974,0.6956386
14675,2023-01-20 11:09:25.862698,200197068,-7.82,-13.82,90.14,763.41,39.804646,32.3793288,0.705221,0.03719427,-0.1327827,0.6954486
14706,2023-01-20 11:09:25.962740,200297104,-7.59,-13.95,90.37,763.55,39.8046499,32.3793352,0.7037151,0.03965657,-0.132096,0.6969671
14739,2023-01-20 11:09:26.062660,200397038,-7.48,-13.63,90.77,763.69,39.8046544,32.3793418,0.7013545,0.03881412,-0.1293132,0.6999096
14770,2023-01-20 11:09:26.162651,200497055,-7.1,-13.62,91.43,763.97,39.8046585,32.3793483,0.6971862,0.04178594,-0.1267136,0.7043642
14804,2023-01-20 11:09:26.262639,200597037,-6.82,-13.55,92.27,763.89,39.8046617,32.3793536,0.6919419,0.04397634,-0.124267,0.709817
14838,2023-01-20 11:09:26.362699,200697071,-6.74,-13.25,92.97,764,39.8046654,32.3793597,0.687656,0.04335086,-0.1216894,0.714452
14870,2023-01-20 11:09:26.462674,200797056,-6.73,-13.36,93.83,764.34,39.8046694,32.3793669,0.6821997,0.04498146,-0.1219601,0.7195179
14901,2023-01-20 11:09:26.562628,200897040,-7.07,-13.68,94.59,764.36,39.8046733,32.3793734,0.6774807,0.04583864,-0.1256494,0.7232779
14934,2023-01-20 11:09:26.662666,200997087,-7.7,-14.4,94.92,764.74,39.8046767,32.3793802,0.6754458,0.04708278,-0.1337285,0.7236525
14967,2023-01-20 11:09:26.762622,201097040,-7.73,-14.7,95.19,764.6,39.8046804,32.3793868,0.6736062,0.04918083,-0.1355114,0.7248949
15001,2023-01-20 11:09:26.862672,201197070,-7.92,-14.63,95.69,764.84,39.8046852,32.3793922,0.6705502,0.04819576,-0.136116,0.7276758
15032,2023-01-20 11:09:26.962691,201297058,-7.96,-14.3,96.09,764.83,39.8046893,32.3793984,0.6681101,0.04633437,-0.1342539,0.7303819
15065,2023-01-20 11:09:27.062674,201397035,-7.63,-13.96,96.3,764.63,39.8046929,32.3794053,0.6667615,0.04624197,-0.1301825,0.7323546
15096,2023-01-20 11:09:27.162697,201497067,-6.97,-13.92,96.49,764.48,39.8046968,32.3794117,0.6652563,0.05008097,-0.1256464,0.7342608
15130,2023-01-20 11:09:27.262704,201597085,-7.3,-13.55,96.71,764.64,39.8047003,32.3794184,0.6641232,0.0459938,-0.1255068,0.7355767
15164,2023-01-20 11:09:27.362677,201697069,-7.71,-13.8,96.97,764.9,39.8047039,32.3794249,0.6625459,0.04556442,-0.1294794,0.7363368
15196,2023-01-20 11:09:27.462683,201797074,-7.91,-14.19,97.52,764.8,39.8047076,32.3794317,0.6589345,0.04757138,-0.1327653,0.7388611
15227,2023-01-20 11:09:27.562662,201897044,-7.53,-14.95,98.35,764.9,39.8047113,32.3794383,0.6532416,0.05569122,-0.1341708,0.7430829
15260,2023-01-20 11:09:27.662665,201997040,-7.42,-15.6,99.11,765.22,39.8047143,32.3794438,0.6480107,0.06145286,-0.1366819,0.7467421
15293,2023-01-20 11:09:27.762680,202097049,-7.1,-15.64,99.92,765.12,39.8047178,32.3794501,0.6425,0.06452446,-0.1343923,0.7516442
15327,2023-01-20 11:09:27.862719,202197086,-7.11,-15.41,100.65,765.3,39.8047224,32.379456,0.6377668,0.06379607,-0.1327805,0.7560112
15359,2023-01-20 11:09:27.962774,202297141,-7.52,-15.66,100.88,765.35,39.8047262,32.3794622,0.636422,0.06345894,-0.1367451,0.756466
15391,2023-01-20 11:09:28.062690,202397053,-7.1,-15.6,100.91,765.22,39.8047292,32.3794688,0.6360185,0.06541639,-0.1335768,0.7572043
15422,2023-01-20 11:09:28.162706,202497062,-6.73,-15.32,100.99,765.14,39.8047328,32.3794751,0.6353836,0.06564445,-0.1296099,0.758406
15456,2023-01-20 11:09:28.262672,202597030,-6.85,-14.84,100.88,765.08,39.8047363,32.3794819,0.6363158,0.0616838,-0.1278219,0.7582604
15490,2023-01-20 11:09:28.362713,202697077,-6.53,-14.87,100.78,765.16,39.8047398,32.3794884,0.6368231,0.06355857,-0.1259243,0.7579972
15522,2023-01-20 11:09:28.457015,202797070,-6.73,-15.61,100.86,765.88,39.8047436,32.3794951,0.6361384,0.06742849,-0.1312247,0.7573383
15553,2023-01-20 11:09:28.547955,202897085,-7.86,-15.59,100.12,765.62,39.8047471,32.3795017,0.6416032,0.06018833,-0.138951,0.7519409
15586,2023-01-20 11:09:28.642725,202997047,-7.6,-15.31,99.6,764.98,39.8047503,32.3795062,0.6449678,0.05915273,-0.1360285,0.7496758
15619,2023-01-20 11:09:28.742719,203097040,-6.86,-15.93,99.74,765.92,39.8047539,32.3795126,0.6434414,0.06758101,-0.134527,0.7505454
15653,2023-01-20 11:09:28.842743,203197064,-7.12,-16.58,100.16,766.19,39.8047584,32.379519,0.6406227,0.07094569,-0.1395381,0.7517302
15685,2023-01-20 11:09:28.942736,203297058,-7.44,-16.31,100.69,766.16,39.8047623,32.3795253,0.637418,0.06798688,-0.139839,0.7546663
15717,2023-01-20 11:09:29.042717,203397038,-7.6,-16.01,101.32,766.15,39.8047661,32.3795315,0.6334234,0.06585073,-0.1388721,0.7583883
15748,2023-01-20 11:09:29.142756,203497070,-7.63,-15.7,101.93,766.15,39.8047699,32.3795378,0.629509,0.06432119,-0.1370661,0.7620984
15782,2023-01-20 11:09:29.242755,203597077,-7.62,-15.61,102.49,766.09,39.8047736,32.3795445,0.6258389,0.06447242,-0.1361772,0.7652612
15816,2023-01-20 11:09:29.342722,203697069,-7.58,-15.8,102.99,766.19,39.8047773,32.379551,0.622418,0.06652077,-0.1366729,0.7677834
15848,2023-01-20 11:09:29.442686,203797053,-7.99,-15.7,103.37,766.15,39.8047816,32.3795578,0.6200866,0.0640852,-0.138686,0.769514
15880,2023-01-20 11:09:29.542668,203897050,-8.32,-15.37,103.59,766.19,39.8047855,32.3795644,0.6188769,0.06037914,-0.1390514,0.7707207
15913,2023-01-20 11:09:29.642705,203997049,-8.45,-15.16,103.58,766.29,39.8047883,32.3795711,0.6190485,0.05820397,-0.1387717,0.7708007
15947,2023-01-20 11:09:29.742812,204097045,-8.55,-15.38,103.74,766.28,39.8047916,32.3795777,0.6179976,0.05937023,-0.14053,0.7712363
15981,2023-01-20 11:09:29.842927,204197127,-8.74,-15.51,104.22,766.59,39.8047966,32.3795842,0.6148209,0.05986344,-0.142254,0.773418
16013,2023-01-20 11:09:29.942793,204297063,-9.35,-15.25,104.93,766.65,39.8048004,32.3795908,0.6103723,0.0556748,-0.1446836,0.7767964
16045,2023-01-20 11:09:30.042713,204397042,-9.55,-14.69,105.45,766.78,39.8048033,32.3795967,0.6070068,0.05141181,-0.1428943,0.7800516
16076,2023-01-20 11:09:30.142692,204497066,-9.64,-14.57,105.93,766.71,39.8048067,32.3796031,0.6037732,0.05067933,-0.1426629,0.7826473
16110,2023-01-20 11:09:30.242643,204597036,-9.36,-14.56,106.48,766.83,39.8048104,32.3796098,0.5998787,0.0527464,-0.1404595,0.7858973
16144,2023-01-20 11:09:30.342703,204697081,-9.25,-15.14,107.03,766.97,39.8048139,32.3796164,0.5959955,0.05809462,-0.1423958,0.788123
16176,2023-01-20 11:09:30.442679,204797056,-9.77,-15.25,107.56,766.95,39.8048182,32.3796228,0.5926084,0.05681847,-0.1462902,0.7900545
16209,2023-01-20 11:09:30.542686,204897082,-10.17,-15.33,107.88,767.23,39.8048218,32.3796293,0.5905876,0.05574337,-0.1492701,0.7910864
16242,2023-01-20 11:09:30.642635,204997043,-10.49,-15.12,108.03,767.4,39.8048261,32.379636,0.5897152,0.05281779,-0.1503507,0.7917328
16275,2023-01-20 11:09:30.742634,205097048,-10.19,-15.03,108.28,767.67,39.8048299,32.3796426,0.5878542,0.05400263,-0.1477058,0.7935327
16309,2023-01-20 11:09:30.842661,205197063,-9.76,-15.04,108.67,767.61,39.8048323,32.3796492,0.5849096,0.05679899,-0.1445966,0.796082
16384,2023-01-20 11:09:30.942698,205297065,-9.64,-15.05,109.01,767.79,39.8048354,32.3796558,0.5824829,0.05785623,-0.1436505,0.7979543
16416,2023-01-20 11:09:31.042686,205397036,-10.56,-15.25,109.36,767.74,39.8048401,32.3796622,0.5804962,0.05506631,-0.1508665,0.7982677
16447,2023-01-20 11:09:31.142754,205497110,-11.22,-15.11,109.57,767.79,39.8048439,32.3796687,0.5793174,0.05103888,-0.1546381,0.7986698
16481,2023-01-20 11:09:31.242676,205597039,-10.91,-15.09,109.68,767.85,39.8048468,32.3796759,0.5784403,0.05262099,-0.152421,0.7996284
16515,2023-01-20 11:09:31.342727,205697098,-10.9,-15.28,109.52,767.94,39.8048501,32.3796827,0.5795268,0.05381481,-0.1532686,0.7985995
16546,2023-01-20 11:09:31.442876,205797258,-11.16,-15.31,109.54,767.9,39.8048544,32.3796882,0.5795738,0.05271393,-0.1552599,0.7982543
16577,2023-01-20 11:09:31.542646,205897045,-11.29,-15.1,109.43,768.37,39.8048581,32.3796945,0.5803404,0.05038577,-0.1551835,0.7978624
16610,2023-01-20 11:09:31.642637,205997036,-11.4,-16.07,109.54,768.24,39.8048617,32.3797009,0.5796967,0.05689628,-0.1606546,0.7968091
16643,2023-01-20 11:09:31.742657,206097037,-10.89,-16.62,109.96,768.71,39.8048654,32.3797073,0.5764566,0.06391671,-0.1595135,0.7988541
16677,2023-01-20 11:09:31.842749,206197116,-10.54,-16.66,110.59,768.76,39.8048678,32.3797135,0.5718668,0.06686387,-0.1569043,0.8024204
16709,2023-01-20 11:09:31.942701,206297065,-10.12,-16.16,111.03,768.66,39.8048712,32.3797198,0.5685192,0.06601266,-0.1512889,0.8059404
16741,2023-01-20 11:09:32.042675,206397037,-9.66,-15.87,111.28,768.95,39.8048724,32.3797252,0.5665409,0.06653633,-0.146512,0.8081698
16772,2023-01-20 11:09:32.142705,206497066,-9.7,-16.68,111.43,768.9,39.8048752,32.3797312,0.5654251,0.07229903,-0.1506224,0.8077006
16806,2023-01-20 11:09:32.242689,206597052,-10.16,-18.05,111.69,768.88,39.8048795,32.3797382,0.5637383,0.08024517,-0.1601408,0.8062969
16840,2023-01-20 11:09:32.342699,206697068,-10.76,-18.58,112.22,769.06,39.8048831,32.3797444,0.5603807,0.08185402,-0.1664516,0.8071972
16872,2023-01-20 11:09:32.443002,206797384,-10.92,-18.33,112.79,769.34,39.8048872,32.3797514,0.5565152,0.0800745,-0.1660454,0.8101283
