LineNo,UTC_Approx,TimeUS,DesRoll,Roll,DesPitch,Pitch,DesYaw,Yaw,ErrRP,ErrYaw,AEKF
673,2023-01-20 11:08:47.421773,161676505,0,-2.08,-0.01,0.43,175.08,173.64,0.01,0,3
1026,2023-01-20 11:08:47.516772,161776504,0,-2.08,0,0.43,179.23,173.64,0.01,0,3
1142,2023-01-20 11:08:47.631305,161893810,0,-2.08,0,0.43,186.08,173.64,0.03,0,3
1405,2023-01-20 11:08:47.739239,161996201,0,-2.09,0,0.43,195.64,173.64,0.03,0,3
1824,2023-01-20 11:08:47.842783,162096728,-0.01,-2.09,0,0.42,200.64,173.64,0.05,0,3
1869,2023-01-20 11:08:47.942548,162196735,-0.01,-2.1,0,0.43,200.71,173.64,0.05,0,3
1916,2023-01-20 11:08:48.042418,162296742,-0.01,-2.1,0,0.42,200.78,173.64,0.1,0,3
1962,2023-01-20 11:08:48.142412,162396732,-0.01,-2.1,0,0.42,200.81,173.64,0.1,0,3
2015,2023-01-20 11:08:48.242432,162496735,-0.01,-2.1,0,0.41,200.81,173.64,0.09,0,3
2056,2023-01-20 11:08:48.342500,162596770,-0.01,-2.11,0,0.4,200.81,173.64,0.09,0,3
2112,2023-01-20 11:08:48.438663,162696757,-0.01,-2.11,0,0.39,200.81,173.64,0.11,0,3
2173,2023-01-20 11:08:48.529625,162796761,-0.01,-2.11,0,0.39,200.81,173.64,0.11,0,3
2233,2023-01-20 11:08:48.622658,162896785,-0.01,-2.11,0,0.4,200.81,173.64,0.11,0,3
2287,2023-01-20 11:08:48.722624,162996731,-0.01,-2.1,0,0.39,200.81,173.64,0.11,0,3
2342,2023-01-20 11:08:48.822631,163096723,-0.01,-2.1,0,0.39,200.81,173.64,0.1,0,3
2396,2023-01-20 11:08:48.922664,163196755,-0.01,-2.1,0,0.39,200.8,173.65,0.1,0,3
2438,2023-01-20 11:08:49.022640,163296734,-0.01,-2.1,0,0.39,200.73,173.64,0.11,0,3
2482,2023-01-20 11:08:49.122639,163396749,-0.01,-2.1,0,0.39,200.67,173.65,0.11,0,3
2524,2023-01-20 11:08:49.225112,163496739,-0.01,-2.1,0,0.38,200.6,173.65,0.1,0,3
2564,2023-01-20 11:08:49.336147,163596738,-0.01,-2.1,0,0.38,173.64,173.65,0.1,0,3
2605,2023-01-20 11:08:49.442469,163696742,-0.01,-2.1,0,0.38,173.64,173.65,0.09,0,3
2645,2023-01-20 11:08:49.542448,163796786,-0.01,-2.1,0,0.38,173.63,173.64,0.09,0,3
2685,2023-01-20 11:08:49.638555,163896731,-0.01,-2.1,0,0.37,173.62,173.64,0.08,0,3
2723,2023-01-20 11:08:49.729615,163996768,-0.01,-2.1,0,0.37,173.63,173.64,0.08,0,3
2766,2023-01-20 11:08:49.822611,164096707,-0.01,-2.1,0,0.38,173.64,173.65,0.08,0,3
2804,2023-01-20 11:08:49.922605,164196725,-0.01,-2.1,0,0.37,173.64,173.65,0.08,0,3
2846,2023-01-20 11:08:50.022609,164296739,-0.01,-2.1,0,0.37,173.62,173.64,0.09,0,3
2885,2023-01-20 11:08:50.122638,164396730,-0.01,-2.1,0,0.37,173.62,173.63,0.09,0,3
2928,2023-01-20 11:08:50.222692,164496764,-0.01,-2.09,0,0.37,173.63,173.64,0.09,0,3
2966,2023-01-20 11:08:50.322645,164596758,-0.01,-2.09,0,0.37,173.64,173.65,0.09,0,3
3006,2023-01-20 11:08:50.422600,164696755,-0.01,-2.09,0,0.37,173.64,173.65,0.08,0,3
3048,2023-01-20 11:08:50.522527,164796729,-0.01,-2.09,0,0.37,173.62,173.63,0.08,0,3
3088,2023-01-20 11:08:50.622519,164896745,-0.01,-2.09,0,0.37,173.58,173.6,0.07,0,3
3126,2023-01-20 11:08:50.722578,164996746,-0.01,-2.08,0,0.37,173.58,173.63,0.07,0,3
3167,2023-01-20 11:08:50.822574,165096712,-0.01,-2.07,0,0.37,173.58,173.61,0.06,0.01,3
3205,2023-01-20 11:08:50.922611,165196813,-0.01,-2.07,0,0.37,173.58,173.64,0.06,0.01,3
3247,2023-01-20 11:08:51.022500,165296749,-0.01,-2.07,0,0.37,173.58,173.63,0.06,0.01,3
3285,2023-01-20 11:08:51.122516,165396750,-0.01,-2.08,0,0.37,173.58,173.66,0.06,0.01,3
3328,2023-01-20 11:08:51.222555,165496788,-0.01,-2.07,0,0.38,173.58,173.65,0.05,0,3
3366,2023-01-20 11:08:51.322475,165596752,-0.01,-2.07,0,0.36,173.58,173.63,0.05,0.01,3
3406,2023-01-20 11:08:51.422450,165696765,-0.01,-2.08,0,0.37,173.58,173.65,0.06,0.01,3
3446,2023-01-20 11:08:51.522417,165796748,-0.01,-2.07,0,0.37,173.58,173.65,0.06,0.01,3
3487,2023-01-20 11:08:51.622400,165896742,-0.01,-2.07,0,0.37,173.58,173.67,0.08,0.01,3
3524,2023-01-20 11:08:51.722409,165996745,-0.01,-2.06,0,0.37,173.58,173.66,0.08,0,3
3567,2023-01-20 11:08:51.822405,166096736,-0.01,-2.07,0,0.36,173.58,173.65,0.09,0,3
3605,2023-01-20 11:08:51.922430,166196764,-0.01,-2.08,0,0.36,173.58,173.66,0.09,0,3
3647,2023-01-20 11:08:52.022421,166296755,-0.01,-2.07,0,0.36,173.58,173.67,0.08,0,3
3683,2023-01-20 11:08:52.122422,166396749,-0.01,-2.07,0,0.36,173.58,173.68,0.08,0,3
3718,2023-01-20 11:08:52.222462,166496785,-0.01,-2.06,0,0.35,173.58,173.66,0.08,0,3
3748,2023-01-20 11:08:52.322424,166596749,-0.01,-2.07,0,0.35,173.58,173.67,0.08,0,3
3781,2023-01-20 11:08:52.422439,166696772,-0.01,-2.06,0,0.35,173.58,173.67,0.07,0,3
3813,2023-01-20 11:08:52.522435,166796793,-0.01,-2.07,0,0.36,173.58,173.69,0.07,0,3
3846,2023-01-20 11:08:52.622362,166896733,-0.01,-2.07,0,0.35,173.58,173.68,0.06,0,3
3876,2023-01-20 11:08:52.722393,166996731,-0.01,-2.06,0,0.35,173.58,173.68,0.06,0,3
3911,2023-01-20 11:08:52.822396,167096708,-0.01,-2.05,0,0.35,173.58,173.68,0.06,0.01,3
3941,2023-01-20 11:08:52.922440,167196750,-0.01,-2.06,0,0.35,173.58,173.68,0.06,0,3
3976,2023-01-20 11:08:53.022439,167296755,-0.01,-2.06,0,0.35,173.58,173.71,0.06,0,3
4006,2023-01-20 11:08:53.122387,167396734,-0.01,-2.07,0,0.34,173.58,173.68,0.06,0.01,3
4041,2023-01-20 11:08:53.222418,167496787,0,-2.06,0.06,0.35,173.58,173.72,0.09,0.01,3
4071,2023-01-20 11:08:53.322446,167596805,-0.03,-2.06,0.17,0.34,173.58,173.7,0.09,0.01,3
4104,2023-01-20 11:08:53.422426,167696786,-0.02,-2.07,0.26,0.34,173.58,173.72,0.08,0.01,3
4136,2023-01-20 11:08:53.522409,167796810,-0.03,-2.05,0.21,0.38,173.58,173.71,0.08,0.02,3
4169,2023-01-20 11:08:53.622387,167896812,-0.05,-1.99,0.16,0.43,173.58,173.73,0.08,0.04,3
4199,2023-01-20 11:08:53.722392,167996785,-0.04,-1.94,0.26,0.42,173.58,173.57,0.08,0.05,3
4234,2023-01-20 11:08:53.822411,168096783,-0.21,-1.8,0.27,0.5,173.58,173.04,0.1,0.07,3
4264,2023-01-20 11:08:53.922433,168196821,-0.39,-1.37,0.54,0.54,173.58,173.18,0.1,0.08,3
4300,2023-01-20 11:08:54.022448,168296852,-0.91,-0.35,0.82,0.89,173.58,173.43,0.13,0.09,3
4331,2023-01-20 11:08:54.122382,168396799,-1.23,-0.82,0.61,1.18,173.58,173.84,0.13,0.1,3
4366,2023-01-20 11:08:54.222352,168496773,-1.58,-1.4,0.3,1.26,173.59,174.22,0.13,0.1,3
4396,2023-01-20 11:08:54.322442,168596839,-2.01,-1.25,-0.12,0.68,173.6,174.02,0.13,0.11,3
4429,2023-01-20 11:08:54.422404,168696790,-2.62,-0.66,-0.33,0,173.61,173.23,0.13,0.1,3
4461,2023-01-20 11:08:54.522396,168796820,-3.22,-0.72,-0.35,-0.18,173.61,172.33,0.13,0.11,3
4494,2023-01-20 11:08:54.622395,168896844,-4.05,-1.13,-0.1,-0.66,173.6,172.28,0.14,0.11,3
4524,2023-01-20 11:08:54.722370,168996803,-4.75,-2.32,0.41,-0.08,173.56,172.82,0.14,0.12,3
4559,2023-01-20 11:08:54.822376,169096793,-5.27,-3.41,1.21,0.78,173.48,173.44,0.13,0.12,3
4589,2023-01-20 11:08:54.922513,169196920,-5.61,-4.47,2.27,1.25,173.38,174.46,0.13,0.12,3
4624,2023-01-20 11:08:55.022424,169296820,-5.75,-4.71,3.16,2.3,173.29,175.3,0.13,0.13,3
4654,2023-01-20 11:08:55.122422,169396808,-5.61,-4.99,4,3.38,173.21,176.08,0.13,0.13,3
4689,2023-01-20 11:08:55.222428,169496807,-5.39,-5.05,4.56,4.24,173.16,176.63,0.15,0.13,3
4719,2023-01-20 11:08:55.322421,169596806,-4.92,-5.35,4.39,4.82,173.17,176.93,0.15,0.13,3
4752,2023-01-20 11:08:55.422410,169696805,-4.16,-5.98,4.11,4.16,173.19,176.76,0.16,0.14,3
4786,2023-01-20 11:08:55.522397,169796820,-3.52,-5.52,4.07,3.12,173.2,175.53,0.16,0.14,3
4819,2023-01-20 11:08:55.622374,169896812,-2.97,-4.83,4.15,3.3,173.19,173.75,0.14,0.15,3
4849,2023-01-20 11:08:55.722473,169996882,-2.52,-3.8,4.17,4.08,173.19,172.36,0.14,0.15,3
4884,2023-01-20 11:08:55.822399,170096786,-2.21,-2.75,3.94,4.48,173.2,171.35,0.13,0.15,3
4914,2023-01-20 11:08:55.922434,170196824,-2.01,-2.21,3.72,4.15,173.21,170.38,0.13,0.15,3
4949,2023-01-20 11:08:56.022430,170296821,-1.85,-2.34,3.52,3.7,173.22,169.41,0.12,0.14,3
4979,2023-01-20 11:08:56.122417,170396801,-1.81,-2.2,3.43,3.85,173.22,168.48,0.12,0.14,3
5014,2023-01-20 11:08:56.222430,170496809,-1.84,-1.46,3.37,3.65,173.22,168.52,0.13,0.14,3
5044,2023-01-20 11:08:56.322443,170596824,-1.67,-1.72,3.13,2.97,173.23,169.59,0.13,0.14,3
5077,2023-01-20 11:08:56.422418,170696808,-1.37,-2.06,2.91,2.39,173.23,171.09,0.17,0.14,3
5109,2023-01-20 11:08:56.522479,170796901,-0.86,-2.21,3.33,2.13,173.23,172.54,0.17,0.14,3
5142,2023-01-20 11:08:56.622368,170896807,-0.1,-2.36,3.67,3.02,173.22,173.57,0.17,0.13,3
5172,2023-01-20 11:08:56.722404,170996810,0.74,-1.58,3.84,3.56,173.22,173.93,0.17,0.12,3
5207,2023-01-20 11:08:56.822413,171096794,1.58,-0.83,3.53,4.17,173.22,173.76,0.15,0.12,3
5237,2023-01-20 11:08:56.922431,171196820,2.18,-0.47,3.06,3.63,173.2,173.35,0.15,0.12,3
5272,2023-01-20 11:08:57.022383,171296776,2.67,-0.26,2.6,2.87,173.18,172.95,0.18,0.11,3
5303,2023-01-20 11:08:57.122413,171396798,3,0.08,2.53,2.72,173.18,172.81,0.18,0.1,3
5338,2023-01-20 11:08:57.222420,171496798,3.33,0.6,2.51,3.23,173.18,172.94,0.19,0.1,3
5368,2023-01-20 11:08:57.322475,171596852,3.7,1.29,2.9,3.8,173.2,173.05,0.19,0.09,3
5401,2023-01-20 11:08:57.422414,171696797,3.93,2.1,3.08,4.24,173.21,173.12,0.17,0.09,3
5433,2023-01-20 11:08:57.522368,171796787,4.06,2.77,3.37,3.45,173.23,173.26,0.17,0.08,3
5466,2023-01-20 11:08:57.622374,171896814,4.06,2.53,3.5,2.89,173.24,173.91,0.16,0.08,3
5496,2023-01-20 11:08:57.722399,171996806,4.04,2.24,3.58,2.49,173.25,174.57,0.16,0.07,3
5531,2023-01-20 11:08:57.822493,172096875,4.09,2.14,3.7,1.84,173.26,175.37,0.14,0.06,3
5561,2023-01-20 11:08:57.922434,172196821,4.46,1.71,3.73,2.16,173.26,176.35,0.14,0.06,3
5598,2023-01-20 11:08:58.022433,172296823,5.07,2.81,2.79,1.99,177.96,181.44,0.16,0.05,3
5628,2023-01-20 11:08:58.122458,172396845,5.29,4.76,1.51,-0.29,177.85,180.86,0.16,0.04,3
5663,2023-01-20 11:08:58.222701,172497086,4.87,5.47,0.07,-1.94,177.72,180.13,0.16,0.03,3
5693,2023-01-20 11:08:58.322427,172596812,4.46,4.4,-1.26,-3.71,177.61,179.23,0.16,0.03,3
5726,2023-01-20 11:08:58.422418,172696812,3.97,4.02,-2,-4.44,177.55,178.01,0.14,0.03,3
5758,2023-01-20 11:08:58.522384,172796813,3.41,3.97,-2.16,-4.28,177.54,176.3,0.14,0.03,3
5791,2023-01-20 11:08:58.622361,172896809,2.77,3.5,-2.15,-4.49,177.54,174.66,0.13,0.04,3
5821,2023-01-20 11:08:58.722396,172996807,2.03,2.82,-1.98,-4.12,177.55,173.88,0.13,0.05,3
5856,2023-01-20 11:08:58.822413,173096800,1.41,2.07,-1.38,-3.78,177.57,173.76,0.11,0.06,3
5886,2023-01-20 11:08:58.922416,173196819,0.52,1.84,-0.75,-3.07,177.58,174.32,0.11,0.06,3
5921,2023-01-20 11:08:59.020367,173296822,-0.71,0.8,0.52,-1.93,177.58,175.27,0.14,0.06,3
5953,2023-01-20 11:08:59.111288,173396848,-2.5,-0.57,1.6,0.19,177.55,177.48,0.14,0.07,3
5988,2023-01-20 11:08:59.202664,173497108,-4.51,-2.48,1.55,0.87,177.55,179.29,0.14,0.07,3
6018,2023-01-20 11:08:59.302361,173596802,-5.75,-4.52,0.34,0.63,177.67,180.78,0.14,0.08,3
6051,2023-01-20 11:08:59.402764,173696925,-6.71,-5.4,-1.77,-1.25,177.9,181.31,0.12,0.09,3
6082,2023-01-20 11:08:59.513754,173796811,-7.57,-6.09,-3.71,-3.44,178.14,181.5,0.12,0.11,3
6115,2023-01-20 11:08:59.620326,173896788,-8.51,-7.19,-4.98,-5.07,178.32,181.23,0.11,0.12,3
6145,2023-01-20 11:08:59.711249,173996809,-9.52,-8.35,-5.29,-5.48,178.37,180.68,0.11,0.13,3
6181,2023-01-20 11:08:59.802382,174096823,-10.04,-9.72,-4.86,-5.52,178.29,180.01,0.13,0.15,3
6211,2023-01-20 11:08:59.902329,174196800,-10.26,-9.91,-3.97,-4.15,178.13,179.54,0.13,0.17,3
6246,2023-01-20 11:09:00.002311,174296813,-10.17,-9.59,-2.71,-2.46,177.91,179.25,0.16,0.17,3
6276,2023-01-20 11:09:00.102341,174396916,-10.07,-8.88,-1.55,-0.59,177.7,179.61,0.16,0.18,3
6311,2023-01-20 11:09:00.202456,174497102,-9.78,-8.79,-0.42,0.77,177.5,179.92,0.14,0.18,3
6341,2023-01-20 11:09:00.302210,174596804,-9.49,-8.04,0.68,2.24,177.31,180.41,0.14,0.18,3
6374,2023-01-20 11:09:00.402268,174696813,-9.12,-8.03,1.45,3.1,177.19,180.65,0.17,0.18,3
6408,2023-01-20 11:09:00.502200,174796800,-9.26,-7.92,2.35,3.84,177.04,181.51,0.17,0.18,3
6441,2023-01-20 11:09:00.602170,174896822,-9.49,-8.38,3.33,5.08,176.88,181.98,0.15,0.18,3
6471,2023-01-20 11:09:00.702186,174996806,-9.61,-8.02,4.3,5.73,176.72,182.47,0.15,0.19,3
6507,2023-01-20 11:09:00.802233,175096821,-9.48,-7.91,5.17,6.59,176.57,182.44,0.14,0.18,3
6537,2023-01-20 11:09:00.902310,175196923,-8.39,-7.12,6.35,6.76,176.38,182.54,0.14,0.18,3
6572,2023-01-20 11:09:01.002179,175296813,-5.89,-4.26,7.75,7.61,176.2,182.65,0.14,0.17,3
6602,2023-01-20 11:09:01.102265,175396824,-3.84,-1.35,9.14,8.46,176.08,182.95,0.14,0.15,3
6637,2023-01-20 11:09:01.202644,175497131,-2.22,0.66,10.34,9.46,176.02,183.08,0.14,0.12,3
6667,2023-01-20 11:09:01.302232,175596786,-1.38,1.87,11.08,10.12,176,182.84,0.14,0.11,3
6700,2023-01-20 11:09:01.402194,175696815,-0.55,2.64,11.49,10.48,175.99,182.19,0.12,0.1,3
6732,2023-01-20 11:09:01.502142,175796791,0.02,3.25,11.73,11.02,175.99,181.46,0.12,0.09,3
6765,2023-01-20 11:09:01.602200,175896875,1.13,3.83,11.85,11.49,175.99,180.69,0.12,0.08,3
6796,2023-01-20 11:09:01.702173,175996842,1.91,4.55,11.98,11.31,175.99,180.05,0.12,0.08,3
6831,2023-01-20 11:09:01.802152,176096816,1.26,3.67,12.02,11.37,175.99,179.48,0.14,0.08,3
6861,2023-01-20 11:09:01.902156,176196816,-0.31,2.21,11.82,10.97,175.99,178.86,0.14,0.09,3
6896,2023-01-20 11:09:02.002171,176296827,-1.75,0.39,11.41,10.76,176,178.2,0.13,0.1,3
6926,2023-01-20 11:09:02.102204,176396848,-1.9,-0.76,10.97,10.31,176.02,177.86,0.13,0.11,3
6961,2023-01-20 11:09:02.202516,176497148,-1.97,-1.37,10.54,9.72,176.03,177.76,0.14,0.12,3
6991,2023-01-20 11:09:02.302192,176596820,-1.57,-1.38,10.17,9.33,176.04,177.67,0.14,0.13,3
7024,2023-01-20 11:09:02.402196,176696822,-1.02,-0.53,9.65,9.05,176.05,177.33,0.12,0.14,3
7056,2023-01-20 11:09:02.502132,176796807,-0.54,0.04,8.91,8.8,176.06,176.98,0.12,0.15,3
7089,2023-01-20 11:09:02.602087,176896809,-0.4,0.28,8.07,8.55,176.07,176.66,0.14,0.15,3
7119,2023-01-20 11:09:02.702129,176996806,0,-0.09,6.85,7.65,176.08,176.52,0.14,0.16,3
7154,2023-01-20 11:09:02.802185,177096818,0.48,0.26,5.56,6.13,176.07,176.21,0.12,0.17,3
7184,2023-01-20 11:09:02.902301,177196939,0.82,0.94,3.85,5.06,176.05,175.93,0.12,0.17,3
7219,2023-01-20 11:09:03.002185,177296827,0.93,1.43,1.85,2.54,176.02,175.78,0.14,0.17,3
7249,2023-01-20 11:09:03.102148,177396802,0.99,1.67,0.52,0.61,176,176.35,0.14,0.17,3
7284,2023-01-20 11:09:03.202340,177497005,0.94,2.24,-0.1,-0.32,175.99,176.97,0.12,0.18,3
7314,2023-01-20 11:09:03.302135,177596805,0.7,1.93,-0.36,-1.12,175.98,177.57,0.12,0.18,3
7347,2023-01-20 11:09:03.402128,177696802,0.22,1.5,-0.29,-1.29,175.98,178.27,0.13,0.18,3
7379,2023-01-20 11:09:03.502148,177796821,-0.36,0.49,-0.13,-0.64,175.98,179.19,0.13,0.18,3
7412,2023-01-20 11:09:03.602127,177896799,-1.03,0.08,-0.08,0.04,175.98,179.73,0.13,0.17,3
7443,2023-01-20 11:09:03.702162,177996821,-1.45,-0.57,0.01,0.65,175.98,180.02,0.13,0.17,3
7478,2023-01-20 11:09:03.802169,178096816,-1.43,-2.12,0.38,1.26,175.97,180.46,0.11,0.18,3
7508,2023-01-20 11:09:03.902158,178196818,-1.12,-2.73,0.69,1.95,175.96,180.61,0.11,0.18,3
7543,2023-01-20 11:09:04.002149,178296821,-0.65,-3.01,1.03,1.26,175.96,180.84,0.11,0.19,3
7573,2023-01-20 11:09:04.102124,178396805,-0.28,-2.74,1.31,1.06,175.96,180.84,0.11,0.19,3
7609,2023-01-20 11:09:04.202335,178497023,-0.14,-1.75,1.64,1.52,175.95,180.35,0.1,0.19,3
7639,2023-01-20 11:09:04.302146,178596811,-0.34,-1.08,2.01,1.83,175.95,179.58,0.1,0.19,3
7672,2023-01-20 11:09:04.402177,178696819,-0.7,-1.33,2.29,2.35,175.95,178.65,0.13,0.19,3
7704,2023-01-20 11:09:04.502192,178796850,-0.92,-1.76,2.21,2.48,175.95,177.72,0.13,0.19,3
7737,2023-01-20 11:09:04.602142,178896816,-1.07,-1.92,2,2.3,175.96,176.71,0.14,0.2,3
7767,2023-01-20 11:09:04.702171,178996820,-1.21,-2.05,2.09,2.05,175.95,175.81,0.14,0.21,3
7802,2023-01-20 11:09:04.802188,179096814,-1.97,-2.04,3.19,2.61,175.92,175.12,0.11,0.21,3
7832,2023-01-20 11:09:04.902153,179196815,-3.17,-3.21,5.08,4.51,175.84,174.82,0.11,0.21,3
7867,2023-01-20 11:09:05.002136,179296833,-3.95,-4.27,6.22,6.28,175.77,174.82,0.1,0.21,3
7897,2023-01-20 11:09:05.102129,179396803,-3.73,-4.57,5.21,6.65,175.84,174.96,0.1,0.2,3
7932,2023-01-20 11:09:05.202194,179496846,-3.09,-3.4,2.64,3.55,175.99,175.28,0.08,0.2,3
7962,2023-01-20 11:09:05.302176,179596814,-2.73,-2.76,0.76,0.75,176.08,175.67,0.08,0.2,3
7996,2023-01-20 11:09:05.402194,179696819,-2.66,-2.87,-0.1,-0.75,176.12,176.28,0.12,0.2,3
8030,2023-01-20 11:09:05.502121,179796802,-2.59,-3.12,-0.08,-1.32,176.12,176.92,0.12,0.2,3
8063,2023-01-20 11:09:05.602097,179896832,-2.45,-3.13,0.5,-0.52,175.72,177.08,0.14,0.19,3
8093,2023-01-20 11:09:05.702228,179996902,-2.55,-2.77,0.76,0.34,172.95,176.42,0.14,0.18,3
8128,2023-01-20 11:09:05.802198,180096814,-2.78,-2.89,0.71,0.5,168.62,174.56,0.14,0.18,3
8158,2023-01-20 11:09:05.902164,180196820,-3.18,-3.07,0.58,0.43,164.82,171.24,0.14,0.2,3
8193,2023-01-20 11:09:06.002135,180296830,-3.76,-3.43,0.54,0.64,161.33,167.34,0.16,0.21,3
8223,2023-01-20 11:09:06.102164,180396850,-4.33,-4.02,0.56,1.12,157.81,163.6,0.16,0.23,3
8258,2023-01-20 11:09:06.202165,180496842,-4.94,-4.31,0.93,1.47,154.48,160.11,0.21,0.26,3
8288,2023-01-20 11:09:06.302131,180596811,-6.53,-5.19,1.78,2.72,151.97,157,0.21,0.28,3
8321,2023-01-20 11:09:06.402129,180696811,-8.08,-6.94,2.07,3.35,149.83,154.53,0.22,0.31,3
8353,2023-01-20 11:09:06.502146,180796820,-9.31,-8.04,2.13,3.51,147.52,152.49,0.22,0.34,3
8386,2023-01-20 11:09:06.602148,180896814,-10.42,-9.27,1.64,3.21,145.12,150.87,0.19,0.37,3
8416,2023-01-20 11:09:06.702130,180996800,-11.08,-9.82,1.2,2.49,142.87,149.52,0.19,0.41,3
8451,2023-01-20 11:09:06.802155,181096829,-11.44,-10.43,1.32,1.98,141.36,148.1,0.18,0.44,3
8481,2023-01-20 11:09:06.902165,181196826,-11.92,-10.74,1.8,2.69,139.85,146.47,0.18,0.46,3
8516,2023-01-20 11:09:07.002151,181296800,-12.09,-10.79,2.3,4.08,138.48,144.43,0.17,0.49,3
8546,2023-01-20 11:09:07.102165,181396812,-11.92,-11.01,2.62,5.21,137.42,142.25,0.17,0.52,3
8581,2023-01-20 11:09:07.202314,181496958,-10.95,-10.74,2.82,5.45,137.23,140.5,0.16,0.54,3
8611,2023-01-20 11:09:07.302164,181596806,-9.9,-9.87,3.04,4.63,137.19,139.06,0.16,0.57,3
8645,2023-01-20 11:09:07.402177,181696818,-9.25,-9.15,3.01,4.87,137.2,137.41,0.13,0.6,3
8677,2023-01-20 11:09:07.502200,181796853,-8.32,-7.67,2.49,5.32,137.27,135.52,0.13,0.61,3
8710,2023-01-20 11:09:07.602149,181896814,-7.36,-5.88,1.34,5.35,137.43,133.85,0.12,0.62,3
8740,2023-01-20 11:09:07.702162,181996806,-6.74,-5.1,0.03,4.36,137.59,132.81,0.12,0.63,3
8775,2023-01-20 11:09:07.802280,182096904,-6.44,-4.68,-1.12,3.21,137.73,132.6,0.11,0.64,3
8805,2023-01-20 11:09:07.902180,182196816,-6.22,-4.48,-2.72,1.55,137.91,133.54,0.11,0.64,3
8840,2023-01-20 11:09:08.002177,182296825,-6.17,-4.29,-4.24,-1.07,138.07,134.88,0.12,0.65,3
8870,2023-01-20 11:09:08.102178,182396844,-6.24,-3.99,-4.93,-3.1,138.15,136.03,0.12,0.65,3
8905,2023-01-20 11:09:08.202151,182496834,-6.27,-3.95,-4.53,-3.66,138.1,136.97,0.12,0.65,3
8935,2023-01-20 11:09:08.302161,182596821,-6.1,-3.92,-3.78,-2.41,138.02,137.71,0.12,0.65,3
8968,2023-01-20 11:09:08.402239,182696878,-6.03,-3.77,-3.02,-1.29,137.94,138.33,0.11,0.65,3
9000,2023-01-20 11:09:08.502148,182796818,-6.1,-4.22,-2.48,-0.48,137.88,138.56,0.11,0.65,3
9033,2023-01-20 11:09:08.602121,182896821,-6.28,-4.67,-2.14,0.41,137.84,138.26,0.1,0.65,3
9063,2023-01-20 11:09:08.702142,182996810,-6.42,-4.97,-2.25,0.62,137.86,138.11,0.1,0.66,3
9098,2023-01-20 11:09:08.802185,183096821,-6.3,-5.08,-2.77,0.23,137.92,138.14,0.09,0.66,3
9130,2023-01-20 11:09:08.902190,183196839,-6.45,-5.16,-3.58,-0.97,138.01,138.22,0.09,0.66,3
9165,2023-01-20 11:09:09.001971,183296826,-6.59,-5.5,-4.09,-2.22,138.06,138.13,0.09,0.67,3
9195,2023-01-20 11:09:09.093029,183396786,-6.76,-5.63,-4.4,-3.19,138.1,137.88,0.09,0.68,3
9227,2023-01-20 11:09:09.184167,183496834,-6.9,-5.75,-4.5,-3.79,138.11,137.84,0.09,0.69,3
9261,2023-01-20 11:09:09.282592,183596818,-6.77,-5.94,-4.45,-3.6,138.11,138.02,0.12,0.7,3
9292,2023-01-20 11:09:09.382599,183696838,-6.49,-5.56,-4.2,-3.62,138.08,138.32,0.12,0.7,3
9326,2023-01-20 11:09:09.482592,183796829,-6.34,-4.95,-3.92,-3.49,138.05,138.64,0.11,0.7,3
9357,2023-01-20 11:09:09.582577,183896810,-6.23,-4.83,-3.41,-2.86,137.99,138.9,0.11,0.71,3
9390,2023-01-20 11:09:09.682591,183996807,-6.23,-4.76,-2.66,-1.93,137.91,139.24,0.1,0.71,3
9424,2023-01-20 11:09:09.782618,184096814,-6.11,-4.77,-1.85,-1.04,137.82,139.68,0.1,0.7,3
9456,2023-01-20 11:09:09.882602,184196815,-5.84,-4.6,-1.24,-0.22,137.76,140.12,0.08,0.7,3
9489,2023-01-20 11:09:09.982616,184296852,-5.69,-4.4,-0.77,0.26,137.71,140.47,0.08,0.7,3
9521,2023-01-20 11:09:10.082608,184396852,-5.51,-4.76,-0.44,0.7,137.68,140.46,0.07,0.69,3
9553,2023-01-20 11:09:10.182592,184496840,-5.25,-4.7,-0.23,1.34,137.66,140.34,0.07,0.69,3
9586,2023-01-20 11:09:10.282576,184596825,-4.99,-4.42,-0.27,1.59,137.66,139.99,0.07,0.68,3
9617,2023-01-20 11:09:10.382588,184696838,-4.76,-4.53,-0.45,1.55,137.67,139.49,0.07,0.68,3
9651,2023-01-20 11:09:10.482473,184796815,-4.72,-4.64,-0.68,1.07,137.69,138.86,0.07,0.68,3
9684,2023-01-20 11:09:10.582539,184896992,-4.91,-4.69,-0.78,0.28,137.7,138.41,0.07,0.68,3
9716,2023-01-20 11:09:10.682388,184996805,-5.14,-4.63,-0.91,0.19,137.71,138.01,0.08,0.68,3
9749,2023-01-20 11:09:10.782608,185096959,-5.42,-4.72,-1.14,0.3,137.73,137.59,0.08,0.68,3
9781,2023-01-20 11:09:10.882569,185196927,-5.78,-5.07,-1.29,0.04,137.75,137.32,0.08,0.68,3
9814,2023-01-20 11:09:10.982573,185296953,-6.13,-5.54,-1.23,-0.36,137.74,137.09,0.08,0.68,3
9847,2023-01-20 11:09:11.082412,185396802,-6.27,-6.09,-1.12,-0.19,137.73,136.99,0.09,0.68,3
9879,2023-01-20 11:09:11.182563,185496961,-6.27,-6.48,-0.94,-0.03,137.71,136.9,0.09,0.68,3
9912,2023-01-20 11:09:11.282387,185596798,-6.25,-6.36,-0.74,-0.4,137.69,136.86,0.08,0.68,3
9943,2023-01-20 11:09:11.382579,185697003,-6.21,-6.52,-0.61,-0.04,137.68,136.65,0.08,0.68,3
9976,2023-01-20 11:09:11.482389,185796813,-5.98,-6.99,-0.53,0.17,137.67,136.28,0.1,0.68,3
10007,2023-01-20 11:09:11.582538,185896958,-5.78,-6.81,-0.42,0.06,137.65,136.09,0.1,0.68,3
10039,2023-01-20 11:09:11.682451,185996853,-5.63,-6.33,-0.24,-0.26,137.64,136.34,0.09,0.68,3
10072,2023-01-20 11:09:11.782565,186096948,-5.58,-5.93,-0.01,-0.23,137.62,136.69,0.09,0.68,3
10104,2023-01-20 11:09:11.882422,186196806,-5.61,-5.89,0.09,-0.14,137.6,136.9,0.08,0.67,3
10137,2023-01-20 11:09:11.982560,186296949,-5.69,-5.93,0.1,-0.31,137.6,137.14,0.08,0.67,3
10169,2023-01-20 11:09:12.082400,186396815,-5.8,-5.88,0.12,-0.26,137.6,137.33,0.07,0.67,3
10201,2023-01-20 11:09:12.182577,186497022,-5.88,-5.95,0.19,-0.09,137.59,137.59,0.07,0.66,3
10234,2023-01-20 11:09:12.282380,186596803,-5.87,-5.98,0.27,-0.11,137.59,137.79,0.06,0.66,3
10266,2023-01-20 11:09:12.382554,186696944,-5.86,-5.89,0.3,0.2,137.58,137.98,0.06,0.66,3
10300,2023-01-20 11:09:12.482519,186796922,-5.85,-5.7,0.25,0.19,137.59,138.24,0.07,0.65,3
10331,2023-01-20 11:09:12.582517,186896944,-5.75,-5.82,0.13,0.01,137.6,138.47,0.07,0.64,3
10363,2023-01-20 11:09:12.682396,186996802,-5.67,-5.36,0.04,-0.25,137.61,138.56,0.07,0.63,3
10396,2023-01-20 11:09:12.782531,187096906,-5.44,-5.25,0.03,-0.46,137.61,138.44,0.07,0.62,3
10428,2023-01-20 11:09:12.882429,187196803,-5.24,-5.14,0.22,-0.59,137.59,138.28,0.06,0.6,3
10461,2023-01-20 11:09:12.982420,187296801,-5.09,-5.18,0.48,-0.78,137.57,138.22,0.06,0.58,3
10493,2023-01-20 11:09:13.082417,187396805,-5.07,-5.39,0.92,-0.68,137.53,138.14,0.08,0.54,3
10525,2023-01-20 11:09:13.182427,187496822,-5.15,-5.64,1.49,-0.33,137.48,138.01,0.08,0.52,3
10558,2023-01-20 11:09:13.282416,187596802,-5.21,-5.48,2.05,0.28,137.43,137.71,0.08,0.5,3
10589,2023-01-20 11:09:13.382504,187696878,-5.22,-5.31,2.49,1.12,137.39,137.36,0.08,0.48,3
10623,2023-01-20 11:09:13.482412,187796808,-5.09,-5.26,2.73,1.56,137.37,137.13,0.09,0.46,3
10654,2023-01-20 11:09:13.582385,187896810,-4.87,-5.24,2.66,2.02,137.37,136.87,0.09,0.45,3
10686,2023-01-20 11:09:13.682434,187996844,-4.73,-4.94,2.42,2,137.39,136.52,0.08,0.44,3
10719,2023-01-20 11:09:13.782401,188096787,-4.27,-4.53,2.19,2.09,137.41,136.15,0.08,0.44,3
10751,2023-01-20 11:09:13.882450,188196828,-2.8,-3.01,2.5,2.49,137.39,135.73,0.08,0.43,3
10784,2023-01-20 11:09:13.982439,188296813,-1.89,-1.61,2.47,3.26,137.39,135.58,0.08,0.42,3
10816,2023-01-20 11:09:14.082428,188396810,-1.79,-0.97,2.12,3.14,137.4,135.66,0.07,0.41,3
10848,2023-01-20 11:09:14.182445,188496837,-2.19,-1.16,1.49,2.78,137.42,135.84,0.07,0.41,3
10881,2023-01-20 11:09:14.282417,188596803,-2.84,-1.53,0.79,2.1,137.46,135.78,0.07,0.41,3
10914,2023-01-20 11:09:14.382446,188696823,-3.42,-2.27,-0.03,1.51,137.5,135.71,0.07,0.41,3
10948,2023-01-20 11:09:14.482407,188796807,-3.81,-2.68,-0.7,0.19,137.54,135.5,0.12,0.42,3
10979,2023-01-20 11:09:14.582378,188896807,-4,-3.03,-1.13,-0.8,137.57,135.09,0.12,0.44,3
11011,2023-01-20 11:09:14.682442,188996851,-4.28,-3.13,-1.37,-1.34,137.59,134.85,0.13,0.44,3
11044,2023-01-20 11:09:14.782415,189096793,-4.61,-3.55,-1.48,-1.39,137.6,134.72,0.13,0.45,3
11076,2023-01-20 11:09:14.882436,189196826,-4.96,-3.68,-1.39,-1.11,137.59,134.85,0.11,0.45,3
11109,2023-01-20 11:09:14.982469,189296879,-5.11,-4.45,-1.33,-0.64,137.59,134.86,0.11,0.45,3
11141,2023-01-20 11:09:15.082392,189396797,-5.37,-4.47,-1.35,-0.9,137.59,134.76,0.1,0.46,3
11173,2023-01-20 11:09:15.182423,189496818,-5.71,-4.67,-1.32,-1.54,137.59,134.78,0.1,0.47,3
11206,2023-01-20 11:09:15.282427,189596805,-6.06,-4.95,-1.04,-2.17,137.56,134.93,0.08,0.47,3
11240,2023-01-20 11:09:15.382439,189696798,-6.55,-5.38,-0.8,-2.07,137.56,135.19,0.08,0.47,3
11274,2023-01-20 11:09:15.482419,189796814,-6.79,-6.32,-0.36,-1.71,137.56,135.47,0.08,0.47,3
11307,2023-01-20 11:09:15.582398,189896840,-6.99,-6.86,-0.04,-1.1,137.54,135.81,0.08,0.47,3
11339,2023-01-20 11:09:15.682368,189996781,-7.39,-7.1,0.19,-0.78,137.53,136.24,0.09,0.47,3
11372,2023-01-20 11:09:15.782389,190096758,-7.93,-7.74,0.33,-0.26,137.53,136.62,0.09,0.47,3
11404,2023-01-20 11:09:15.882432,190196793,-8.47,-8.23,0.18,-0.12,137.54,136.95,0.12,0.46,3
11437,2023-01-20 11:09:15.982446,190296807,-9,-8.67,-0.11,-0.14,137.56,137.23,0.12,0.46,3
11469,2023-01-20 11:09:16.082429,190396793,-9.5,-9.03,-0.45,-0.3,137.59,137.51,0.11,0.46,3
11501,2023-01-20 11:09:16.182477,190496844,-9.94,-9.5,-0.78,-0.72,137.62,137.73,0.11,0.47,3
11534,2023-01-20 11:09:16.282416,190596783,-10.44,-9.97,-1.13,-1.15,137.65,137.94,0.11,0.47,3
11565,2023-01-20 11:09:16.382425,190696790,-11,-10.35,-1.38,-1.87,137.39,138.17,0.11,0.47,3
11599,2023-01-20 11:09:16.482413,190796792,-11.48,-10.63,-1.92,-2.18,134.83,138.05,0.09,0.48,3
11630,2023-01-20 11:09:16.582386,190896783,-11.74,-11.25,-3.15,-2.11,129.73,136.7,0.09,0.47,3
11662,2023-01-20 11:09:16.682394,190996782,-11.81,-11.78,-4.58,-2.8,123.89,133.41,0.08,0.48,3
11695,2023-01-20 11:09:16.782391,191096765,-11.81,-11.95,-6.34,-3.53,118.1,128.24,0.08,0.49,3
11727,2023-01-20 11:09:16.882465,191196832,-11.53,-11.8,-8.31,-4.53,112.33,121.86,0.08,0.51,3
11760,2023-01-20 11:09:16.982431,191296793,-10.88,-11.57,-10.74,-5.72,106.62,114.91,0.08,0.55,3
11792,2023-01-20 11:09:17.082416,191396780,-9.75,-11.22,-13.42,-7.47,100.88,107.57,0.07,0.59,3
11824,2023-01-20 11:09:17.182432,191496799,-8.24,-9.87,-15.99,-10.51,95.02,99.88,0.07,0.63,3
11857,2023-01-20 11:09:17.282423,191596786,-6.42,-8.41,-18.23,-13.07,88.99,91.88,0.06,0.68,3
11888,2023-01-20 11:09:17.382434,191696790,-4.3,-6.38,-19.9,-15.23,82.78,83.69,0.06,0.73,3
11922,2023-01-20 11:09:17.482456,191796839,-2,-5.01,-21.15,-16.15,76.44,75.56,0.08,0.77,3
11953,2023-01-20 11:09:17.582416,191896832,0.44,-2.52,-22.14,-17.32,70,67.95,0.08,0.81,3
11985,2023-01-20 11:09:17.682390,191996785,2.91,-0.31,-23.14,-17.77,63.46,60.54,0.11,0.85,3
12018,2023-01-20 11:09:17.782397,192096758,5.13,2,-24.03,-18.28,57.59,53.4,0.11,0.88,3
12050,2023-01-20 11:09:17.882432,192196790,6.65,3.46,-24.91,-19.4,54.25,47.09,0.1,0.9,3
12083,2023-01-20 11:09:17.982444,192296806,7.99,4.88,-25.93,-20.53,52.38,42.15,0.1,0.91,3
12116,2023-01-20 11:09:18.082414,192396793,9.5,5.9,-26.63,-21.57,51.21,38.8,0.11,0.9,3
12148,2023-01-20 11:09:18.182477,192496876,10.92,8.03,-27.08,-20.79,50.44,37.63,0.11,0.89,3
12181,2023-01-20 11:09:18.274994,192596785,11.97,9.77,-27.12,-20.79,49.98,37.66,0.11,0.89,3
12212,2023-01-20 11:09:18.366029,192696790,12.88,10.81,-27.01,-20.26,49.67,38.77,0.11,0.9,3
12246,2023-01-20 11:09:18.462649,192796802,12.86,10.96,-27.15,-20.06,49.61,40.59,0.1,0.9,3
12277,2023-01-20 11:09:18.562569,192896793,13.24,10.68,-27.03,-20.21,49.5,43.06,0.1,0.91,3
12310,2023-01-20 11:09:18.662518,192996768,12.69,11.16,-26.98,-21.04,49.63,45.73,0.11,0.92,3
12343,2023-01-20 11:09:18.762574,193096823,12.8,10.58,-26.81,-21.08,49.62,48.37,0.11,0.93,3
12375,2023-01-20 11:09:18.862546,193196830,12.27,10.31,-26.73,-21.79,49.75,50.27,0.1,0.94,3
12408,2023-01-20 11:09:18.962464,193296803,12.7,9.76,-26.36,-22.17,49.69,51.58,0.1,0.95,3
12440,2023-01-20 11:09:19.062419,193396765,12.59,10.05,-26.04,-21.99,49.75,52.54,0.13,0.96,3
12472,2023-01-20 11:09:19.162477,193496800,13.36,10.58,-25.32,-22.08,49.66,52.89,0.13,0.97,3
12505,2023-01-20 11:09:19.262517,193596770,13.17,11.75,-24.96,-21.68,49.74,52.92,0.13,0.97,3
12537,2023-01-20 11:09:19.362649,193696804,13.17,12.61,-24.17,-21.47,49.84,52.59,0.13,0.98,3
12572,2023-01-20 11:09:19.462630,193796845,12.02,12.43,-23.53,-21.48,50.16,51.84,0.16,0.98,3
12603,2023-01-20 11:09:19.562449,193896817,11.44,11.33,-22.65,-21.16,50.37,51.12,0.16,0.98,3
12636,2023-01-20 11:09:19.662374,193996778,10.55,10.11,-21.82,-20.81,50.63,50.37,0.18,0.98,3
12670,2023-01-20 11:09:19.762392,194096761,11.03,9.32,-20.65,-19.96,50.66,49.77,0.18,0.98,3
12702,2023-01-20 11:09:19.862419,194196782,10.79,9.22,-19.96,-18.88,50.77,49.54,0.24,0.98,3
12735,2023-01-20 11:09:19.962433,194296806,10.12,8.46,-19.21,-17.92,50.96,49.66,0.24,0.98,3
12768,2023-01-20 11:09:20.062449,194396818,8.75,7.5,-19.04,-17.65,51.2,49.91,0.21,0.98,3
12800,2023-01-20 11:09:20.162522,194496879,7.68,5.93,-18.75,-17.5,51.4,50.15,0.21,0.97,3
12832,2023-01-20 11:09:20.262426,194596785,6.56,4.97,-18.68,-17.92,51.59,50.49,0.2,0.97,3
12864,2023-01-20 11:09:20.362413,194696782,6.1,3.45,-18.26,-17.16,51.69,51.07,0.2,0.98,3
12898,2023-01-20 11:09:20.462415,194796802,5.01,3.07,-17.65,-15.99,51.9,51.8,0.2,0.97,3
12931,2023-01-20 11:09:20.562373,194896783,4.49,2.71,-16.65,-15.44,52.02,52.39,0.2,0.95,3
12964,2023-01-20 11:09:20.662382,194996787,3.55,2.78,-16.4,-15.98,52.16,52.52,0.18,0.93,3
12997,2023-01-20 11:09:20.762433,195096816,3.16,2.26,-15.51,-15.67,52.24,52.35,0.18,0.93,3
13029,2023-01-20 11:09:20.862422,195196799,2.74,1.5,-14.61,-15.17,52.32,51.92,0.17,0.93,3
13062,2023-01-20 11:09:20.962431,195296810,2.64,1.52,-13.12,-13.63,52.37,51.86,0.17,0.93,3
13095,2023-01-20 11:09:21.062407,195396786,1.94,1.56,-12.19,-12.36,52.47,51.97,0.2,0.92,3
13126,2023-01-20 11:09:21.162433,195496810,1.23,0.71,-11.57,-11.43,52.55,51.98,0.2,0.91,3
13160,2023-01-20 11:09:21.262404,195596780,0.16,0.06,-11.82,-11.4,52.66,52.22,0.18,0.89,3
13192,2023-01-20 11:09:21.362399,195696775,-0.74,-0.81,-11.53,-11.53,52.75,52.61,0.18,0.87,3
13226,2023-01-20 11:09:21.462524,195796929,-1.63,-1.84,-11.79,-11.77,52.84,52.98,0.16,0.86,3
13257,2023-01-20 11:09:21.562379,195896830,-1.96,-2.07,-11.8,-12.03,52.88,53.26,0.16,0.86,3
13290,2023-01-20 11:09:21.662349,195996786,-2.26,-2.54,-12.08,-12.1,52.91,53.43,0.15,0.85,3
13323,2023-01-20 11:09:21.762376,196096762,-1.87,-2.58,-11.91,-12.04,52.87,53.41,0.15,0.85,3
13355,2023-01-20 11:09:21.862414,196196783,-1.71,-2.28,-12.26,-11.98,52.86,53.34,0.13,0.86,3
13388,2023-01-20 11:09:21.962428,196296801,-1.25,-1.39,-12.21,-12.01,52.81,53.26,0.13,0.84,3
13421,2023-01-20 11:09:22.062452,196396839,-1.36,-1.1,-12.67,-12.25,52.83,53.17,0.22,0.84,3
13452,2023-01-20 11:09:22.162395,196496803,-1.99,-1.47,-13,-12.74,52.9,52.98,0.22,0.83,3
13486,2023-01-20 11:09:22.262374,196596778,-2.89,-2.22,-13.64,-13.59,53.02,52.69,0.22,0.83,3
13518,2023-01-20 11:09:22.362401,196696785,-3.65,-3.16,-14.35,-14.3,53.14,52.4,0.22,0.85,3
13552,2023-01-20 11:09:22.462405,196796797,-4.28,-3.8,-15.21,-14.81,53.25,52.24,0.22,0.86,3
13583,2023-01-20 11:09:22.562386,196896803,-4.58,-4.16,-15.29,-15.32,53.29,52.21,0.22,0.87,3
13616,2023-01-20 11:09:22.662363,196996774,-4.9,-4.47,-15.48,-15.17,53.34,52.21,0.22,0.88,3
13649,2023-01-20 11:09:22.762438,197096825,-5.15,-4.69,-15.64,-15.33,53.38,52.13,0.22,0.88,3
13681,2023-01-20 11:09:22.862410,197196786,-5.45,-4.74,-15.98,-15.39,53.44,52.14,0.19,0.88,3
13714,2023-01-20 11:09:22.962423,197296796,-5.7,-4.9,-16.08,-15.58,53.48,52.19,0.19,0.89,3
13747,2023-01-20 11:09:23.062415,197396785,-6.09,-4.99,-16.49,-16.5,53.56,52.49,0.18,0.88,3
13778,2023-01-20 11:09:23.162434,197496801,-6.27,-5.19,-16.61,-17.28,53.59,52.99,0.18,0.89,3
13812,2023-01-20 11:09:23.262416,197596788,-6.42,-5.37,-16.81,-16.78,53.63,53.33,0.15,0.9,3
13844,2023-01-20 11:09:23.362453,197696834,-5.89,-5.19,-16.76,-16.06,53.54,53.43,0.15,0.91,3
13878,2023-01-20 11:09:23.462411,197796803,-5.42,-4.84,-16.94,-15.76,53.48,53.32,0.16,0.91,3
13909,2023-01-20 11:09:23.562376,197896781,-5.01,-4.13,-17.09,-15.78,53.43,53.19,0.16,0.9,3
13942,2023-01-20 11:09:23.662353,197996749,-4.82,-3.96,-17.4,-16.68,53.41,53.05,0.16,0.89,3
13975,2023-01-20 11:09:23.762377,198096750,-4.83,-3.86,-17.57,-17.48,53.42,52.97,0.16,0.88,3
14007,2023-01-20 11:09:23.862393,198196761,-4.93,-4.05,-17.71,-17.81,53.44,53.04,0.14,0.88,3
14040,2023-01-20 11:09:23.962409,198296784,-5.05,-3.55,-17.44,-17.54,53.45,53.14,0.14,0.87,3
14073,2023-01-20 11:09:24.062451,198396840,-5.36,-3.66,-17.29,-17.53,53.49,53.27,0.19,0.86,3
14104,2023-01-20 11:09:24.162401,198496810,-5.84,-4.23,-17.41,-17.74,53.57,53.37,0.19,0.86,3
14138,2023-01-20 11:09:24.262379,198596778,-6.35,-4.56,-17.91,-18.17,53.68,53.44,0.18,0.85,3
14170,2023-01-20 11:09:24.362415,198696788,-6.55,-5.4,-18,-17.98,53.71,53.43,0.18,0.85,3
14204,2023-01-20 11:09:24.462415,198796796,-6.68,-5.6,-18.08,-17.99,53.74,53.32,0.22,0.85,3
14236,2023-01-20 11:09:24.562378,198896788,-6.67,-5.94,-18.19,-18.14,53.74,53.09,0.22,0.85,3
14269,2023-01-20 11:09:24.662413,198996831,-6.58,-6.26,-18.09,-18.49,53.72,53.03,0.22,0.85,3
14302,2023-01-20 11:09:24.762365,199096777,-6.19,-5.75,-17.81,-18.28,53.65,53.06,0.22,0.84,3
14334,2023-01-20 11:09:24.862372,199196770,-5.88,-5.25,-17.52,-17.83,53.58,53.1,0.2,0.83,3
14367,2023-01-20 11:09:24.962418,199296797,-5.31,-4.8,-16.81,-17.51,53.46,53.15,0.2,0.81,3
14400,2023-01-20 11:09:25.062398,199396770,-4.93,-4.25,-16.32,-17.34,53.38,53.18,0.17,0.79,3
14431,2023-01-20 11:09:25.162422,199496793,-4.16,-4.39,-15.6,-16.35,53.25,53.29,0.17,0.77,3
14465,2023-01-20 11:09:25.262400,199596765,-3.3,-4.62,-15.19,-15.9,53.12,53.28,0.19,0.76,3
14497,2023-01-20 11:09:25.362477,199696832,-2.79,-3.28,-14.76,-15.6,53.04,53.6,0.19,0.74,3
14531,2023-01-20 11:09:25.462400,199796775,-3.02,-2.22,-14.62,-15.07,53.06,53.64,0.17,0.72,3
14564,2023-01-20 11:09:25.562358,199896769,-3.36,-2.48,-14.67,-15.13,53.11,52.84,0.17,0.7,3
14597,2023-01-20 11:09:25.662355,199996764,-3.6,-2.9,-14.93,-15.04,53.15,51.94,0.17,0.69,3
14630,2023-01-20 11:09:25.762355,200096738,-3.39,-2.68,-14.72,-14.78,53.11,51.13,0.17,0.68,3
14662,2023-01-20 11:09:25.862379,200196749,-3.11,-2.59,-14.44,-14.84,53.07,50.74,0.19,0.65,3
14695,2023-01-20 11:09:25.962482,200296846,-2.85,-2.6,-14.17,-15.11,53.03,50.65,0.19,0.63,3
14728,2023-01-20 11:09:26.062398,200396776,-2.73,-2.52,-14.22,-14.8,53.02,50.74,0.18,0.64,3
14759,2023-01-20 11:09:26.162395,200496799,-2.42,-2.01,-14.02,-14.74,52.97,50.99,0.18,0.64,3
14793,2023-01-20 11:09:26.262385,200596783,-2.45,-1.82,-14.2,-14.75,52.98,51.48,0.19,0.64,3
14825,2023-01-20 11:09:26.362417,200696789,-2.38,-1.96,-14.54,-14.61,52.98,51.89,0.19,0.65,3
14859,2023-01-20 11:09:26.462416,200796798,-2.53,-1.98,-14.99,-14.66,53.01,52.35,0.2,0.66,3
14890,2023-01-20 11:09:26.562374,200896786,-2.95,-2.2,-15.38,-14.76,53.07,52.65,0.2,0.66,3
14923,2023-01-20 11:09:26.662412,200996833,-3.26,-2.78,-16.03,-15.32,53.13,52.52,0.19,0.67,3
14956,2023-01-20 11:09:26.762346,201096764,-3.33,-2.81,-16.16,-15.5,53.15,52.4,0.19,0.69,3
14988,2023-01-20 11:09:26.862382,201196780,-3.52,-2.87,-16.2,-15.5,53.18,52.43,0.18,0.69,3
15021,2023-01-20 11:09:26.962435,201296802,-3.1,-2.7,-16.12,-15.35,53.11,52.39,0.18,0.7,3
15054,2023-01-20 11:09:27.062420,201396781,-2.89,-2.39,-16.15,-14.96,53.09,52.21,0.2,0.71,3
15085,2023-01-20 11:09:27.162434,201496804,-2.76,-1.86,-15.75,-14.73,53.06,52.03,0.2,0.71,3
15119,2023-01-20 11:09:27.262450,201596831,-2.87,-2.3,-15.52,-14.24,53.07,51.89,0.19,0.7,3
15151,2023-01-20 11:09:27.362395,201696787,-2.73,-2.8,-15.35,-14.45,53.04,51.76,0.19,0.68,3
15185,2023-01-20 11:09:27.462416,201796807,-2.45,-3.04,-15.57,-14.82,53.01,51.95,0.17,0.66,3
15216,2023-01-20 11:09:27.562408,201896790,-2.2,-2.62,-15.69,-15.59,52.98,52.37,0.17,0.64,3
15249,2023-01-20 11:09:27.662411,201996786,-2.06,-2.57,-15.89,-16.35,52.96,52.78,0.17,0.63,3
15282,2023-01-20 11:09:27.762398,202096767,-1.94,-2.37,-15.88,-16.6,52.95,53.28,0.17,0.61,3
15314,2023-01-20 11:09:27.862402,202196769,-2.11,-2.29,-15.92,-16.49,52.97,53.69,0.17,0.59,3
15348,2023-01-20 11:09:27.962572,202296939,-1.99,-2.46,-15.81,-16.78,52.95,53.53,0.17,0.57,3
15380,2023-01-20 11:09:28.062428,202396791,-1.81,-2.07,-15.67,-16.67,52.92,53.31,0.18,0.56,3
15411,2023-01-20 11:09:28.162424,202496780,-1.8,-1.9,-15.51,-16.31,52.92,53.15,0.18,0.55,3
15445,2023-01-20 11:09:28.262403,202596761,-1.74,-2.16,-15.24,-15.68,52.91,52.82,0.19,0.52,3
15477,2023-01-20 11:09:28.362423,202696787,-1.77,-1.95,-15,-15.53,52.91,52.5,0.19,0.48,3
15511,2023-01-20 11:09:28.456779,202796810,-2.27,-2.14,-15.39,-16.19,52.98,52.32,0.16,0.46,3
15542,2023-01-20 11:09:28.547724,202896831,-2.44,-3.17,-15.77,-16.09,53.01,51.35,0.16,0.47,3
15575,2023-01-20 11:09:28.642462,202996785,-2.4,-2.86,-15.44,-15.82,53,50.56,0.15,0.44,3
15608,2023-01-20 11:09:28.742441,203096762,-2.4,-2.14,-15.47,-16.56,53,50.45,0.15,0.42,3
15640,2023-01-20 11:09:28.842460,203196781,-2.74,-2.32,-16.07,-17.31,53.06,50.56,0.15,0.45,3
15674,2023-01-20 11:09:28.942469,203296791,-2.92,-2.4,-16.36,-17.09,53.09,50.74,0.15,0.47,3
15706,2023-01-20 11:09:29.042464,203396785,-3.12,-2.44,-16.5,-16.81,53.13,51.05,0.14,0.49,3
15737,2023-01-20 11:09:29.142498,203496812,-3.12,-2.53,-16.36,-16.48,53.12,51.38,0.14,0.49,3
15771,2023-01-20 11:09:29.242506,203596827,-3.33,-2.57,-16.26,-16.32,53.15,51.67,0.15,0.49,3
15803,2023-01-20 11:09:29.342440,203696787,-3.55,-2.57,-16.13,-16.38,53.18,51.88,0.15,0.49,3
15837,2023-01-20 11:09:29.442427,203796794,-3.91,-2.95,-16.19,-16.19,53.23,51.96,0.13,0.51,3
15868,2023-01-20 11:09:29.542394,203896776,-4.02,-3.13,-15.74,-15.83,53.23,51.82,0.13,0.51,3
15902,2023-01-20 11:09:29.642452,203996796,-4.25,-3.28,-15.57,-15.54,53.26,51.54,0.16,0.51,3
15936,2023-01-20 11:09:29.742544,204096778,-4.57,-3.65,-15.62,-15.7,53.3,51.45,0.16,0.52,3
15968,2023-01-20 11:09:29.842630,204196830,-5.07,-3.85,-15.78,-15.86,53.38,51.62,0.18,0.53,3
16002,2023-01-20 11:09:29.942523,204296793,-5.07,-4.12,-15.74,-15.76,53.38,51.93,0.18,0.56,3
16034,2023-01-20 11:09:30.042441,204396770,-5.24,-4.23,-15.69,-15.31,53.4,52.12,0.2,0.56,3
16065,2023-01-20 11:09:30.142421,204496795,-5.25,-4.61,-15.71,-15.22,53.4,52.38,0.2,0.56,3
16099,2023-01-20 11:09:30.242374,204596767,-5.46,-4.52,-15.92,-15.21,53.44,52.68,0.19,0.55,3
16131,2023-01-20 11:09:30.342412,204696790,-5.61,-4.44,-16.02,-15.72,53.47,52.9,0.19,0.55,3
16165,2023-01-20 11:09:30.442420,204796797,-5.92,-4.9,-16.09,-15.82,53.51,53.1,0.17,0.55,3
16198,2023-01-20 11:09:30.542438,204896833,-5.9,-5.11,-16.01,-15.98,53.51,53.06,0.17,0.55,3
16231,2023-01-20 11:09:30.642372,204996780,-5.78,-5.31,-16.08,-15.8,53.49,52.91,0.14,0.55,3
16264,2023-01-20 11:09:30.742360,205096774,-5.45,-4.98,-15.93,-15.7,53.44,52.87,0.14,0.56,3
16296,2023-01-20 11:09:30.842380,205196782,-5.54,-4.64,-15.94,-15.67,53.45,52.97,0.18,0.56,3
16373,2023-01-20 11:09:30.942432,205296799,-6.11,-4.82,-16.27,-15.56,53.55,53.1,0.18,0.57,3
16405,2023-01-20 11:09:31.042432,205396782,-6.62,-5.74,-16.46,-15.78,53.63,53.12,0.21,0.57,3
16436,2023-01-20 11:09:31.142497,205496853,-6.54,-5.98,-16.33,-15.84,53.61,52.93,0.21,0.57,3
16470,2023-01-20 11:09:31.242415,205596778,-6.58,-5.5,-16.23,-15.89,53.62,52.7,0.22,0.57,3
16502,2023-01-20 11:09:31.342425,205696796,-6.64,-5.69,-16.11,-15.91,53.62,52.33,0.22,0.56,3
16535,2023-01-20 11:09:31.442669,205797051,-6.86,-6.02,-16.21,-15.97,53.65,52.08,0.23,0.56,3
16566,2023-01-20 11:09:31.542371,205896769,-6.55,-6.05,-16.44,-16.06,53.62,51.67,0.23,0.53,3
16599,2023-01-20 11:09:31.642368,205996768,-6.21,-6.11,-16.55,-17.21,53.58,51.45,0.21,0.51,3
16632,2023-01-20 11:09:31.742391,206096771,-5.85,-5.69,-16.92,-17.76,53.55,51.63,0.21,0.52,3
16664,2023-01-20 11:09:31.842459,206196826,-5.72,-5.47,-17.12,-17.82,53.54,52.01,0.22,0.53,3
16698,2023-01-20 11:09:31.942436,206296800,-5.72,-5.3,-17.2,-17.3,53.54,52.28,0.22,0.53,3
16730,2023-01-20 11:09:32.042421,206396783,-5.96,-5.18,-17.29,-16.96,53.58,52.38,0.27,0.52,3
16761,2023-01-20 11:09:32.142444,206496805,-6.35,-5.71,-18.05,-17.71,53.69,52.37,0.27,0.49,3
16795,2023-01-20 11:09:32.242430,206596793,-6.73,-6.28,-18.52,-19.06,53.77,52.36,0.28,0.48,3
16827,2023-01-20 11:09:32.342417,206696786,-6.77,-6.45,-18.74,-19.64,53.79,52.49,0.28,0.49,3
16861,2023-01-20 11:09:32.442751,206797133,-6.7,-6.32,-18.6,-19.43,53.77,52.71,0.24,0.51,3
16892,2023-01-20 11:09:32.542383,206896785,-6.37,-6.13,-18.16,-18.27,53.7,52.85,0.24,0.51,3
16925,2023-01-20 11:09:32.642363,206996777,-6.14,-5.79,-17.85,-17.36,53.64,52.94,0.19,0.51,3
16958,2023-01-20 11:09:32.742351,207096768,-5.72,-5.53,-17.6,-17.29,53.56,53.04,0.19,0.5,3
16990,2023-01-20 11:09:32.842391,207196797,-5.63,-5.19,-17.53,-17.13,53.54,53.12,0.18,0.49,3
17024,2023-01-20 11:09:32.942425,207296801,-5.54,-5.27,-17.42,-17.07,53.52,53.07,0.18,0.48,3
17056,2023-01-20 11:09:33.042428,207396786,-5.49,-5.12,-17.56,-17.37,53.52,53.01,0.15,0.47,3
17087,2023-01-20 11:09:33.142487,207496844,-5.53,-4.68,-17.5,-18.19,53.53,53.15,0.15,0.46,3
17121,2023-01-20 11:09:33.242412,207596783,-5.96,-4.8,-17.41,-18.06,53.59,53.5,0.16,0.46,3
17153,2023-01-20 11:09:33.342387,207696790,-6.51,-5.42,-17,-17.32,53.65,53.72,0.16,0.47,3
17187,2023-01-20 11:09:33.442662,207797083,-6.98,-6.22,-16.72,-16.67,53.7,53.86,0.13,0.46,3
17218,2023-01-20 11:09:33.542355,207896774,-7.21,-6.98,-16.59,-16.32,53.73,53.96,0.13,0.47,3
17251,2023-01-20 11:09:33.642379,207996787,-7.22,-6.89,-16.46,-16.1,53.72,53.79,0.11,0.46,3
17284,2023-01-20 11:09:33.742445,208096831,-6.91,-6.73,-16.32,-15.94,53.67,53.45,0.11,0.46,3
17316,2023-01-20 11:09:33.842449,208196819,-6.59,-6.48,-16.15,-15.99,53.61,53,0.11,0.45,3
17350,2023-01-20 11:09:33.942436,208296799,-5.94,-5.82,-15.76,-16.11,53.5,52.6,0.11,0.44,3
17382,2023-01-20 11:09:34.042441,208396799,-5.64,-5.21,-15.32,-15.77,53.43,52.42,0.14,0.43,3
17413,2023-01-20 11:09:34.142434,208496789,-5.55,-5.11,-14.78,-15.06,53.4,52.34,0.14,0.43,3
17447,2023-01-20 11:09:34.242415,208596770,-5.69,-5.21,-14.55,-14.78,53.4,52.37,0.14,0.42,3
17479,2023-01-20 11:09:34.342422,208696778,-5.64,-5.32,-14.3,-14.35,53.38,52.44,0.14,0.41,3
17513,2023-01-20 11:09:34.442721,208797088,-5.66,-5.48,-14.26,-14.31,53.38,52.53,0.13,0.4,3
17544,2023-01-20 11:09:34.542390,208896781,-5.66,-5.47,-14.09,-14.24,53.38,52.57,0.13,0.39,3
17577,2023-01-20 11:09:34.642399,208996796,-5.59,-5.39,-14,-14.31,53.36,52.57,0.13,0.38,3
17611,2023-01-20 11:09:34.742377,209096755,-5.29,-5.32,-13.8,-14.11,53.32,52.61,0.13,0.37,3
17643,2023-01-20 11:09:34.842418,209196783,-5.21,-5.03,-13.81,-14.25,53.31,52.57,0.13,0.36,3
17677,2023-01-20 11:09:34.942437,209296798,-5.03,-4.9,-13.59,-13.92,53.28,52.51,0.13,0.36,3
17709,2023-01-20 11:09:35.042466,209396824,-5.02,-4.75,-13.46,-13.59,53.27,52.34,0.15,0.35,3
17740,2023-01-20 11:09:35.142522,209496881,-5.13,-5,-13.47,-13.76,53.28,52.11,0.15,0.32,3
17774,2023-01-20 11:09:35.242414,209596787,-5.39,-5.3,-13.52,-14.08,53.31,51.91,0.14,0.32,3
17806,2023-01-20 11:09:35.342397,209696800,-5.34,-5.33,-13.29,-13.87,53.3,51.8,0.14,0.32,3
17840,2023-01-20 11:09:35.442647,209797059,-5.35,-5.04,-13.31,-13.75,53.3,51.76,0.12,0.32,3
17873,2023-01-20 11:09:35.542396,209896791,-5.11,-4.88,-13.19,-13.42,53.27,51.92,0.12,0.33,3
17906,2023-01-20 11:09:35.642406,209996788,-5.06,-4.73,-13.25,-13.33,53.26,52.17,0.13,0.33,3
17939,2023-01-20 11:09:35.742436,210096809,-4.94,-4.69,-13.36,-13.14,53.25,52.28,0.13,0.32,3
17971,2023-01-20 11:09:35.842396,210196771,-5,-4.69,-13.57,-13.42,53.27,52.22,0.11,0.32,3
18005,2023-01-20 11:09:35.942387,210296777,-4.92,-4.72,-13.62,-13.63,53.26,52.09,0.11,0.32,3
18037,2023-01-20 11:09:36.042368,210396757,-4.96,-4.8,-13.96,-13.48,53.28,52,0.15,0.32,3
18068,2023-01-20 11:09:36.142421,210496787,-5.05,-4.91,-14.26,-13.98,53.31,51.89,0.15,0.33,3
18102,2023-01-20 11:09:36.242411,210596764,-5.35,-4.85,-14.66,-14.4,53.36,51.83,0.12,0.34,3
18134,2023-01-20 11:09:36.342494,210696847,-5.34,-5.07,-15.16,-14.51,53.39,51.82,0.12,0.35,3
18168,2023-01-20 11:09:36.438658,210796844,-5.46,-4.91,-15.57,-14.94,53.42,51.93,0.12,0.35,3
18199,2023-01-20 11:09:36.529597,210896799,-5.56,-5.01,-15.92,-15.22,53.45,52.2,0.12,0.35,3
18232,2023-01-20 11:09:36.622604,210996785,-5.75,-5.31,-16.31,-15.73,53.5,52.44,0.11,0.36,3
18265,2023-01-20 11:09:36.722591,211096769,-5.78,-5.25,-16.57,-16.11,53.52,52.68,0.11,0.37,3
18297,2023-01-20 11:09:36.822617,211196789,-5.99,-5.08,-16.74,-16.06,53.56,53,0.11,0.37,3
18331,2023-01-20 11:09:36.922660,211296818,-6.14,-5.42,-16.88,-16.22,53.59,53.25,0.11,0.37,3
18363,2023-01-20 11:09:37.022671,211396822,-6.45,-5.62,-16.99,-16.4,53.64,53.51,0.12,0.37,3
18394,2023-01-20 11:09:37.122645,211496812,-6.91,-6.09,-17.07,-16.66,53.71,53.61,0.12,0.36,3
18428,2023-01-20 11:09:37.222592,211596779,-7.38,-6.8,-17.18,-16.87,53.79,53.59,0.14,0.36,3
18460,2023-01-20 11:09:37.322581,211696801,-7.4,-7.09,-17.02,-16.82,53.78,53.55,0.14,0.36,3
18494,2023-01-20 11:09:37.425088,211796844,-7.36,-7.16,-16.86,-16.76,53.77,53.42,0.13,0.36,3
18525,2023-01-20 11:09:37.536049,211896795,-7.2,-7.15,-16.7,-16.82,53.73,53.22,0.13,0.35,3
18558,2023-01-20 11:09:37.638531,211996775,-7.11,-7.01,-16.48,-17.03,53.71,53,0.15,0.34,3
18591,2023-01-20 11:09:37.729499,212096817,-7.26,-7.32,-16.25,-16.74,53.71,52.94,0.15,0.35,3
18623,2023-01-20 11:09:37.822451,212196797,-7.47,-7.39,-16.06,-16.47,53.73,53,0.15,0.34,3
18657,2023-01-20 11:09:37.922459,212296787,-7.67,-7.42,-15.69,-16.42,53.73,53.17,0.15,0.33,3
18689,2023-01-20 11:09:38.022446,212396763,-7.93,-7.64,-15.47,-16.08,53.76,53.44,0.14,0.32,3
18720,2023-01-20 11:09:38.122480,212496808,-8.14,-7.89,-15.41,-16.01,53.78,53.71,0.14,0.32,3
18754,2023-01-20 11:09:38.222434,212596775,-8.31,-8.09,-15.27,-15.84,53.79,53.95,0.13,0.32,3
18786,2023-01-20 11:09:38.322483,212696840,-8.19,-8.06,-14.87,-15.43,53.75,54.09,0.13,0.31,3
18820,2023-01-20 11:09:38.422386,212796759,-8.09,-7.81,-14.63,-14.95,53.72,54.14,0.11,0.29,3
18851,2023-01-20 11:09:38.522380,212896769,-7.95,-7.76,-14.27,-14.8,53.67,54.14,0.11,0.28,3
18884,2023-01-20 11:09:38.622380,212996778,-7.87,-7.57,-13.89,-14.49,53.64,54.06,0.12,0.26,3
18917,2023-01-20 11:09:38.722393,213096779,-7.85,-7.57,-13.64,-14.18,53.62,54.01,0.12,0.25,3
18949,2023-01-20 11:09:38.822406,213196779,-7.95,-7.55,-13.43,-14.05,53.61,53.84,0.12,0.23,3
18983,2023-01-20 11:09:38.922443,213296805,-7.91,-7.65,-13.26,-13.95,53.6,53.56,0.12,0.22,3
19015,2023-01-20 11:09:39.022470,213396824,-7.76,-7.71,-13.24,-13.95,53.58,53.15,0.14,0.21,3
19046,2023-01-20 11:09:39.122435,213496793,-7.73,-7.75,-13.25,-14.02,53.57,52.78,0.14,0.2,3
19080,2023-01-20 11:09:39.222416,213596783,-7.72,-7.74,-13.37,-14.14,53.58,52.51,0.13,0.2,3
19112,2023-01-20 11:09:39.322405,213696796,-7.55,-7.87,-13.24,-13.84,53.55,52.26,0.13,0.21,3
19146,2023-01-20 11:09:39.422396,213796805,-7.5,-7.55,-13.21,-13.65,53.55,52.11,0.13,0.21,3
19177,2023-01-20 11:09:39.522394,213896799,-7.21,-7.37,-13.04,-13.54,53.5,52.11,0.13,0.2,3
19210,2023-01-20 11:09:39.622425,213996824,-6.87,-6.92,-13,-13.42,53.46,52.07,0.14,0.19,3
19244,2023-01-20 11:09:39.722375,214096762,-6.63,-6.61,-12.95,-13.57,53.43,51.94,0.14,0.17,3
19279,2023-01-20 11:09:39.822408,214196783,-6.54,-6.42,-12.94,-13.42,53.42,51.82,0.13,0.15,3
19313,2023-01-20 11:09:39.922441,214296804,-6.49,-6.46,-12.96,-13.58,53.41,51.72,0.13,0.14,3
19345,2023-01-20 11:09:40.022442,214396797,-6.47,-6.36,-12.89,-13.78,53.41,51.63,0.13,0.15,3
19376,2023-01-20 11:09:40.122453,214496812,-6.08,-6.18,-12.65,-13.77,53.35,51.7,0.13,0.14,3
19410,2023-01-20 11:09:40.222421,214596784,-5.75,-5.69,-12.53,-13.4,53.31,51.88,0.15,0.13,3
19442,2023-01-20 11:09:40.322462,214696827,-5.18,-5.15,-11.71,-12.93,53.21,52.01,0.15,0.11,3
19476,2023-01-20 11:09:40.422423,214796795,-4.88,-4.59,-10.97,-12.06,53.14,52.19,0.22,0.09,3
19509,2023-01-20 11:09:40.522404,214896796,-4.98,-4.5,-10.67,-11.76,53.14,52.42,0.22,0.08,3
19542,2023-01-20 11:09:40.622390,214996794,-5.4,-4.8,-10.61,-11.86,53.18,52.64,0.2,0.07,3
19575,2023-01-20 11:09:40.722374,215096761,-5.67,-5.17,-10.43,-11.44,53.19,52.81,0.2,0.06,3
19607,2023-01-20 11:09:40.822417,215196788,-5.89,-5.44,-10.44,-11.09,53.21,52.8,0.19,0.05,3
19641,2023-01-20 11:09:40.922480,215296840,-5.91,-5.45,-10.46,-11.16,53.22,52.68,0.19,0.04,3
19673,2023-01-20 11:09:41.022433,215396784,-5.96,-5.64,-10.57,-11.22,53.23,52.54,0.2,0.04,3
19704,2023-01-20 11:09:41.122456,215496809,-6.18,-5.77,-10.9,-11.28,53.27,52.42,0.2,0.03,3
19738,2023-01-20 11:09:41.222405,215596766,-6.58,-6.04,-11.2,-11.79,53.32,52.34,0.18,0.03,3
19770,2023-01-20 11:09:41.322373,215696766,-6.82,-6.43,-11.45,-11.94,53.36,52.34,0.18,0.03,3
19804,2023-01-20 11:09:41.422400,215796816,-7.02,-6.65,-11.8,-11.89,53.4,52.44,0.15,0.04,3
19835,2023-01-20 11:09:41.522360,215896768,-7.01,-6.9,-12.11,-12.4,53.42,52.51,0.15,0.04,3
19868,2023-01-20 11:09:41.622423,215996823,-7.2,-6.79,-12.58,-12.88,53.47,52.55,0.14,0.04,3
19901,2023-01-20 11:09:41.722380,216096772,-6.99,-6.78,-12.81,-13.11,53.46,52.5,0.14,0.06,3
19933,2023-01-20 11:09:41.822398,216196785,-6.81,-6.32,-12.9,-13.12,53.45,52.45,0.16,0.05,3
19967,2023-01-20 11:09:41.922420,216296811,-6.69,-6.47,-13.06,-13.28,53.44,52.51,0.16,0.05,3
19999,2023-01-20 11:09:42.022390,216396780,-6.77,-6.48,-13.35,-13.51,53.47,52.65,0.13,0.05,3
20030,2023-01-20 11:09:42.122443,216496816,-6.82,-6.48,-13.56,-14.03,53.49,52.88,0.13,0.05,3
20064,2023-01-20 11:09:42.222463,216596825,-7.04,-6.57,-13.69,-14.01,53.52,53.26,0.11,0.06,3
20096,2023-01-20 11:09:42.322420,216696790,-7.2,-6.92,-13.84,-14.02,53.55,53.6,0.11,0.06,3
20130,2023-01-20 11:09:42.422427,216796807,-7.4,-7.11,-14.06,-14.38,53.59,53.89,0.1,0.06,3
20161,2023-01-20 11:09:42.522392,216896786,-7.4,-7.32,-14.26,-14.33,53.6,54.11,0.1,0.06,3
20194,2023-01-20 11:09:42.622381,216996784,-7.49,-7.25,-14.57,-14.47,53.63,54.29,0.1,0.07,3
20227,2023-01-20 11:09:42.722383,217096777,-7.72,-7.33,-14.64,-14.61,53.67,54.41,0.1,0.07,3
20259,2023-01-20 11:09:42.822404,217196787,-8.08,-7.62,-14.6,-14.48,53.71,54.45,0.08,0.07,3
20293,2023-01-20 11:09:42.922514,217296880,-8.34,-7.97,-14.6,-14.36,53.75,54.31,0.08,0.07,3
20325,2023-01-20 11:09:43.022433,217396786,-8.61,-8.18,-14.6,-14.33,53.78,54.15,0.07,0.07,3
20356,2023-01-20 11:09:43.122453,217496807,-8.68,-8.26,-14.52,-14.53,53.78,54.02,0.07,0.07,3
20390,2023-01-20 11:09:43.222418,217596776,-8.78,-8.38,-14.55,-14.51,53.8,53.98,0.08,0.08,3
20422,2023-01-20 11:09:43.322432,217696803,-8.62,-8.44,-14.49,-14.72,53.77,53.98,0.08,0.09,3
20455,2023-01-20 11:09:43.422429,217796813,-8.62,-8.21,-14.49,-14.38,53.77,54.1,0.1,0.1,3
20486,2023-01-20 11:09:43.522439,217896833,-8.47,-8.3,-14.71,-14.34,53.77,54.22,0.1,0.11,3
20519,2023-01-20 11:09:43.622371,217996771,-8.38,-8.29,-14.95,-14.45,53.78,54.37,0.11,0.13,3
20552,2023-01-20 11:09:43.722383,218096772,-8.15,-8.26,-14.97,-14,53.75,54.43,0.11,0.14,3
20584,2023-01-20 11:09:43.822397,218196779,-8.04,-8.08,-15.07,-13.44,53.74,54.51,0.14,0.15,3
20618,2023-01-20 11:09:43.922420,218296813,-7.9,-7.99,-15.4,-13.42,53.75,54.52,0.14,0.15,3
20650,2023-01-20 11:09:44.022392,218396788,-7.82,-7.96,-15.82,-14.08,53.76,54.42,0.13,0.15,3
20681,2023-01-20 11:09:44.122424,218496797,-7.77,-7.9,-16.07,-14.84,53.77,54.16,0.13,0.15,3
20715,2023-01-20 11:09:44.222464,218596822,-7.7,-7.87,-16.28,-15.33,53.78,53.79,0.13,0.16,3
20747,2023-01-20 11:09:44.322426,218696794,-7.47,-7.88,-16.08,-15.35,53.73,53.51,0.13,0.17,3
20781,2023-01-20 11:09:44.422415,218796799,-7.16,-7.6,-15.9,-14.98,53.68,53.26,0.12,0.18,3
20812,2023-01-20 11:09:44.522357,218896779,-6.92,-7.36,-15.72,-14.86,53.63,53.17,0.12,0.18,3
20845,2023-01-20 11:09:44.622343,218996786,-6.74,-7.1,-15.66,-14.69,53.6,53.14,0.13,0.18,3
20878,2023-01-20 11:09:44.722363,219096765,-6.36,-6.91,-15.67,-14.83,53.55,53.17,0.13,0.17,3
20910,2023-01-20 11:09:44.822450,219196818,-6.07,-6.52,-15.81,-15.14,53.52,53.27,0.12,0.16,3
20945,2023-01-20 11:09:44.922441,219296799,-5.77,-6.28,-15.83,-15.48,53.48,53.26,0.12,0.15,3
20977,2023-01-20 11:09:45.022416,219396767,-5.66,-6.04,-15.84,-15.68,53.46,53.27,0.11,0.14,3
21008,2023-01-20 11:09:45.122431,219496781,-5.54,-6.13,-15.85,-15.78,53.45,53.29,0.11,0.13,3
21042,2023-01-20 11:09:45.222416,219596768,-5.51,-5.91,-15.87,-15.78,53.44,53.23,0.11,0.13,3
21074,2023-01-20 11:09:45.322411,219696776,-5.4,-5.87,-15.75,-15.81,53.42,53.16,0.11,0.12,3
21108,2023-01-20 11:09:45.422425,219796798,-5.4,-5.83,-15.68,-15.74,53.42,53.09,0.11,0.12,3
21141,2023-01-20 11:09:45.522477,219896841,-5.44,-5.75,-15.67,-15.86,53.42,53.06,0.11,0.11,3
21174,2023-01-20 11:09:45.620371,219996770,-5.55,-5.8,-15.73,-15.63,53.44,53.09,0.11,0.11,3
21207,2023-01-20 11:09:45.711231,220096738,-5.5,-5.8,-15.77,-15.73,53.44,53.17,0.11,0.11,3
21239,2023-01-20 11:09:45.802378,220196785,-5.63,-5.56,-15.75,-15.72,53.45,53.27,0.1,0.1,3
21273,2023-01-20 11:09:45.902355,220296800,-5.73,-5.69,-15.71,-15.66,53.47,53.47,0.1,0.09,3
21305,2023-01-20 11:09:46.002311,220396792,-5.82,-5.66,-15.7,-15.92,53.48,53.52,0.09,0.08,3
21336,2023-01-20 11:09:46.102399,220496846,-6.08,-5.95,-15.55,-15.8,53.51,53.55,0.09,0.08,3
21370,2023-01-20 11:09:46.202378,220596792,-6.38,-6.15,-15.37,-15.62,53.54,53.54,0.09,0.08,3
21402,2023-01-20 11:09:46.302358,220696786,-6.75,-6.37,-15.29,-15.4,53.58,53.53,0.09,0.08,3
21436,2023-01-20 11:09:46.402346,220796788,-7.14,-6.82,-15.13,-15.58,53.63,53.41,0.08,0.07,3
21467,2023-01-20 11:09:46.502338,220896791,-7.55,-7.43,-15.01,-15.68,53.67,53.34,0.08,0.07,3
21500,2023-01-20 11:09:46.602332,220996795,-7.76,-7.88,-14.97,-15.61,53.7,53.19,0.09,0.07,3
21533,2023-01-20 11:09:46.702357,221096812,-7.71,-8.06,-14.8,-15.18,53.68,53.02,0.09,0.07,3
21565,2023-01-20 11:09:46.802388,221196836,-7.56,-7.58,-14.63,-14.99,53.65,52.91,0.08,0.07,3
21599,2023-01-20 11:09:46.902329,221296798,-7.52,-7.49,-14.5,-14.84,53.63,52.97,0.08,0.08,3
21631,2023-01-20 11:09:47.002286,221396776,-7.59,-7.51,-14.36,-14.56,53.63,52.98,0.09,0.08,3
21662,2023-01-20 11:09:47.102302,221496798,-7.53,-7.66,-14.38,-14.22,53.63,52.97,0.09,0.08,3
21696,2023-01-20 11:09:47.202266,221596769,-7.31,-7.36,-14.46,-14.27,53.6,52.82,0.07,0.08,3
21728,2023-01-20 11:09:47.302248,221696776,-7.08,-7.23,-14.43,-14.12,53.57,52.78,0.07,0.08,3
21762,2023-01-20 11:09:47.402281,221796836,-6.94,-6.94,-14.42,-14.48,53.55,52.68,0.08,0.07,3
21793,2023-01-20 11:09:47.502173,221896765,-6.95,-7.07,-14.32,-14.9,53.55,52.68,0.08,0.06,3
21875,2023-01-20 11:09:47.602144,221996773,-7.14,-6.95,-14.05,-14.59,53.56,52.72,0.1,0.06,3
21908,2023-01-20 11:09:47.702152,222096762,-7.23,-6.89,-13.56,-14.28,53.54,52.85,0.1,0.05,3
21940,2023-01-20 11:09:47.802200,222196790,-7.24,-6.94,-13.15,-13.93,53.51,52.95,0.1,0.04,3
21974,2023-01-20 11:09:47.902240,222296797,-7.35,-6.92,-12.6,-13.5,53.49,52.97,0.1,0.05,3
22006,2023-01-20 11:09:48.002247,222396772,-7.47,-6.97,-12.14,-13.05,53.47,52.95,0.16,0.06,3
22037,2023-01-20 11:09:48.102271,222496836,-7.34,-7.04,-11.6,-12.92,53.42,52.97,0.16,0.06,3
22071,2023-01-20 11:09:48.202184,222596788,-7.07,-6.59,-10.96,-12.19,53.35,52.9,0.19,0.08,3
22103,2023-01-20 11:09:48.302172,222696783,-7.09,-6.37,-10.45,-11.94,53.32,52.88,0.19,0.1,3
22137,2023-01-20 11:09:48.402186,222796805,-7.21,-6.83,-10.22,-11.67,53.32,52.77,0.17,0.1,3
22168,2023-01-20 11:09:48.502134,222896789,-7.32,-7.25,-9.94,-11.25,53.31,52.58,0.17,0.1,3
22201,2023-01-20 11:09:48.602107,222996796,-7.38,-7.05,-9.69,-10.81,53.3,52.37,0.15,0.11,3
22234,2023-01-20 11:09:48.702177,223096825,-7.65,-7.09,-9.83,-10.48,53.33,52.46,0.15,0.12,3
22266,2023-01-20 11:09:48.802174,223196782,-8.22,-7.62,-10.11,-10.84,53.4,52.62,0.14,0.12,3
22300,2023-01-20 11:09:48.902193,223296800,-8.74,-8.02,-10.3,-11.22,53.46,52.79,0.14,0.12,3
22332,2023-01-20 11:09:49.002177,223396783,-9.17,-8.18,-10.39,-11.24,53.51,52.8,0.13,0.12,3
22363,2023-01-20 11:09:49.102184,223496788,-9.4,-8.45,-10.48,-11.17,53.54,52.66,0.13,0.12,3
22396,2023-01-20 11:09:49.202192,223596794,-9.52,-8.91,-10.75,-11.51,53.57,52.58,0.11,0.11,3
22429,2023-01-20 11:09:49.302189,223696799,-9.49,-9.33,-11.19,-11.62,53.61,52.46,0.11,0.09,3
22463,2023-01-20 11:09:49.402225,223796842,-9.43,-9.17,-11.47,-12.01,53.62,52.42,0.1,0.08,3
22494,2023-01-20 11:09:49.502150,223896782,-9.31,-8.89,-11.62,-12.2,53.62,52.66,0.1,0.07,3
22527,2023-01-20 11:09:49.602140,223996787,-9.31,-8.66,-11.83,-11.89,53.64,53.02,0.11,0.06,3
22561,2023-01-20 11:09:49.702123,224096755,-9.42,-8.52,-12.04,-11.84,53.67,53.45,0.11,0.05,3
22593,2023-01-20 11:09:49.802163,224196780,-9.61,-8.93,-12.41,-12.02,53.72,53.91,0.1,0.04,3
22627,2023-01-20 11:09:49.902191,224296799,-9.82,-9.22,-13.13,-12.55,53.81,54.29,0.1,0.03,3
22660,2023-01-20 11:09:50.002233,224396833,-9.94,-9.56,-13.82,-13.22,53.88,54.66,0.1,0.04,3
22691,2023-01-20 11:09:50.102236,224496839,-10.1,-9.55,-14.41,-13.23,53.95,54.89,0.1,0.04,3
22724,2023-01-20 11:09:50.202177,224596784,-10.21,-9.7,-14.97,-13.86,54.02,54.91,0.1,0.03,3
22757,2023-01-20 11:09:50.302163,224696783,-10.34,-9.86,-15.37,-14.74,54.07,54.9,0.1,0.03,3
22791,2023-01-20 11:09:50.402161,224796794,-10.46,-9.9,-15.68,-15.39,54.12,54.89,0.09,0.04,3
22824,2023-01-20 11:09:50.502112,224896784,-10.49,-9.91,-15.92,-15.68,54.15,54.76,0.09,0.05,3
22857,2023-01-20 11:09:50.602109,224996819,-10.36,-10.15,-15.93,-15.63,54.13,54.65,0.1,0.05,3
22890,2023-01-20 11:09:50.702127,225096792,-10.04,-10.02,-15.8,-15.59,54.07,54.52,0.1,0.05,3
22922,2023-01-20 11:09:50.802178,225196799,-9.6,-9.99,-15.57,-15.45,53.99,54.33,0.09,0.04,3
22956,2023-01-20 11:09:50.902184,225296800,-9.18,-9.87,-15.31,-15.36,53.91,54.12,0.09,0.03,3
22988,2023-01-20 11:09:51.002167,225396777,-8.8,-9.34,-14.96,-15.1,53.83,54.04,0.1,0.03,3
23019,2023-01-20 11:09:51.102175,225496800,-8.48,-8.81,-14.68,-14.9,53.77,54.02,0.1,0.02,3
23052,2023-01-20 11:09:51.202143,225596783,-8.31,-8.59,-14.28,-14.65,53.72,53.97,0.1,0.02,3
23085,2023-01-20 11:09:51.302185,225696823,-8.17,-8.51,-13.96,-14.19,53.68,53.92,0.1,0.02,3
23119,2023-01-20 11:09:51.402171,225796808,-7.89,-8.27,-14,-14.19,53.65,53.8,0.1,0.02,3
23150,2023-01-20 11:09:51.502156,225896794,-7.59,-7.89,-14.01,-13.99,53.61,53.67,0.1,0.02,3
23183,2023-01-20 11:09:51.602154,225996792,-7.26,-7.51,-13.93,-13.65,53.56,53.44,0.1,0.02,3
23216,2023-01-20 11:09:51.702128,226096744,-6.98,-7.24,-13.9,-13.74,53.53,53.3,0.1,0.03,3
23248,2023-01-20 11:09:51.802189,226196783,-6.74,-7.16,-13.95,-13.67,53.5,53.14,0.1,0.03,3
23282,2023-01-20 11:09:51.902205,226296809,-6.57,-6.89,-13.76,-14.01,53.47,53.13,0.1,0.03,3
23314,2023-01-20 11:09:52.002228,226396842,-6.59,-6.64,-13.69,-13.8,53.47,53.16,0.12,0.03,3
23345,2023-01-20 11:09:52.102185,226496798,-6.78,-6.67,-13.5,-13.45,53.48,53.21,0.12,0.03,3
23378,2023-01-20 11:09:52.202178,226596789,-7,-6.73,-13.43,-13.52,53.5,53.23,0.13,0.03,3
23411,2023-01-20 11:09:52.302158,226696783,-7.29,-7.12,-13.55,-13.43,53.54,53.37,0.13,0.03,3
23445,2023-01-20 11:09:52.402180,226796818,-7.61,-7.26,-13.5,-13.39,53.58,53.46,0.11,0.02,3
23476,2023-01-20 11:09:52.502136,226896785,-7.95,-7.59,-13.42,-13.12,53.61,53.69,0.11,0.02,3
23509,2023-01-20 11:09:52.602179,226996837,-8.33,-7.86,-13.52,-13.16,53.66,53.89,0.12,0.02,3
23542,2023-01-20 11:09:52.702178,227096800,-8.5,-8.41,-13.51,-13.32,53.68,53.98,0.12,0.02,3
23574,2023-01-20 11:09:52.802218,227196805,-8.59,-8.32,-13.42,-13.54,53.69,53.89,0.13,0.02,3
23608,2023-01-20 11:09:52.902190,227296796,-8.46,-8.45,-13.57,-13.33,53.68,53.8,0.13,0.02,3
23640,2023-01-20 11:09:53.002163,227396787,-8.29,-8.26,-13.57,-13.54,53.66,53.71,0.14,0.02,3
23671,2023-01-20 11:09:53.102151,227496780,-8.29,-8.08,-13.46,-13.44,53.66,53.69,0.14,0.02,3
23704,2023-01-20 11:09:53.202172,227596805,-8.4,-8.07,-13.4,-13.17,53.66,53.62,0.13,0.01,3
23737,2023-01-20 11:09:53.302199,227696820,-8.46,-8.19,-13.42,-13.23,53.67,53.57,0.13,0.01,3
