LineNo,UTC_Approx,TimeUS,I,Alt,Press,Temp,CRt,SMS,Offset,GndTemp,Health
671,2023-01-20 11:08:47.421521,161676240,0,0.6420898,92861.95,29.01,0.0164398,161676,0,27.36973,1
1024,2023-01-20 11:08:47.516489,161776206,0,0.6503571,92861.86,28.99,-0.05987089,161776,0,27.36973,1
1140,2023-01-20 11:08:47.631068,161893585,0,0.6641358,92861.71,28.99,-0.1045827,161893,0,27.36973,1
1403,2023-01-20 11:08:47.739008,161995982,0,0.6558685,92861.8,29,-0.07922123,161995,0,27.36973,1
1822,2023-01-20 11:08:47.842573,162096517,0,0.6586243,92861.77,29,-0.005776126,162096,0,27.36973,1
1867,2023-01-20 11:08:47.942318,162196504,0,0.6751588,92861.61,29,0.02588436,162196,0,27.36973,1
1914,2023-01-20 11:08:48.042181,162296505,0,0.6531128,92861.83,29.02,0.02437495,162296,0,27.36973,1
1960,2023-01-20 11:08:48.142167,162396487,0,0.6420898,92861.95,29.03,0.01381467,162396,0,27.36973,1
2013,2023-01-20 11:08:48.242179,162496482,0,0.6172881,92862.22,29.04,-0.04035933,162496,0,27.36973,1
2054,2023-01-20 11:08:48.342255,162596525,0,0.6145323,92862.23,29.05,-0.1162367,162596,0,27.36973,1
2110,2023-01-20 11:08:48.438410,162696479,0,0.6255553,92862.14,29.06,-0.1420933,162696,0,27.36973,1
2171,2023-01-20 11:08:48.529392,162796504,0,0.6062651,92862.34,29.07,-0.09903474,162796,0,27.36973,1
2231,2023-01-20 11:08:48.622404,162896531,0,0.6062651,92862.34,29.08,-0.04650327,162896,0,27.36973,1
2285,2023-01-20 11:08:48.722370,162996477,0,0.6062651,92862.33,29.08,-0.03789149,162996,0,27.36973,1
2340,2023-01-20 11:08:48.822413,163096505,0,0.6145323,92862.25,29.09,-0.04133616,163096,0,27.36973,1
2394,2023-01-20 11:08:48.922421,163196512,0,0.595242,92862.46,29.09,-0.01980694,163196,0,27.36973,1
2436,2023-01-20 11:08:49.022403,163296497,0,0.6090208,92862.29,29.1,-0.006028302,163296,0,27.36973,1
2480,2023-01-20 11:08:49.122394,163396504,0,0.6255553,92862.14,29.11,-0.00775069,163396,0,27.36973,1
2522,2023-01-20 11:08:49.224847,163496500,0,0.6338226,92862.05,29.12,0.02411273,163496,0,27.36973,1
2562,2023-01-20 11:08:49.335881,163596499,0,0.628311,92862.11,29.12,0.07836665,163596,0,27.36973,1
2603,2023-01-20 11:08:49.442236,163696508,0,0.6117765,92862.28,29.13,0.07922789,163696,0,27.36973,1
2643,2023-01-20 11:08:49.542215,163796552,0,0.6145323,92862.25,29.13,0.01377879,163796,0,27.36973,1
2683,2023-01-20 11:08:49.638338,163896492,0,0.5979978,92862.44,29.13,-0.05167034,163896,0,27.36973,1
2721,2023-01-20 11:08:49.729392,163996522,0,0.5566615,92862.84,29.13,-0.08783955,163996,0,27.36973,1
2764,2023-01-20 11:08:49.822396,164096492,0,0.5704403,92862.72,29.13,-0.1308981,164096,0,27.36973,1
2802,2023-01-20 11:08:49.922370,164196490,0,0.5346155,92863.1,29.14,-0.1713732,164196,0,27.36973,1
2844,2023-01-20 11:08:50.022368,164296498,0,0.5043023,92863.41,29.14,-0.1765403,164296,0,27.36973,1
2883,2023-01-20 11:08:50.122405,164396497,0,0.5291041,92863.14,29.13,-0.1782627,164396,0,27.36973,1
2926,2023-01-20 11:08:50.222446,164496518,0,0.5594173,92862.83,29.11,-0.1498439,164496,0,27.36973,1
2964,2023-01-20 11:08:50.322387,164596500,0,0.5594173,92862.82,29.1,-0.02152922,164596,0,27.36973,1
3004,2023-01-20 11:08:50.422337,164696491,0,0.5649288,92862.77,29.09,0.1153971,164696,0,27.36973,1
3046,2023-01-20 11:08:50.522283,164796485,0,0.5539058,92862.88,29.06,0.1291758,164796,0,27.36973,1
3086,2023-01-20 11:08:50.622262,164896488,0,0.4905235,92863.56,29.06,0.03530797,164896,0,27.36973,1
3124,2023-01-20 11:08:50.722326,164996494,0,0.4987908,92863.47,29.05,-0.1042018,164996,0,27.36973,1
3165,2023-01-20 11:08:50.822345,165096482,0,0.496035,92863.48,29.06,-0.2118483,165096,0,27.36973,1
3203,2023-01-20 11:08:50.922343,165196545,0,0.4491873,92863.99,29.05,-0.2066812,165196,0,27.36973,1
3245,2023-01-20 11:08:51.022248,165296497,0,0.4795005,92863.69,29.05,-0.1489827,165296,0,27.36973,1
3283,2023-01-20 11:08:51.122246,165396480,0,0.5373713,92863.06,29.04,-0.0964513,165396,0,27.36973,1
3326,2023-01-20 11:08:51.222306,165496539,0,0.363759,92864.9,29.04,-0.01722348,165496,0,27.36973,1
3364,2023-01-20 11:08:51.322236,165596513,0,0.3472245,92865.07,29.04,-0.07492196,165596,0,27.36973,1
3404,2023-01-20 11:08:51.422202,165696517,0,0.385805,92864.67,29.05,-0.3427464,165696,0,27.36973,1
3444,2023-01-20 11:08:51.522181,165796512,0,0.4436758,92864.05,29.04,-0.415946,165796,0,27.36973,1
3485,2023-01-20 11:08:51.622166,165896509,0,0.451943,92863.97,29.04,-0.0912842,165896,0,27.36973,1
3522,2023-01-20 11:08:51.722164,165996500,0,0.4546988,92863.94,29.05,0.2350999,165996,0,27.36973,1
3565,2023-01-20 11:08:51.822191,166096522,0,0.3499803,92865.03,29.05,0.2333775,166096,0,27.36973,1
3603,2023-01-20 11:08:51.922185,166196519,0,0.407851,92864.43,29.05,-0.00861177,166196,0,27.36973,1
3645,2023-01-20 11:08:52.022170,166296504,0,0.462966,92863.84,29.03,-0.179985,166296,0,27.36973,1
3681,2023-01-20 11:08:52.122183,166396510,0,0.462966,92863.84,29.02,-0.05339265,166396,0,27.36973,1
3716,2023-01-20 11:08:52.222222,166496544,0,0.4712333,92863.75,29,0.1929025,166496,0,27.36973,1
3746,2023-01-20 11:08:52.322177,166596502,0,0.473989,92863.72,29,0.2437117,166596,0,27.36973,1
3779,2023-01-20 11:08:52.422203,166696536,0,0.5043023,92863.41,29.01,0.1438157,166696,0,27.36973,1
3811,2023-01-20 11:08:52.522196,166796554,0,0.5125695,92863.32,29.01,0.1016183,166796,0,27.36973,1
3844,2023-01-20 11:08:52.622123,166896494,0,0.5015466,92863.43,29.02,0.1257311,166896,0,27.36973,1
3874,2023-01-20 11:08:52.722157,166996495,0,0.5428828,92862.99,29.03,0.1231477,166996,0,27.36973,1
3909,2023-01-20 11:08:52.822182,167096494,0,0.4905235,92863.55,29.04,0.08783963,167096,0,27.36973,1
3939,2023-01-20 11:08:52.922179,167196489,0,0.5015466,92863.45,29.03,0.03875279,167196,0,27.36973,1
3974,2023-01-20 11:08:53.022202,167296518,0,0.584219,92862.55,29.03,-0.006028202,167296,0,27.36973,1
4004,2023-01-20 11:08:53.122142,167396489,0,0.5456386,92862.98,29.02,0.04908679,167396,0,27.36973,1
4039,2023-01-20 11:08:53.222170,167496539,0,0.5153253,92863.29,29.02,0.1541498,167496,0,27.36973,1
4069,2023-01-20 11:08:53.322193,167596552,0,0.4712333,92863.77,29.02,0.07750548,167596,0,27.36973,1
4102,2023-01-20 11:08:53.422174,167696534,0,0.4795005,92863.67,29.04,-0.1489827,167696,0,27.36973,1
4134,2023-01-20 11:08:53.522149,167796549,0,0.496035,92863.5,29.04,-0.2488788,167796,0,27.36973,1
4167,2023-01-20 11:08:53.622150,167896575,0,0.5787075,92862.63,29.04,-0.119703,167896,0,27.36973,1
4197,2023-01-20 11:08:53.722160,167996553,0,0.4023395,92864.5,29.03,0.07319956,167996,0,27.36973,1
4232,2023-01-20 11:08:53.822195,168096567,0,0.407851,92864.41,29.03,0.03530801,168096,0,27.36973,1
4262,2023-01-20 11:08:53.922188,168196576,0,0.374782,92864.77,29.02,-0.2661021,168196,0,27.36973,1
4298,2023-01-20 11:08:54.022201,168296605,0,-0.0055115,92868.78,28.99,-0.5700957,168296,0,27.36973,1
4329,2023-01-20 11:08:54.122140,168396557,0,-0.264552,92871.51,28.97,-1.011016,168396,0,27.36973,1
4364,2023-01-20 11:08:54.222115,168496536,0,0.485012,92863.61,28.94,-1.508773,168496,0,27.36973,1
4394,2023-01-20 11:08:54.322194,168596591,0,0.9149091,92859.06,28.93,-0.7423303,168596,0,27.36973,1
4427,2023-01-20 11:08:54.422162,168696548,0,0.9093975,92859.13,28.92,1.598335,168696,0,27.36973,1
4459,2023-01-20 11:08:54.522131,168796555,0,1.171194,92856.37,28.91,3.235423,168796,0,27.36973,1
4492,2023-01-20 11:08:54.622134,168896584,0,1.281424,92855.22,28.91,2.859952,168896,0,27.36973,1
4522,2023-01-20 11:08:54.722119,168996552,0,1.286935,92855.14,28.92,1.880799,168996,0,27.36973,1
4557,2023-01-20 11:08:54.822145,169096563,0,1.521174,92852.66,28.92,1.370125,169096,0,27.36973,1
4587,2023-01-20 11:08:54.922190,169196597,0,1.601091,92851.84,28.93,1.159999,169196,0,27.36973,1
4622,2023-01-20 11:08:55.022161,169296557,0,1.631404,92851.52,28.92,1.137608,169296,0,27.36973,1
4652,2023-01-20 11:08:55.122173,169396559,0,1.669985,92851.11,28.91,1.084216,169396,0,27.36973,1
4687,2023-01-20 11:08:55.222166,169496545,0,1.74439,92850.33,28.88,0.795723,169496,0,27.36973,1
4717,2023-01-20 11:08:55.322179,169596564,0,1.821551,92849.52,28.85,0.5537335,169596,0,27.36973,1
4750,2023-01-20 11:08:55.422170,169696565,0,1.978629,92847.86,28.83,0.5950696,169696,0,27.36973,1
4784,2023-01-20 11:08:55.522141,169796564,0,2.061301,92846.97,28.81,0.8146686,169796,0,27.36973,1
4817,2023-01-20 11:08:55.622119,169896557,0,2.011698,92847.5,28.8,0.9739856,169896,0,27.36973,1
4847,2023-01-20 11:08:55.722214,169996623,0,1.986896,92847.75,28.8,0.8077793,169996,0,27.36973,1
4882,2023-01-20 11:08:55.822158,170096545,0,1.986896,92847.75,28.79,0.3341346,170096,0,27.36973,1
4912,2023-01-20 11:08:55.922196,170196586,0,2.028232,92847.31,28.79,-0.0413363,170196,0,27.36973,1
4947,2023-01-20 11:08:56.022195,170296586,0,2.102637,92846.53,28.79,-0.04133623,170296,0,27.36973,1
4977,2023-01-20 11:08:56.122166,170396550,0,2.251448,92844.97,28.78,0.2376833,170396,0,27.36973,1
5012,2023-01-20 11:08:56.222190,170496569,0,2.265227,92844.81,28.8,0.5907637,170496,0,27.36973,1
5042,2023-01-20 11:08:56.322198,170596579,0,2.256959,92844.92,28.8,0.7810829,170596,0,27.36973,1
5075,2023-01-20 11:08:56.422168,170696558,0,2.306563,92844.38,28.81,0.6398509,170696,0,27.36973,1
5107,2023-01-20 11:08:56.522200,170796622,0,2.375457,92843.66,28.83,0.3720264,170796,0,27.36973,1
5140,2023-01-20 11:08:56.622128,170896568,0,2.474664,92842.61,28.86,0.335857,170896,0,27.36973,1
5170,2023-01-20 11:08:56.722163,170996569,0,2.546313,92841.84,28.89,0.5390936,170996,0,27.36973,1
5205,2023-01-20 11:08:56.822193,171096574,0,2.62623,92841,28.93,0.7371634,171096,0,27.36973,1
5235,2023-01-20 11:08:56.922186,171196575,0,2.686857,92840.38,28.97,0.8008903,171196,0,27.36973,1
5270,2023-01-20 11:08:57.022161,171296554,0,2.799842,92839.16,28.99,0.7802219,171296,0,27.36973,1
5301,2023-01-20 11:08:57.122160,171396545,0,2.841178,92838.74,29.04,0.7716098,171396,0,27.36973,1
5336,2023-01-20 11:08:57.222162,171496540,0,2.940386,92837.69,29.06,0.7853885,171496,0,27.36973,1
5366,2023-01-20 11:08:57.322220,171596596,0,3.064394,92836.39,29.1,0.7957228,171596,0,27.36973,1
5399,2023-01-20 11:08:57.422171,171696554,0,3.180136,92835.17,29.12,0.8646169,171696,0,27.36973,1
5431,2023-01-20 11:08:57.522125,171796544,0,3.339969,92833.48,29.15,1.028239,171796,0,27.36973,1
5464,2023-01-20 11:08:57.622118,171896558,0,3.406107,92832.78,29.16,1.187556,171896,0,27.36973,1
5494,2023-01-20 11:08:57.722144,171996551,0,3.535628,92831.41,29.17,1.229753,171996,0,27.36973,1
5529,2023-01-20 11:08:57.822244,172096626,0,3.731286,92829.34,29.18,1.189278,172096,0,27.36973,1
5559,2023-01-20 11:08:57.922191,172196578,0,3.869073,92827.89,29.22,1.246116,172196,0,27.36973,1
5596,2023-01-20 11:08:58.022187,172296577,0,3.935211,92827.2,29.23,1.405433,172296,0,27.36973,1
5626,2023-01-20 11:08:58.122211,172396598,0,4.180473,92824.61,29.25,1.445046,172396,0,27.36973,1
5661,2023-01-20 11:08:58.222184,172496569,0,4.552499,92820.69,29.27,1.482937,172496,0,27.36973,1
5691,2023-01-20 11:08:58.322181,172596567,0,4.522186,92821.01,29.28,1.821378,172596,0,27.36973,1
5724,2023-01-20 11:08:58.422167,172696561,0,4.588324,92820.31,29.28,2.048728,172696,0,27.36973,1
5756,2023-01-20 11:08:58.522142,172796571,0,4.952083,92816.45,29.29,1.688759,172796,0,27.36973,1
5789,2023-01-20 11:08:58.622119,172896567,0,5.147741,92814.39,29.29,1.399405,172896,0,27.36973,1
5819,2023-01-20 11:08:58.722142,172996553,0,5.288285,92812.92,29.3,1.761958,172996,0,27.36973,1
5854,2023-01-20 11:08:58.822186,173096572,0,5.483943,92810.86,29.3,2.122789,173096,0,27.36973,1
5884,2023-01-20 11:08:58.922174,173196577,0,5.547325,92810.17,29.3,1.965195,173196,0,27.36973,1
5919,2023-01-20 11:08:59.020142,173296574,0,5.690624,92808.66,29.3,1.613837,173296,0,27.36973,1
5951,2023-01-20 11:08:59.111071,173396609,0,5.599684,92809.64,29.31,1.28573,173396,0,27.36973,1
5986,2023-01-20 11:08:59.202134,173496578,0,5.687869,92808.69,29.32,0.8809785,173496,0,27.36973,1
6016,2023-01-20 11:08:59.302117,173596558,0,5.762274,92807.93,29.32,0.4848397,173596,0,27.36973,1
6049,2023-01-20 11:08:59.402414,173696610,0,5.836679,92807.14,29.32,0.3746101,173696,0,27.36973,1
6080,2023-01-20 11:08:59.513474,173796559,0,6.00478,92805.36,29.32,0.5795692,173796,0,27.36973,1
6113,2023-01-20 11:08:59.620118,173896559,0,6.126033,92804.09,29.32,0.8749509,173896,0,27.36973,1
6143,2023-01-20 11:08:59.711018,173996555,0,6.126033,92804.08,29.33,1.091105,173996,0,27.36973,1
6179,2023-01-20 11:08:59.802149,174096590,0,6.123277,92804.09,29.33,1.042879,174096,0,27.36973,1
6209,2023-01-20 11:08:59.902078,174196549,0,6.079185,92804.58,29.34,0.6467403,174196,0,27.36973,1
6244,2023-01-20 11:09:00.002076,174296578,0,6.109498,92804.25,29.35,0.1739568,174296,0,27.36973,1
6274,2023-01-20 11:09:00.102023,174396598,0,6.11501,92804.19,29.36,-0.05942136,174396,0,27.36973,1
6309,2023-01-20 11:09:00.201958,174496604,0,6.214217,92803.13,29.37,-0.007751287,174496,0,27.36973,1
6339,2023-01-20 11:09:00.301955,174596550,0,6.236263,92802.92,29.37,0.2040975,174596,0,27.36973,1
6372,2023-01-20 11:09:00.402051,174696596,0,6.313424,92802.09,29.37,0.4193909,174696,0,27.36973,1
6406,2023-01-20 11:09:00.501982,174796582,0,6.365783,92801.55,29.38,0.5339267,174796,0,27.36973,1
6439,2023-01-20 11:09:00.601947,174896599,0,6.434677,92800.81,29.38,0.5700953,174896,0,27.36973,1
6469,2023-01-20 11:09:00.701946,174996566,0,6.539395,92799.71,29.38,0.6105703,174996,0,27.36973,1
6505,2023-01-20 11:09:00.802005,175096593,0,6.690961,92798.13,29.39,0.7173561,175096,0,27.36973,1
6535,2023-01-20 11:09:00.902014,175196626,0,6.881108,92796.1,29.38,0.944706,175196,0,27.36973,1
6570,2023-01-20 11:09:01.001961,175296596,0,7.112591,92793.67,29.37,1.294342,175296,0,27.36973,1
6600,2023-01-20 11:09:01.102009,175396568,0,7.071255,92794.11,29.35,1.60178,175396,0,27.36973,1
6635,2023-01-20 11:09:01.202125,175496611,0,7.074011,92794.06,29.32,1.523414,175496,0,27.36973,1
6665,2023-01-20 11:09:01.302000,175596554,0,7.401945,92790.63,29.3,1.045463,175596,0,27.36973,1
6698,2023-01-20 11:09:01.401966,175696587,0,7.349586,92791.18,29.27,0.7965844,175696,0,27.36973,1
6730,2023-01-20 11:09:01.501898,175796546,0,7.250379,92792.2,29.25,0.9283435,175796,0,27.36973,1
6763,2023-01-20 11:09:01.601948,175896623,0,7.313761,92791.55,29.23,0.717356,175896,0,27.36973,1
6793,2023-01-20 11:09:01.701874,175996543,0,7.43777,92790.24,29.19,0.1774012,175996,0,27.36973,1
6829,2023-01-20 11:09:01.801920,176096584,0,7.65823,92787.92,29.15,0.1713732,176096,0,27.36973,1
6859,2023-01-20 11:09:01.901899,176196559,0,7.837354,92786.02,29.11,0.8146688,176196,0,27.36973,1
6894,2023-01-20 11:09:02.001928,176296584,0,7.818063,92786.22,29.09,1.41835,176296,0,27.36973,1
6924,2023-01-20 11:09:02.101964,176396608,0,7.8594,92785.79,29.08,1.445046,176396,0,27.36973,1
6959,2023-01-20 11:09:02.201984,176496616,0,8.134974,92782.89,29.07,1.033406,176496,0,27.36973,1
6989,2023-01-20 11:09:02.301944,176596572,0,8.123952,92783,29.07,0.8448097,176596,0,27.36973,1
7022,2023-01-20 11:09:02.401979,176696605,0,8.063325,92783.64,29.09,0.9800137,176696,0,27.36973,1
7054,2023-01-20 11:09:02.501891,176796566,0,8.217648,92782,29.11,0.8387816,176796,0,27.36973,1
7087,2023-01-20 11:09:02.601860,176896582,0,8.170799,92782.52,29.12,0.4460873,176896,0,27.36973,1
7117,2023-01-20 11:09:02.701889,176996566,0,8.352679,92780.58,29.11,0.3453302,176996,0,27.36973,1
7152,2023-01-20 11:09:02.801966,177096599,0,8.31961,92780.95,29.09,0.5115362,177096,0,27.36973,1
7182,2023-01-20 11:09:02.901995,177196633,0,8.424329,92779.82,29.06,0.6252107,177196,0,27.36973,1
7217,2023-01-20 11:09:03.001967,177296609,0,8.504245,92778.98,29.04,0.6286552,177296,0,27.36973,1
7247,2023-01-20 11:09:03.101912,177396566,0,8.774308,92776.13,29.02,0.7027158,177396,0,27.36973,1
7282,2023-01-20 11:09:03.201939,177496604,0,8.881783,92775.02,28.99,1.037711,177496,0,27.36973,1
7312,2023-01-20 11:09:03.301897,177596566,0,8.994769,92773.8,28.98,1.450212,177596,0,27.36973,1
7345,2023-01-20 11:09:03.401910,177696584,0,9.116022,92772.52,28.94,1.551832,177696,0,27.36973,1
7377,2023-01-20 11:09:03.501897,177796570,0,9.082952,92772.88,28.92,1.315012,177796,0,27.36973,1
7410,2023-01-20 11:09:03.601910,177896582,0,9.093976,92772.77,28.92,0.9360957,177896,0,27.36973,1
7441,2023-01-20 11:09:03.701898,177996557,0,9.253809,92771.09,28.93,0.5528724,177996,0,27.36973,1
7476,2023-01-20 11:09:03.801927,178096574,0,9.380573,92769.75,28.94,0.445225,178096,0,27.36973,1
7506,2023-01-20 11:09:03.901903,178196563,0,9.556942,92767.89,28.96,0.7733312,178196,0,27.36973,1
7541,2023-01-20 11:09:04.001917,178296589,0,9.686462,92766.52,28.99,1.218558,178296,0,27.36973,1
7571,2023-01-20 11:09:04.101858,178396539,0,9.989594,92763.3,29.04,1.497579,178396,0,27.36973,1
7607,2023-01-20 11:09:04.201933,178496622,0,10.12738,92761.86,29.07,1.720623,178496,0,27.36973,1
7637,2023-01-20 11:09:04.301901,178596566,0,10.06951,92762.47,29.1,1.864438,178596,0,27.36973,1
7670,2023-01-20 11:09:04.401957,178696599,0,10.14116,92761.72,29.16,1.567333,178696,0,27.36973,1
7702,2023-01-20 11:09:04.501953,178796611,0,10.25139,92760.55,29.19,0.9102586,178796,0,27.36973,1
7735,2023-01-20 11:09:04.601924,178896598,0,10.41398,92758.84,29.23,0.5761236,178896,0,27.36973,1
7765,2023-01-20 11:09:04.701917,178996566,0,10.60688,92756.8,29.26,0.8353361,178996,0,27.36973,1
7800,2023-01-20 11:09:04.801971,179096597,0,10.73916,92755.41,29.31,1.289174,179096,0,27.36973,1
7830,2023-01-20 11:09:04.901912,179196574,0,10.78325,92754.94,29.35,1.525996,179196,0,27.36973,1
7865,2023-01-20 11:09:05.001910,179296608,0,10.73916,92755.41,29.37,1.359791,179296,0,27.36973,1
7895,2023-01-20 11:09:05.101888,179396563,0,10.97064,92752.97,29.39,0.9068146,179396,0,27.36973,1
7930,2023-01-20 11:09:05.201975,179496627,0,11.22417,92750.3,29.42,0.7078833,179496,0,27.36973,1
7960,2023-01-20 11:09:05.301921,179596559,0,11.32062,92749.28,29.45,1.122106,179596,0,27.36973,1
7994,2023-01-20 11:09:05.401983,179696608,0,11.33716,92749.11,29.48,1.616419,179696,0,27.36973,1
8028,2023-01-20 11:09:05.501907,179796588,0,11.43912,92748.03,29.5,1.4993,179796,0,27.36973,1
8061,2023-01-20 11:09:05.601881,179896616,0,11.45014,92747.91,29.51,0.98432,179896,0,27.36973,1
8091,2023-01-20 11:09:05.701948,179996622,0,11.55486,92746.81,29.53,0.6501856,179996,0,27.36973,1
8126,2023-01-20 11:09:05.801964,180096580,0,11.76981,92744.53,29.54,0.6398514,180096,0,27.36973,1
8156,2023-01-20 11:09:05.901895,180196551,0,11.87728,92743.41,29.55,0.8956188,180196,0,27.36973,1
8191,2023-01-20 11:09:06.001900,180296595,0,11.72296,92745.05,29.57,1.167748,180296,0,27.36973,1
8221,2023-01-20 11:09:06.101906,180396592,0,11.74501,92744.81,29.57,0.9403988,180396,0,27.36973,1
8256,2023-01-20 11:09:06.201923,180496600,0,11.65407,92745.76,29.57,0.228211,180496,0,27.36973,1
8286,2023-01-20 11:09:06.301878,180596558,0,11.73398,92744.91,29.57,-0.2953807,180596,0,27.36973,1
8319,2023-01-20 11:09:06.401893,180696575,0,11.78634,92744.36,29.57,-0.2816028,180696,0,27.36973,1
8351,2023-01-20 11:09:06.501888,180796562,0,11.81941,92744.02,29.58,0.04391878,180796,0,27.36973,1
8384,2023-01-20 11:09:06.601934,180896600,0,11.8828,92743.34,29.56,0.3496346,180896,0,27.36973,1
8414,2023-01-20 11:09:06.701891,180996561,0,11.87453,92743.44,29.52,0.4598659,180996,0,27.36973,1
8449,2023-01-20 11:09:06.801941,181096615,0,11.88831,92743.28,29.49,0.3995853,181096,0,27.36973,1
8479,2023-01-20 11:09:06.901922,181196583,0,11.78634,92744.38,29.46,0.2299345,181196,0,27.36973,1
8514,2023-01-20 11:09:07.001939,181296588,0,11.77532,92744.47,29.43,-0.03616899,181296,0,27.36973,1
8544,2023-01-20 11:09:07.101925,181396571,0,11.48872,92747.5,29.4,-0.3754714,181396,0,27.36973,1
8579,2023-01-20 11:09:07.202012,181496656,0,11.58793,92746.45,29.36,-0.7509419,181496,0,27.36973,1
8609,2023-01-20 11:09:07.301918,181596560,0,11.51628,92747.23,29.33,-0.9524561,181596,0,27.36973,1
8643,2023-01-20 11:09:07.401963,181696604,0,11.57966,92746.55,29.3,-0.7268295,181696,0,27.36973,1
8675,2023-01-20 11:09:07.501961,181796614,0,11.69816,92745.28,29.28,-0.2290726,181796,0,27.36973,1
8708,2023-01-20 11:09:07.601924,181896589,0,11.77256,92744.51,29.28,0.2480164,181896,0,27.36973,1
8738,2023-01-20 11:09:07.701924,181996568,0,11.94618,92742.68,29.28,0.6579345,181996,0,27.36973,1
8773,2023-01-20 11:09:07.802004,182096628,0,11.94893,92742.65,29.3,0.9515953,182096,0,27.36973,1
8803,2023-01-20 11:09:07.901929,182196565,0,11.84697,92743.73,29.32,0.9524572,182196,0,27.36973,1
8838,2023-01-20 11:09:08.001951,182296599,0,11.81666,92744.06,29.33,0.5356497,182296,0,27.36973,1
8868,2023-01-20 11:09:08.101926,182396592,0,11.89382,92743.23,29.37,-0.03875226,182396,0,27.36973,1
8903,2023-01-20 11:09:08.201910,182496593,0,12.18593,92740.15,29.41,-0.1429543,182496,0,27.36973,1
8933,2023-01-20 11:09:08.301902,182596562,0,12.28513,92739.11,29.43,0.4753664,182596,0,27.36973,1
8966,2023-01-20 11:09:08.401990,182696629,0,12.24931,92739.48,29.45,1.218557,182696,0,27.36973,1
8998,2023-01-20 11:09:08.501883,182796553,0,12.22726,92739.7,29.49,1.271089,182796,0,27.36973,1
9031,2023-01-20 11:09:08.601907,182896607,0,12.32923,92738.64,29.52,0.6760195,182896,0,27.36973,1
9061,2023-01-20 11:09:08.701903,182996571,0,12.43946,92737.47,29.55,0.2592126,182996,0,27.36973,1
9096,2023-01-20 11:09:08.801960,183096596,0,12.47804,92737.08,29.58,0.4090565,183096,0,27.36973,1
9128,2023-01-20 11:09:08.901946,183196595,0,12.5552,92736.25,29.59,0.7018548,183196,0,27.36973,1
9163,2023-01-20 11:09:09.001780,183296616,0,12.42017,92737.67,29.6,0.6958267,183296,0,27.36973,1
9193,2023-01-20 11:09:09.092790,183396524,0,12.60756,92735.72,29.6,0.4133627,183396,0,27.36973,1
9225,2023-01-20 11:09:09.183963,183496610,0,12.78117,92733.88,29.62,0.2609358,183496,0,27.36973,1
9259,2023-01-20 11:09:09.282357,183596583,0,12.85006,92733.16,29.64,0.5890429,183596,0,27.36973,1
9290,2023-01-20 11:09:09.382383,183696622,0,12.96305,92731.95,29.66,1.084217,183696,0,27.36973,1
9324,2023-01-20 11:09:09.482352,183796589,0,13.05674,92730.96,29.68,1.214253,183796,0,27.36973,1
9355,2023-01-20 11:09:09.582367,183896600,0,13.18626,92729.59,29.69,1.085076,183896,0,27.36973,1
9388,2023-01-20 11:09:09.682350,183996566,0,13.32405,92728.14,29.71,1.053213,183996,0,27.36973,1
9422,2023-01-20 11:09:09.782403,184096600,0,13.54727,92725.79,29.73,1.180666,184096,0,27.36973,1
9454,2023-01-20 11:09:09.882365,184196577,0,13.64923,92724.72,29.75,1.397681,184196,0,27.36973,1
9487,2023-01-20 11:09:09.982403,184296639,0,13.81458,92722.97,29.77,1.570777,184296,0,27.36973,1
9519,2023-01-20 11:09:10.082370,184396614,0,13.91103,92721.98,29.8,1.560445,184396,0,27.36973,1
9551,2023-01-20 11:09:10.182365,184496613,0,14.04881,92720.51,29.81,1.420935,184496,0,27.36973,1
9584,2023-01-20 11:09:10.282330,184596579,0,14.1866,92719.06,29.82,1.305537,184596,0,27.36973,1
9615,2023-01-20 11:09:10.382366,184696616,0,14.33266,92717.5,29.84,1.283145,184696,0,27.36973,1
9649,2023-01-20 11:09:10.482232,184796573,0,14.36021,92717.22,29.85,1.300369,184796,0,27.36973,1
9682,2023-01-20 11:09:10.582232,184896684,0,14.55312,92715.19,29.87,1.235781,184896,0,27.36973,1
9714,2023-01-20 11:09:10.682148,184996566,0,14.90861,92711.44,29.87,1.213392,184996,0,27.36973,1
9747,2023-01-20 11:09:10.782308,185096659,0,15.01884,92710.29,29.87,1.55011,185096,0,27.36973,1
9779,2023-01-20 11:09:10.882268,185196626,0,15.18143,92708.57,29.88,2.025477,185196,0,27.36973,1
9812,2023-01-20 11:09:10.982251,185296631,0,15.41016,92706.16,29.88,2.090926,185296,0,27.36973,1
9845,2023-01-20 11:09:11.082171,185396561,0,15.48456,92705.38,29.89,1.848937,185396,0,27.36973,1
9877,2023-01-20 11:09:11.182250,185496648,0,15.49283,92705.28,29.89,1.625031,185496,0,27.36973,1
9910,2023-01-20 11:09:11.282146,185596556,0,15.72155,92702.87,29.89,1.320175,185596,0,27.36973,1
9941,2023-01-20 11:09:11.382235,185696659,0,15.97784,92700.17,29.88,1.104021,185696,0,27.36973,1
9974,2023-01-20 11:09:11.482134,185796558,0,15.9806,92700.16,29.88,1.329649,185796,0,27.36973,1
10005,2023-01-20 11:09:11.582205,185896625,0,16.14043,92698.46,29.87,1.606086,185896,0,27.36973,1
10037,2023-01-20 11:09:11.682183,185996586,0,16.21483,92697.67,29.84,1.442463,185996,0,27.36973,1
10070,2023-01-20 11:09:11.782261,186096644,0,16.44632,92695.22,29.82,1.168611,186096,0,27.36973,1
10102,2023-01-20 11:09:11.882179,186196562,0,16.68056,92692.77,29.82,1.251283,186196,0,27.36973,1
10135,2023-01-20 11:09:11.982232,186296621,0,16.7715,92691.8,29.84,1.600919,186296,0,27.36973,1
10167,2023-01-20 11:09:12.082158,186396573,0,16.99195,92689.47,29.85,1.832573,186396,0,27.36973,1
10199,2023-01-20 11:09:12.182258,186496703,0,17.12974,92688.02,29.86,1.788653,186496,0,27.36973,1
10232,2023-01-20 11:09:12.282133,186596556,0,17.20139,92687.28,29.86,1.649144,186596,0,27.36973,1
10264,2023-01-20 11:09:12.382237,186696627,0,17.47421,92684.41,29.89,1.532027,186696,0,27.36973,1
10298,2023-01-20 11:09:12.482216,186796619,0,17.65885,92682.44,29.91,1.51136,186796,0,27.36973,1
10329,2023-01-20 11:09:12.582186,186896613,0,17.78837,92681.08,29.93,1.689622,186896,0,27.36973,1
10361,2023-01-20 11:09:12.682158,186996564,0,17.9978,92678.89,29.96,1.852382,186996,0,27.36973,1
10394,2023-01-20 11:09:12.782238,187096612,0,18.18795,92676.87,29.98,1.817073,187096,0,27.36973,1
10426,2023-01-20 11:09:12.882176,187196550,0,18.25685,92676.13,30,1.751623,187196,0,27.36973,1
10459,2023-01-20 11:09:12.982182,187296563,0,18.40014,92674.63,30.03,1.661201,187296,0,27.36973,1
10491,2023-01-20 11:09:13.082164,187396552,0,18.56549,92672.89,30.05,1.452797,187396,0,27.36973,1
10523,2023-01-20 11:09:13.182156,187496551,0,18.73083,92671.16,30.06,1.335677,187496,0,27.36973,1
10556,2023-01-20 11:09:13.282164,187596550,0,18.95681,92668.78,30.08,1.460547,187596,0,27.36973,1
10587,2023-01-20 11:09:13.382222,187696596,0,19.25167,92665.66,30.09,1.724067,187696,0,27.36973,1
10621,2023-01-20 11:09:13.482146,187796542,0,19.37844,92664.32,30.1,2.026338,187796,0,27.36973,1
10652,2023-01-20 11:09:13.582145,187896570,0,19.56031,92662.41,30.11,2.192542,187896,0,27.36973,1
10684,2023-01-20 11:09:13.682194,187996604,0,19.83865,92659.48,30.1,2.093506,187996,0,27.36973,1
10717,2023-01-20 11:09:13.782160,188096546,0,19.97368,92658.05,30.1,1.972943,188096,0,27.36973,1
10749,2023-01-20 11:09:13.882203,188196581,0,19.82762,92659.61,30.08,1.893717,188196,0,27.36973,1
10782,2023-01-20 11:09:13.982200,188296574,0,19.99572,92657.83,30.05,1.439881,188296,0,27.36973,1
10814,2023-01-20 11:09:14.082165,188396547,0,19.87447,92659.11,30.02,0.68205,188396,0,27.36973,1
10846,2023-01-20 11:09:14.182186,188496578,0,19.89652,92658.87,30.01,0.1842916,188496,0,27.36973,1
10879,2023-01-20 11:09:14.282177,188596564,0,19.91581,92658.66,30.01,0.0008600964,188596,0,27.36973,1
10912,2023-01-20 11:09:14.382195,188696573,0,19.767,92660.22,30.01,-0.1093703,188696,0,27.36973,1
10946,2023-01-20 11:09:14.482152,188796552,0,19.80558,92659.82,30.01,-0.2282113,188796,0,27.36973,1
10977,2023-01-20 11:09:14.582136,188896565,0,19.6485,92661.48,30.03,-0.3970003,188896,0,27.36973,1
11009,2023-01-20 11:09:14.682192,188996601,0,19.62094,92661.77,30.05,-0.5614841,188996,0,27.36973,1
11042,2023-01-20 11:09:14.782193,189096572,0,19.38946,92664.22,30.07,-0.7121897,189096,0,27.36973,1
11074,2023-01-20 11:09:14.882203,189196593,0,18.98436,92668.48,30.08,-1.051491,189196,0,27.36973,1
11107,2023-01-20 11:09:14.982199,189296609,0,19.37017,92664.41,30.09,-1.555276,189296,0,27.36973,1
11139,2023-01-20 11:09:15.082137,189396542,0,19.44733,92663.59,30.1,-1.454517,189396,0,27.36973,1
11171,2023-01-20 11:09:15.182180,189496575,0,19.54378,92662.58,30.11,-0.279879,189496,0,27.36973,1
11204,2023-01-20 11:09:15.282178,189596556,0,19.62094,92661.77,30.13,0.9162873,189596,0,27.36973,1
11238,2023-01-20 11:09:15.382181,189696540,0,19.70086,92660.92,30.14,1.164305,189696,0,27.36973,1
11272,2023-01-20 11:09:15.482177,189796572,0,19.4115,92663.99,30.14,0.8181143,189796,0,27.36973,1
11305,2023-01-20 11:09:15.582148,189896590,0,19.40875,92664.01,30.15,0.2127105,189896,0,27.36973,1
11337,2023-01-20 11:09:15.682116,189996529,0,19.32332,92664.92,30.15,-0.5347878,189996,0,27.36973,1
11370,2023-01-20 11:09:15.782159,190096528,0,19.46662,92663.41,30.14,-0.8525616,190096,0,27.36973,1
11402,2023-01-20 11:09:15.882184,190196545,0,19.26545,92665.53,30.14,-0.5416786,190196,0,27.36973,1
11435,2023-01-20 11:09:15.982204,190296565,0,19.29025,92665.26,30.15,-0.2204609,190296,0,27.36973,1
11467,2023-01-20 11:09:16.082188,190396552,0,19.32608,92664.88,30.15,-0.2652419,190396,0,27.36973,1
11499,2023-01-20 11:09:16.182234,190496601,0,19.14144,92666.83,30.13,-0.3556645,190496,0,27.36973,1
11532,2023-01-20 11:09:16.282176,190596543,0,19.12491,92667.02,30.11,-0.3737473,190596,0,27.36973,1
11563,2023-01-20 11:09:16.382180,190696545,0,19.19104,92666.3,30.1,-0.4943109,190696,0,27.36973,1
11597,2023-01-20 11:09:16.482174,190796553,0,19.31505,92664.98,30.08,-0.4228354,190796,0,27.36973,1
11628,2023-01-20 11:09:16.582150,190896547,0,19.10562,92667.2,30.08,0.006027221,190896,0,27.36973,1
11660,2023-01-20 11:09:16.682155,190996543,0,19.15798,92666.64,30.08,0.1997918,190996,0,27.36973,1
11693,2023-01-20 11:09:16.782176,191096550,0,19.26269,92665.55,30.08,-0.05425334,191096,0,27.36973,1
11725,2023-01-20 11:09:16.882211,191196578,0,19.31781,92664.95,30.06,-0.09559036,191196,0,27.36973,1
11758,2023-01-20 11:09:16.982171,191296533,0,19.59614,92662.02,30.05,0.3754693,191296,0,27.36973,1
11790,2023-01-20 11:09:17.082162,191396526,0,19.43906,92663.69,30.04,0.9016454,191396,0,27.36973,1
11822,2023-01-20 11:09:17.182172,191496539,0,19.26545,92665.53,30.01,0.9223157,191496,0,27.36973,1
11855,2023-01-20 11:09:17.282158,191596521,0,19.18553,92666.35,29.97,0.2015162,191596,0,27.36973,1
11886,2023-01-20 11:09:17.382179,191696535,0,19.20758,92666.14,29.93,-0.6992704,191696,0,27.36973,1
11920,2023-01-20 11:09:17.482199,191796582,0,18.89342,92669.45,29.91,-1.01446,191796,0,27.36973,1
11951,2023-01-20 11:09:17.582150,191896566,0,19.01743,92668.13,29.92,-0.9533184,191896,0,27.36973,1
11983,2023-01-20 11:09:17.682129,191996524,0,19.17175,92666.5,29.94,-0.8499789,191996,0,27.36973,1
12016,2023-01-20 11:09:17.782164,192096525,0,19.18002,92666.41,29.97,-0.341025,192096,0,27.36973,1
12048,2023-01-20 11:09:17.882166,192196524,0,19.19104,92666.3,30.01,0.4021686,192196,0,27.36973,1
12081,2023-01-20 11:09:17.982205,192296567,0,19.25994,92665.58,30.05,0.642435,192296,0,27.36973,1
12114,2023-01-20 11:09:18.082174,192396553,0,19.31505,92665,30.09,0.4650313,192396,0,27.36973,1
12146,2023-01-20 11:09:18.182213,192496611,0,19.50244,92663.02,30.12,0.4555589,192496,0,27.36973,1
12179,2023-01-20 11:09:18.274780,192596550,0,19.49969,92663.06,30.14,0.6992728,192596,0,27.36973,1
12210,2023-01-20 11:09:18.365809,192696549,0,19.58236,92662.19,30.16,0.8904535,192696,0,27.36973,1
12244,2023-01-20 11:09:18.462405,192796558,0,19.86345,92659.23,30.19,0.9016484,192796,0,27.36973,1
12275,2023-01-20 11:09:18.562324,192896547,0,20.04533,92657.3,30.2,1.055797,192896,0,27.36973,1
12308,2023-01-20 11:09:18.662282,192996532,0,20.04257,92657.31,30.22,1.474325,192996,0,27.36973,1
12341,2023-01-20 11:09:18.762344,193096593,0,19.97368,92658.05,30.22,1.549247,193096,0,27.36973,1
12373,2023-01-20 11:09:18.862307,193196591,0,20.23823,92655.27,30.23,0.9998209,193196,0,27.36973,1
12406,2023-01-20 11:09:18.962191,193296530,0,20.34846,92654.12,30.24,0.5959314,193296,0,27.36973,1
12438,2023-01-20 11:09:19.062178,193396524,0,20.56065,92651.86,30.26,0.9025079,193396,0,27.36973,1
12470,2023-01-20 11:09:19.162217,193496540,0,20.83072,92649.03,30.27,1.478631,193496,0,27.36973,1
12503,2023-01-20 11:09:19.262268,193596521,0,21.10078,92646.19,30.28,1.905772,193596,0,27.36973,1
12535,2023-01-20 11:09:19.362388,193696544,0,20.83623,92648.97,30.29,2.101258,193696,0,27.36973,1
12570,2023-01-20 11:09:19.462364,193796578,0,20.66813,92650.73,30.29,1.588001,193796,0,27.36973,1
12601,2023-01-20 11:09:19.562169,193896536,0,20.75631,92649.81,30.31,0.2704108,193896,0,27.36973,1
12634,2023-01-20 11:09:19.662120,193996524,0,20.65986,92650.83,30.32,-0.7380206,193996,0,27.36973,1
12668,2023-01-20 11:09:19.762162,194096531,0,21.13109,92645.84,30.33,-0.5821508,194096,0,27.36973,1
12700,2023-01-20 11:09:19.862157,194196520,0,21.40942,92642.94,30.34,0.4521131,194196,0,27.36973,1
12733,2023-01-20 11:09:19.962162,194296535,0,21.62437,92640.67,30.34,1.758511,194296,0,27.36973,1
12766,2023-01-20 11:09:20.062209,194396579,0,21.5913,92641.02,30.34,2.544765,194396,0,27.36973,1
12797,2023-01-20 11:09:20.162232,194496590,0,21.47556,92642.22,30.35,2.159822,194496,0,27.36973,1
12830,2023-01-20 11:09:20.262171,194596530,0,21.59957,92640.94,30.35,1.008432,194596,0,27.36973,1
12862,2023-01-20 11:09:20.362174,194696543,0,21.85861,92638.19,30.35,0.2325135,194696,0,27.36973,1
12896,2023-01-20 11:09:20.462163,194796550,0,21.63264,92640.57,30.35,0.3754681,194796,0,27.36973,1
12929,2023-01-20 11:09:20.562131,194896541,0,21.67949,92640.08,30.35,0.6674075,194896,0,27.36973,1
12962,2023-01-20 11:09:20.662142,194996547,0,21.94955,92637.23,30.35,0.4185313,194996,0,27.36973,1
12995,2023-01-20 11:09:20.762195,195096578,0,21.82279,92638.59,30.36,0.2661049,195096,0,27.36973,1
13027,2023-01-20 11:09:20.862180,195196556,0,21.80074,92638.8,30.35,0.5132604,195196,0,27.36973,1
13060,2023-01-20 11:09:20.962189,195296568,0,21.88617,92637.89,30.34,0.442642,195296,0,27.36973,1
13093,2023-01-20 11:09:21.062159,195396538,0,21.70704,92639.8,30.35,0.04908442,195396,0,27.36973,1
13124,2023-01-20 11:09:21.162185,195496562,0,21.71531,92639.69,30.34,-0.1929045,195496,0,27.36973,1
13158,2023-01-20 11:09:21.262165,195596541,0,21.31848,92643.87,30.35,-0.4779505,195596,0,27.36973,1
13190,2023-01-20 11:09:21.362147,195696523,0,21.36533,92643.39,30.35,-1.012738,195696,0,27.36973,1
13224,2023-01-20 11:09:21.462210,195796615,0,21.43698,92642.64,30.35,-1.371846,195796,0,27.36973,1
13255,2023-01-20 11:09:21.562096,195896547,0,21.54445,92641.51,30.35,-0.9912074,195896,0,27.36973,1
13288,2023-01-20 11:09:21.662080,195996517,0,21.45903,92642.41,30.36,-0.1059234,195996,0,27.36973,1
13321,2023-01-20 11:09:21.762146,196096532,0,21.37911,92643.26,30.35,0.3504956,196096,0,27.36973,1
13353,2023-01-20 11:09:21.862155,196196524,0,21.5417,92641.54,30.35,0.1214236,196196,0,27.36973,1
13386,2023-01-20 11:09:21.962158,196296531,0,21.77043,92639.11,30.35,-0.0008618663,196296,0,27.36973,1
13419,2023-01-20 11:09:22.062212,196396599,0,21.59682,92640.95,30.35,0.4615873,196396,0,27.36973,1
13450,2023-01-20 11:09:22.162157,196496565,0,21.77594,92639.06,30.35,0.8560049,196496,0,27.36973,1
13484,2023-01-20 11:09:22.262111,196596515,0,21.94128,92637.33,30.35,0.7328594,196596,0,27.36973,1
13516,2023-01-20 11:09:22.362161,196696545,0,22.01569,92636.53,30.34,0.7070231,196696,0,27.36973,1
13550,2023-01-20 11:09:22.462166,196796558,0,21.95506,92637.19,30.34,0.9739833,196796,0,27.36973,1
13581,2023-01-20 11:09:22.562126,196896543,0,22.01844,92636.5,30.33,0.8999222,196896,0,27.36973,1
13614,2023-01-20 11:09:22.662126,196996537,0,22.12592,92635.38,30.34,0.4900062,196996,0,27.36973,1
13647,2023-01-20 11:09:22.762200,197096587,0,22.31055,92633.44,30.33,0.402168,197096,0,27.36973,1
13679,2023-01-20 11:09:22.862161,197196537,0,22.19757,92634.63,30.34,0.7156354,197196,0,27.36973,1
13712,2023-01-20 11:09:22.962181,197296554,0,22.30504,92633.48,30.34,0.8499784,197296,0,27.36973,1
13745,2023-01-20 11:09:23.062175,197396545,0,22.51172,92631.31,30.34,0.6441569,197396,0,27.36973,1
13776,2023-01-20 11:09:23.162179,197496546,0,22.87273,92627.5,30.34,0.7406068,197496,0,27.36973,1
13810,2023-01-20 11:09:23.262172,197596543,0,23.03532,92625.8,30.34,1.47777,197596,0,27.36973,1
13842,2023-01-20 11:09:23.362207,197696588,0,22.99122,92626.25,30.36,2.146903,197696,0,27.36973,1
13876,2023-01-20 11:09:23.462160,197796552,0,23.10421,92625.08,30.35,1.959169,197796,0,27.36973,1
13907,2023-01-20 11:09:23.562136,197896541,0,22.96918,92626.48,30.36,1.133304,197896,0,27.36973,1
13940,2023-01-20 11:09:23.662125,197996521,0,23.08768,92625.25,30.37,0.4081947,197996,0,27.36973,1
13973,2023-01-20 11:09:23.762165,198096538,0,23.36601,92622.3,30.37,0.1851499,198096,0,27.36973,1
14005,2023-01-20 11:09:23.862157,198196525,0,23.30814,92622.92,30.37,0.5278987,198196,0,27.36973,1
14038,2023-01-20 11:09:23.962163,198296538,0,23.54513,92620.42,30.37,1.048049,198296,0,27.36973,1
14071,2023-01-20 11:09:24.062185,198396574,0,23.73803,92618.39,30.37,1.26248,198396,0,27.36973,1
14102,2023-01-20 11:09:24.162144,198496553,0,23.89787,92616.7,30.37,1.38304,198496,0,27.36973,1
14136,2023-01-20 11:09:24.262124,198596523,0,23.95574,92616.09,30.37,1.607804,198596,0,27.36973,1
14168,2023-01-20 11:09:24.362158,198696531,0,24.01361,92615.5,30.37,1.563025,198696,0,27.36973,1
14202,2023-01-20 11:09:24.462155,198796536,0,24.23682,92613.13,30.37,1.215975,198796,0,27.36973,1
14234,2023-01-20 11:09:24.562133,198896543,0,23.99983,92615.63,30.38,0.9464282,198896,0,27.36973,1
14267,2023-01-20 11:09:24.662167,198996585,0,24.09352,92614.66,30.38,0.6777424,198996,0,27.36973,1
14300,2023-01-20 11:09:24.762149,199096561,0,23.92542,92616.42,30.38,0.1593184,199096,0,27.36973,1
14332,2023-01-20 11:09:24.862133,199196531,0,23.91164,92616.56,30.38,-0.3479111,199196,0,27.36973,1
14365,2023-01-20 11:09:24.962174,199296553,0,23.90338,92616.64,30.38,-0.5571783,199296,0,27.36973,1
14398,2023-01-20 11:09:25.062162,199396534,0,23.91716,92616.52,30.38,-0.5046481,199396,0,27.36973,1
14429,2023-01-20 11:09:25.162174,199496545,0,23.87031,92616.99,30.39,-0.2953815,199496,0,27.36973,1
14463,2023-01-20 11:09:25.262161,199596526,0,23.98881,92615.75,30.38,-0.0930053,199596,0,27.36973,1
14495,2023-01-20 11:09:25.362236,199696592,0,23.80693,92617.66,30.39,0.007750983,199696,0,27.36973,1
14529,2023-01-20 11:09:25.462159,199796534,0,23.94471,92616.2,30.39,0.001723172,199796,0,27.36973,1
14562,2023-01-20 11:09:25.562116,199896527,0,24.41319,92611.27,30.39,0.09473025,199896,0,27.36973,1
14595,2023-01-20 11:09:25.662119,199996528,0,24.26989,92612.78,30.4,0.7199395,199996,0,27.36973,1
14628,2023-01-20 11:09:25.762141,200096524,0,24.38288,92611.6,30.4,1.458823,200096,0,27.36973,1
14660,2023-01-20 11:09:25.862159,200196529,0,24.01361,92615.48,30.39,1.23578,200196,0,27.36973,1
14693,2023-01-20 11:09:25.962219,200296583,0,24.15415,92614.02,30.41,0.1472592,200296,0,27.36973,1
14726,2023-01-20 11:09:26.062144,200396522,0,24.29469,92612.53,30.41,-0.6148773,200396,0,27.36973,1
14757,2023-01-20 11:09:26.162134,200496538,0,24.57027,92609.62,30.41,-0.2772981,200496,0,27.36973,1
14791,2023-01-20 11:09:26.262129,200596527,0,24.49311,92610.44,30.4,0.7431912,200596,0,27.36973,1
14823,2023-01-20 11:09:26.362154,200696527,0,24.60334,92609.27,30.4,1.318457,200696,0,27.36973,1
14857,2023-01-20 11:09:26.462150,200796532,0,24.94505,92605.66,30.4,1.162586,200796,0,27.36973,1
14888,2023-01-20 11:09:26.562133,200896545,0,24.96985,92605.41,30.41,1.119526,200896,0,27.36973,1
14921,2023-01-20 11:09:26.662166,200996587,0,25.34464,92601.48,30.41,1.533747,200996,0,27.36973,1
14954,2023-01-20 11:09:26.762129,201096547,0,25.20409,92602.95,30.4,1.835156,201096,0,27.36973,1
14986,2023-01-20 11:09:26.862142,201196540,0,25.44109,92600.44,30.41,1.671535,201196,0,27.36973,1
15019,2023-01-20 11:09:26.962179,201296546,0,25.43557,92600.52,30.41,1.246116,201296,0,27.36973,1
15052,2023-01-20 11:09:27.062181,201396542,0,25.23441,92602.64,30.4,0.823279,201396,0,27.36973,1
15083,2023-01-20 11:09:27.162187,201496557,0,25.08835,92604.16,30.4,0.2609336,201496,0,27.36973,1
15117,2023-01-20 11:09:27.262200,201596581,0,25.24818,92602.48,30.39,-0.497756,201596,0,27.36973,1
15149,2023-01-20 11:09:27.362155,201696547,0,25.50447,92599.78,30.39,-0.6897956,201696,0,27.36973,1
15183,2023-01-20 11:09:27.462174,201796565,0,25.40526,92600.84,30.39,0.09645343,201796,0,27.36973,1
15214,2023-01-20 11:09:27.562154,201896536,0,25.50171,92599.8,30.39,0.8844244,201896,0,27.36973,1
15247,2023-01-20 11:09:27.662175,201996550,0,25.82413,92596.41,30.39,0.9464276,201996,0,27.36973,1
15280,2023-01-20 11:09:27.762176,202096545,0,25.72217,92597.48,30.39,0.913701,202096,0,27.36973,1
15312,2023-01-20 11:09:27.862171,202196538,0,25.90956,92595.53,30.39,1.133298,202196,0,27.36973,1
15345,2023-01-20 11:09:27.962233,202296600,0,25.95366,92595.05,30.4,1.115214,202296,0,27.36973,1
15378,2023-01-20 11:09:28.062174,202396537,0,25.82413,92596.43,30.39,0.8293075,202396,0,27.36973,1
15409,2023-01-20 11:09:28.162173,202496529,0,25.74146,92597.28,30.39,0.4366148,202496,0,27.36973,1
15443,2023-01-20 11:09:28.262170,202596528,0,25.68359,92597.9,30.39,-0.1532876,202596,0,27.36973,1
15475,2023-01-20 11:09:28.362169,202696533,0,25.76902,92596.98,30.38,-0.5993748,202696,0,27.36973,1
15509,2023-01-20 11:09:28.456552,202796561,0,26.48,92589.52,30.38,-0.2721298,202796,0,27.36973,1
15540,2023-01-20 11:09:28.547492,202896575,0,26.22372,92592.2,30.4,0.9472889,202896,0,27.36973,1
15573,2023-01-20 11:09:28.642199,202996521,0,25.58714,92598.9,30.39,1.773152,202996,0,27.36973,1
15606,2023-01-20 11:09:28.742206,203096527,0,26.52685,92589.01,30.4,0.8353371,203096,0,27.36973,1
15638,2023-01-20 11:09:28.842205,203196526,0,26.7914,92586.23,30.4,-0.101617,203196,0,27.36973,1
15672,2023-01-20 11:09:28.942210,203296532,0,26.76936,92586.47,30.4,1.1755,203296,0,27.36973,1
15704,2023-01-20 11:09:29.042222,203396543,0,26.75007,92586.67,30.39,2.648103,203396,0,27.36973,1
15735,2023-01-20 11:09:29.142255,203496569,0,26.75834,92586.57,30.4,1.999641,203496,0,27.36973,1
15769,2023-01-20 11:09:29.242260,203596582,0,26.69495,92587.25,30.39,0.5709577,203596,0,27.36973,1
15801,2023-01-20 11:09:29.342197,203696544,0,26.7914,92586.22,30.39,-0.05511403,203696,0,27.36973,1
15835,2023-01-20 11:09:29.442184,203796551,0,26.75007,92586.67,30.38,-0.0714779,203796,0,27.36973,1
15866,2023-01-20 11:09:29.542160,203896542,0,26.7914,92586.23,30.39,0.05855739,203896,0,27.36973,1
15900,2023-01-20 11:09:29.642210,203996554,0,26.89061,92585.2,30.39,0.1713711,203996,0,27.36973,1
15934,2023-01-20 11:09:29.742329,204096563,0,26.88234,92585.27,30.39,0.2833247,204096,0,27.36973,1
15966,2023-01-20 11:09:29.842383,204196583,0,27.19374,92582,30.39,0.4891461,204196,0,27.36973,1
16000,2023-01-20 11:09:29.942276,204296546,0,27.25437,92581.35,30.4,0.8413666,204296,0,27.36973,1
16032,2023-01-20 11:09:30.042202,204396531,0,27.3894,92579.95,30.39,1.252146,204396,0,27.36973,1
16063,2023-01-20 11:09:30.142171,204496545,0,27.315,92580.7,30.39,1.368403,204496,0,27.36973,1
16097,2023-01-20 11:09:30.242131,204596525,0,27.43625,92579.45,30.4,1.017044,204596,0,27.36973,1
16129,2023-01-20 11:09:30.342159,204696537,0,27.57128,92578.03,30.39,0.6131554,204696,0,27.36973,1
16163,2023-01-20 11:09:30.442155,204796532,0,27.5575,92578.17,30.39,0.5830151,204796,0,27.36973,1
16196,2023-01-20 11:09:30.542181,204896576,0,27.83583,92575.23,30.39,0.7922798,204896,0,27.36973,1
16229,2023-01-20 11:09:30.642117,204996525,0,28.00393,92573.45,30.38,1.032546,204996,0,27.36973,1
16262,2023-01-20 11:09:30.742118,205096532,0,28.27675,92570.59,30.39,1.423515,205096,0,27.36973,1
16294,2023-01-20 11:09:30.842126,205196528,0,28.21888,92571.2,30.39,1.823959,205196,0,27.36973,1
16371,2023-01-20 11:09:30.942197,205296564,0,28.39525,92569.34,30.39,1.773151,205296,0,27.36973,1
16403,2023-01-20 11:09:31.042187,205396537,0,28.34565,92569.85,30.4,1.281424,205396,0,27.36973,1
16434,2023-01-20 11:09:31.142249,205496605,0,28.39249,92569.36,30.39,0.7862508,205496,0,27.36973,1
16468,2023-01-20 11:09:31.242175,205596538,0,28.45588,92568.7,30.4,0.483979,205596,0,27.36973,1
16500,2023-01-20 11:09:31.342172,205696543,0,28.54682,92567.73,30.39,0.376333,205696,0,27.36973,1
16533,2023-01-20 11:09:31.442158,205796540,0,28.50272,92568.22,30.39,0.4503942,205796,0,27.36973,1
16564,2023-01-20 11:09:31.542130,205896528,0,28.97671,92563.22,30.39,0.619182,205896,0,27.36973,1
16597,2023-01-20 11:09:31.642121,205996521,0,28.84995,92564.56,30.4,0.9610659,205996,0,27.36973,1
16630,2023-01-20 11:09:31.742154,206096534,0,29.31843,92559.63,30.4,1.453658,206096,0,27.36973,1
16662,2023-01-20 11:09:31.842206,206196573,0,29.36527,92559.13,30.4,1.791239,206196,0,27.36973,1
16696,2023-01-20 11:09:31.942168,206296532,0,29.26056,92560.24,30.4,1.835159,206296,0,27.36973,1
16728,2023-01-20 11:09:32.042166,206396528,0,29.55542,92557.13,30.4,1.488967,206396,0,27.36973,1
16759,2023-01-20 11:09:32.142184,206496544,0,29.50582,92557.66,30.4,0.956763,206496,0,27.36973,1
16793,2023-01-20 11:09:32.242157,206596520,0,29.48653,92557.84,30.4,0.7302749,206596,0,27.36973,1
16825,2023-01-20 11:09:32.342165,206696534,0,29.66565,92555.96,30.4,0.643295,206696,0,27.36973,1
16859,2023-01-20 11:09:32.442222,206796603,0,29.94949,92552.97,30.4,0.5812896,206796,0,27.36973,1
16890,2023-01-20 11:09:32.542118,206896519,0,30.09004,92551.51,30.41,1.001543,206896,0,27.36973,1
16923,2023-01-20 11:09:32.642111,206996525,0,30.24987,92549.81,30.4,1.670675,206996,0,27.36973,1
16956,2023-01-20 11:09:32.742110,207096527,0,30.24436,92549.88,30.41,1.848075,207096,0,27.36973,1
16988,2023-01-20 11:09:32.842124,207196530,0,30.53647,92546.78,30.4,1.520829,207196,0,27.36973,1
17022,2023-01-20 11:09:32.942164,207296540,0,30.55576,92546.58,30.4,1.253005,207296,0,27.36973,1
17054,2023-01-20 11:09:33.042190,207396549,0,30.70732,92545,30.42,1.266783,207396,0,27.36973,1
17085,2023-01-20 11:09:33.142230,207496587,0,30.89472,92543.04,30.41,1.309842,207496,0,27.36973,1
17119,2023-01-20 11:09:33.242175,207596546,0,30.75417,92544.49,30.41,1.237505,207596,0,27.36973,1
17151,2023-01-20 11:09:33.342148,207696551,0,31.04628,92541.44,30.41,1.052353,207696,0,27.36973,1
17185,2023-01-20 11:09:33.442177,207796598,0,30.98565,92542.06,30.41,0.8267236,207796,0,27.36973,1
17216,2023-01-20 11:09:33.542121,207896540,0,31.04077,92541.48,30.4,0.7362998,207896,0,27.36973,1
17249,2023-01-20 11:09:33.642138,207996547,0,31.11518,92540.72,30.41,0.6717128,207996,0,27.36973,1
17282,2023-01-20 11:09:33.742206,208096592,0,31.26674,92539.11,30.41,0.5589002,208096,0,27.36973,1
17314,2023-01-20 11:09:33.842213,208196583,0,31.23918,92539.41,30.42,0.6295181,208196,0,27.36973,1
17348,2023-01-20 11:09:33.942188,208296551,0,31.41831,92537.51,30.42,0.786252,208296,0,27.36973,1
17380,2023-01-20 11:09:34.042190,208396548,0,31.34666,92538.27,30.43,0.7784999,208396,0,27.36973,1
17411,2023-01-20 11:09:34.142194,208496549,0,31.48996,92536.75,30.44,0.6665468,208496,0,27.36973,1
17445,2023-01-20 11:09:34.242175,208596530,0,31.62223,92535.35,30.44,0.605405,208596,0,27.36973,1
17477,2023-01-20 11:09:34.342173,208696529,0,31.73522,92534.19,30.43,0.7371652,208696,0,27.36973,1
17511,2023-01-20 11:09:34.442238,208796605,0,31.71869,92534.36,30.44,0.9765709,208796,0,27.36973,1
17542,2023-01-20 11:09:34.542136,208896527,0,31.65806,92534.98,30.43,0.923177,208896,0,27.36973,1
17575,2023-01-20 11:09:34.642135,208996532,0,31.82616,92533.22,30.44,0.5106735,208996,0,27.36973,1
17609,2023-01-20 11:09:34.742152,209096530,0,31.66081,92534.95,30.44,0.1877326,209096,0,27.36973,1
17641,2023-01-20 11:09:34.842157,209196522,0,31.85923,92532.86,30.44,0.1489806,209196,0,27.36973,1
17675,2023-01-20 11:09:34.942175,209296536,0,31.95292,92531.88,30.44,0.2480173,209296,0,27.36973,1
17707,2023-01-20 11:09:35.042231,209396589,0,32.09898,92530.34,30.45,0.5390942,209396,0,27.36973,1
17738,2023-01-20 11:09:35.142249,209496608,0,32.13756,92529.94,30.45,0.9472901,209496,0,27.36973,1
17772,2023-01-20 11:09:35.242168,209596541,0,32.14032,92529.92,30.44,1.068716,209596,0,27.36973,1
17804,2023-01-20 11:09:35.342155,209696558,0,32.06591,92530.69,30.44,0.7664448,209696,0,27.36973,1
17838,2023-01-20 11:09:35.442155,209796568,0,32.2781,92528.47,30.44,0.3367204,209796,0,27.36973,1
17871,2023-01-20 11:09:35.542154,209896549,0,32.44896,92526.67,30.44,0.2669656,209896,0,27.36973,1
17904,2023-01-20 11:09:35.642168,209996549,0,32.44069,92526.75,30.44,0.711329,209996,0,27.36973,1
17937,2023-01-20 11:09:35.742214,210096587,0,32.50407,92526.07,30.45,1.088521,210096,0,27.36973,1
17969,2023-01-20 11:09:35.842151,210196526,0,32.64737,92524.57,30.44,0.960207,210196,0,27.36973,1
18003,2023-01-20 11:09:35.942145,210296535,0,32.70249,92523.98,30.44,0.7466352,210296,0,27.36973,1
18035,2023-01-20 11:09:36.042129,210396518,0,32.7328,92523.68,30.44,0.7819414,210396,0,27.36973,1
18066,2023-01-20 11:09:36.142174,210496540,0,33.10483,92519.76,30.43,0.8801138,210496,0,27.36973,1
18100,2023-01-20 11:09:36.242172,210596525,0,32.92295,92521.69,30.44,1.035125,210596,0,27.36973,1
18132,2023-01-20 11:09:36.342218,210696571,0,33.12963,92519.51,30.44,1.168609,210696,0,27.36973,1
18166,2023-01-20 11:09:36.438400,210796560,0,33.21781,92518.58,30.44,1.009291,210796,0,27.36973,1
18197,2023-01-20 11:09:36.529363,210896542,0,33.23159,92518.42,30.44,0.8103586,210896,0,27.36973,1
18230,2023-01-20 11:09:36.622338,210996519,0,33.31702,92517.52,30.44,0.801748,210996,0,27.36973,1
18263,2023-01-20 11:09:36.722362,211096540,0,33.21781,92518.58,30.45,0.6872166,211096,0,27.36973,1
18295,2023-01-20 11:09:36.822377,211196549,0,33.50717,92515.52,30.44,0.4478133,211196,0,27.36973,1
18329,2023-01-20 11:09:36.922407,211296565,0,33.53473,92515.23,30.43,0.4667592,211296,0,27.36973,1
18361,2023-01-20 11:09:37.022437,211396588,0,33.77448,92512.72,30.44,0.8499813,211396,0,27.36973,1
18392,2023-01-20 11:09:37.122397,211496564,0,33.72211,92513.27,30.44,1.220285,211496,0,27.36973,1
18426,2023-01-20 11:09:37.222344,211596531,0,33.84061,92512.02,30.45,1.21167,211596,0,27.36973,1
18458,2023-01-20 11:09:37.322346,211696566,0,33.88746,92511.53,30.45,0.9188688,211696,0,27.36973,1
18492,2023-01-20 11:09:37.424782,211796568,0,34.12721,92508.99,30.46,0.7380223,211796,0,27.36973,1
18523,2023-01-20 11:09:37.535771,211896544,0,34.11619,92509.13,30.46,0.8809745,211896,0,27.36973,1
18556,2023-01-20 11:09:37.638319,211996542,0,34.59018,92504.13,30.46,1.195302,211996,0,27.36973,1
18589,2023-01-20 11:09:37.729298,212096596,0,34.49924,92505.07,30.46,1.537192,212096,0,27.36973,1
18621,2023-01-20 11:09:37.822200,212196546,0,34.56262,92504.41,30.46,1.713735,212196,0,27.36973,1
18655,2023-01-20 11:09:37.922211,212296539,0,34.61498,92503.86,30.47,1.370126,212296,0,27.36973,1
18687,2023-01-20 11:09:38.022205,212396522,0,34.81064,92501.8,30.47,0.7940018,212396,0,27.36973,1
18718,2023-01-20 11:09:38.122217,212496545,0,34.75277,92502.43,30.48,0.6553555,212496,0,27.36973,1
18752,2023-01-20 11:09:38.222202,212596543,0,34.99252,92499.89,30.47,0.8301735,212596,0,27.36973,1
18784,2023-01-20 11:09:38.322224,212696581,0,35.09999,92498.75,30.48,0.9403991,212696,0,27.36973,1
18818,2023-01-20 11:09:38.422159,212796532,0,35.26809,92496.98,30.48,1.110908,212796,0,27.36973,1
18849,2023-01-20 11:09:38.522141,212896530,0,35.28463,92496.81,30.49,1.323618,212896,0,27.36973,1
18882,2023-01-20 11:09:38.622127,212996525,0,35.35627,92496.06,30.48,1.26592,212996,0,27.36973,1
18915,2023-01-20 11:09:38.722150,213096536,0,35.54367,92494.09,30.48,0.9903467,213096,0,27.36973,1
18947,2023-01-20 11:09:38.822154,213196527,0,35.42517,92495.33,30.48,0.8275867,213196,0,27.36973,1
18981,2023-01-20 11:09:38.922185,213296547,0,35.57949,92493.72,30.48,0.7509422,213296,0,27.36973,1
19013,2023-01-20 11:09:39.022202,213396556,0,35.59327,92493.56,30.48,0.5778456,213396,0,27.36973,1
19044,2023-01-20 11:09:39.122178,213496536,0,35.78893,92491.5,30.49,0.509814,213496,0,27.36973,1
19078,2023-01-20 11:09:39.222161,213596528,0,35.82475,92491.15,30.48,0.7156372,213596,0,27.36973,1
19110,2023-01-20 11:09:39.322151,213696542,0,36.05072,92488.75,30.48,0.9851849,213696,0,27.36973,1
19144,2023-01-20 11:09:39.422173,213796582,0,36.22433,92486.92,30.49,1.200475,213796,0,27.36973,1
19175,2023-01-20 11:09:39.522132,213896537,0,36.2078,92487.11,30.49,1.394234,213896,0,27.36973,1
19208,2023-01-20 11:09:39.622173,213996572,0,36.34008,92485.72,30.5,1.381315,213996,0,27.36973,1
19242,2023-01-20 11:09:39.722161,214096548,0,36.51093,92483.91,30.5,1.115215,214096,0,27.36973,1
19277,2023-01-20 11:09:39.822169,214196543,0,36.46409,92484.41,30.5,0.9559,214196,0,27.36973,1
19311,2023-01-20 11:09:39.922190,214296553,0,36.51369,92483.9,30.5,0.9180117,214296,0,27.36973,1
19343,2023-01-20 11:09:40.022202,214396557,0,36.56054,92483.41,30.5,0.681194,214396,0,27.36973,1
19374,2023-01-20 11:09:40.122208,214496567,0,36.57983,92483.18,30.5,0.3961456,214496,0,27.36973,1
19408,2023-01-20 11:09:40.222172,214596535,0,36.781,92481.06,30.49,0.3746092,214596,0,27.36973,1
19440,2023-01-20 11:09:40.322226,214696591,0,36.89674,92479.86,30.49,0.6200386,214696,0,27.36973,1
19474,2023-01-20 11:09:40.422183,214796554,0,36.93532,92479.44,30.49,0.9705389,214796,0,27.36973,1
19507,2023-01-20 11:09:40.522151,214896543,0,37.00697,92478.69,30.49,1.117805,214896,0,27.36973,1
19540,2023-01-20 11:09:40.622150,214996554,0,37.03728,92478.39,30.48,0.9240413,214996,0,27.36973,1
19573,2023-01-20 11:09:40.722152,215096539,0,37.21365,92476.52,30.49,0.690657,215096,0,27.36973,1
19605,2023-01-20 11:09:40.822174,215196545,0,37.1172,92477.53,30.48,0.6605113,215196,0,27.36973,1
19639,2023-01-20 11:09:40.922239,215296599,0,37.16405,92477.05,30.49,0.6338179,215296,0,27.36973,1
19671,2023-01-20 11:09:41.022196,215396547,0,37.26326,92476.01,30.49,0.4236984,215396,0,27.36973,1
19702,2023-01-20 11:09:41.122211,215496564,0,37.69866,92471.42,30.48,0.4211187,215496,0,27.36973,1
19736,2023-01-20 11:09:41.222165,215596526,0,37.65733,92471.84,30.47,1.028243,215596,0,27.36973,1
19768,2023-01-20 11:09:41.322133,215696526,0,38.10927,92467.09,30.45,1.790375,215696,0,27.36973,1
19802,2023-01-20 11:09:41.422124,215796540,0,37.92188,92469.08,30.43,2.048723,215796,0,27.36973,1
19833,2023-01-20 11:09:41.522124,215896532,0,38.05691,92467.64,30.43,1.743871,215896,0,27.36973,1
19866,2023-01-20 11:09:41.622161,215996561,0,38.23328,92465.78,30.43,1.164309,215996,0,27.36973,1
19899,2023-01-20 11:09:41.722147,216096539,0,38.42342,92463.78,30.42,0.8646237,216096,0,27.36973,1
19931,2023-01-20 11:09:41.822141,216196528,0,38.47578,92463.23,30.43,1.135027,216196,0,27.36973,1
19965,2023-01-20 11:09:41.922142,216296533,0,38.36555,92464.41,30.42,1.345147,216296,0,27.36973,1
19997,2023-01-20 11:09:42.022139,216396529,0,38.61357,92461.78,30.43,0.9808708,216396,0,27.36973,1
20028,2023-01-20 11:09:42.122184,216496557,0,38.64113,92461.52,30.42,0.5675113,216496,0,27.36973,1
20062,2023-01-20 11:09:42.222213,216596575,0,38.67971,92461.09,30.43,0.6269324,216596,0,27.36973,1
20094,2023-01-20 11:09:42.322168,216696538,0,38.83954,92459.41,30.44,0.8155287,216696,0,27.36973,1
20128,2023-01-20 11:09:42.422185,216796565,0,39.05725,92457.13,30.44,0.8775342,216796,0,27.36973,1
20159,2023-01-20 11:09:42.522144,216896538,0,39.12063,92456.47,30.44,1.100577,216896,0,27.36973,1
20192,2023-01-20 11:09:42.622144,216996547,0,39.1041,92456.64,30.44,1.342565,216996,0,27.36973,1
20225,2023-01-20 11:09:42.722161,217096555,0,39.42101,92453.3,30.44,1.21339,217096,0,27.36973,1
20257,2023-01-20 11:09:42.822153,217196536,0,39.22259,92455.39,30.44,0.9696794,217196,0,27.36973,1
20291,2023-01-20 11:09:42.922258,217296624,0,39.50919,92452.36,30.44,0.885284,217296,0,27.36973,1
20323,2023-01-20 11:09:43.022195,217396548,0,39.50368,92452.42,30.44,0.810361,217396,0,27.36973,1
20354,2023-01-20 11:09:43.122201,217496555,0,39.62769,92451.11,30.43,0.795722,217496,0,27.36973,1
20388,2023-01-20 11:09:43.222182,217596540,0,39.61391,92451.27,30.43,0.8568693,217596,0,27.36973,1
20420,2023-01-20 11:09:43.322186,217696558,0,39.94735,92447.76,30.42,0.8387887,217696,0,27.36973,1
20453,2023-01-20 11:09:43.422183,217796567,0,40.07963,92446.36,30.42,0.9877694,217796,0,27.36973,1
20484,2023-01-20 11:09:43.522188,217896582,0,40.18435,92445.26,30.41,1.430405,217896,0,27.36973,1
20517,2023-01-20 11:09:43.622129,217996529,0,40.26702,92444.41,30.41,1.662059,217996,0,27.36973,1
20550,2023-01-20 11:09:43.722139,218096528,0,40.2808,92444.27,30.4,1.390791,218096,0,27.36973,1
20582,2023-01-20 11:09:43.822143,218196525,0,40.35245,92443.5,30.4,0.940398,218196,0,27.36973,1
20616,2023-01-20 11:09:43.922166,218296559,0,40.51504,92441.79,30.4,0.6691313,218296,0,27.36973,1
20648,2023-01-20 11:09:44.022120,218396516,0,40.63905,92440.49,30.41,0.721668,218396,0,27.36973,1
20679,2023-01-20 11:09:44.122169,218496542,0,40.5922,92440.97,30.4,0.9584916,218496,0,27.36973,1
20713,2023-01-20 11:09:44.222227,218596585,0,40.82093,92438.56,30.4,1.010157,218596,0,27.36973,1
20745,2023-01-20 11:09:44.322162,218696530,0,40.94493,92437.27,30.4,0.9136987,218696,0,27.36973,1
20779,2023-01-20 11:09:44.422171,218796555,0,40.87329,92438.03,30.4,0.9843111,218796,0,27.36973,1
20810,2023-01-20 11:09:44.522120,218896542,0,41.02485,92436.42,30.41,1.003259,218896,0,27.36973,1
20843,2023-01-20 11:09:44.622093,218996536,0,41.25909,92433.97,30.41,0.8163905,218996,0,27.36973,1
20876,2023-01-20 11:09:44.722153,219096555,0,41.42168,92432.27,30.41,0.9317887,219096,0,27.36973,1
20908,2023-01-20 11:09:44.822214,219196582,0,41.63387,92430.04,30.42,1.452795,219196,0,27.36973,1
20943,2023-01-20 11:09:44.922194,219296552,0,41.41066,92432.37,30.41,1.716314,219296,0,27.36973,1
20975,2023-01-20 11:09:45.022177,219396528,0,41.53742,92431.04,30.42,1.275399,219396,0,27.36973,1
21006,2023-01-20 11:09:45.122188,219496538,0,41.73032,92429.02,30.42,0.5511546,219496,0,27.36973,1
21040,2023-01-20 11:09:45.222178,219596530,0,41.82127,92428.05,30.42,0.4107797,219596,0,27.36973,1
21072,2023-01-20 11:09:45.322174,219696539,0,41.9315,92426.89,30.42,0.8930337,219696,0,27.36973,1
21106,2023-01-20 11:09:45.422186,219796559,0,41.96457,92426.53,30.43,1.197892,219796,0,27.36973,1
21139,2023-01-20 11:09:45.522211,219896575,0,41.98936,92426.28,30.41,1.029105,219896,0,27.36973,1
21172,2023-01-20 11:09:45.620154,219996531,0,42.14093,92424.69,30.42,0.7363033,219996,0,27.36973,1
21205,2023-01-20 11:09:45.711037,220096525,0,42.07479,92425.39,30.41,0.5976521,220096,0,27.36973,1
21237,2023-01-20 11:09:45.802128,220196535,0,42.2677,92423.36,30.43,0.5942094,220196,0,27.36973,1
21271,2023-01-20 11:09:45.902100,220296545,0,42.39722,92422,30.42,0.6579363,220296,0,27.36973,1
21303,2023-01-20 11:09:46.002070,220396551,0,42.26218,92423.41,30.42,0.8008873,220396,0,27.36973,1
21334,2023-01-20 11:09:46.102143,220496590,0,42.35863,92422.4,30.42,0.770744,220496,0,27.36973,1
21368,2023-01-20 11:09:46.202126,220596540,0,42.58736,92420,30.41,0.4856968,220596,0,27.36973,1
21400,2023-01-20 11:09:46.302094,220696522,0,42.56807,92420.2,30.41,0.4934501,220696,0,27.36973,1
21434,2023-01-20 11:09:46.402099,220796541,0,42.70035,92418.81,30.41,0.856868,220796,0,27.36973,1
21465,2023-01-20 11:09:46.502101,220896554,0,42.7224,92418.58,30.41,0.9765709,220896,0,27.36973,1
21498,2023-01-20 11:09:46.602101,220996564,0,42.93734,92416.3,30.42,0.8422268,220996,0,27.36973,1
21531,2023-01-20 11:09:46.702144,221096599,0,42.98144,92415.86,30.42,0.8732307,221096,0,27.36973,1
21563,2023-01-20 11:09:46.802149,221196596,0,42.94286,92416.25,30.42,0.9981025,221196,0,27.36973,1
21597,2023-01-20 11:09:46.902081,221296550,0,43.09167,92414.69,30.41,0.8715093,221296,0,27.36973,1
21629,2023-01-20 11:09:47.002073,221396563,0,43.29284,92412.57,30.41,0.6553531,221396,0,27.36973,1
21660,2023-01-20 11:09:47.102059,221496555,0,43.47747,92410.63,30.4,0.8525587,221496,0,27.36973,1
21694,2023-01-20 11:09:47.202042,221596544,0,43.45543,92410.86,30.4,1.328784,221596,0,27.36973,1
21726,2023-01-20 11:09:47.302011,221696539,0,43.62353,92409.11,30.4,1.444183,221696,0,27.36973,1
21760,2023-01-20 11:09:47.402068,221796623,0,43.79438,92407.3,30.41,1.184975,221796,0,27.36973,1
21791,2023-01-20 11:09:47.501927,221896519,0,43.73651,92407.91,30.4,1.056664,221896,0,27.36973,1
21873,2023-01-20 11:09:47.601930,221996559,0,43.64281,92408.89,30.4,0.9627926,221996,0,27.36973,1
21906,2023-01-20 11:09:47.701919,222096529,0,43.83572,92406.86,30.41,0.5227268,222096,0,27.36973,1
21938,2023-01-20 11:09:47.801961,222196551,0,43.83572,92406.88,30.41,0.1472557,222196,0,27.36973,1
21972,2023-01-20 11:09:47.901987,222296544,0,43.8054,92407.19,30.41,0.2635205,222296,0,27.36973,1
22004,2023-01-20 11:09:48.002022,222396547,0,44.10854,92403.98,30.4,0.4857052,222396,0,27.36973,1
22035,2023-01-20 11:09:48.102004,222496569,0,44.1609,92403.46,30.39,0.6674087,222496,0,27.36973,1
22069,2023-01-20 11:09:48.201970,222596574,0,43.96524,92405.5,30.39,0.9335089,222596,0,27.36973,1
