LineNo,UTC_Approx,TimeUS,Instance,Volt,VoltR,Curr,CurrTot,EnrgTot,Temp,Res,RemPct
1018,2023-01-20 11:08:47.514210,161773808,0,16.66113,16.68241,0.5363305,23.49161,0.3914785,0,0.03967624,99
1135,2023-01-20 11:08:47.627353,161890061,0,16.65872,16.68,0.5363305,23.50893,0.3917671,0,0.03967624,99
1397,2023-01-20 11:08:47.736758,161993847,0,16.65936,16.68064,0.5363305,23.5244,0.3920247,0,0.03967624,99
1817,2023-01-20 11:08:47.840432,162094371,0,16.65936,16.68064,0.5363305,23.53938,0.3922742,0,0.03967624,99
1863,2023-01-20 11:08:47.940299,162194480,0,16.66113,16.68257,0.5363305,23.55429,0.3925227,0,0.03996276,99
1911,2023-01-20 11:08:48.040058,162294382,0,16.66113,16.68269,0.5363305,23.56918,0.3927707,0,0.04020141,99
1956,2023-01-20 11:08:48.140058,162394378,0,16.65936,16.68092,0.5363305,23.58407,0.3930189,0,0.04020141,99
2010,2023-01-20 11:08:48.240078,162494382,0,16.66025,16.68184,0.5363305,23.59897,0.3932671,0,0.040258,99
2052,2023-01-20 11:08:48.340108,162594379,0,16.66015,16.68185,0.5391683,23.61395,0.3935167,0,0.040258,99
2107,2023-01-20 11:08:48.436492,162694370,0,16.66025,16.68186,0.5363305,23.62885,0.3937649,0,0.04029666,99
2166,2023-01-20 11:08:48.527463,162794384,0,16.66025,16.68188,0.5363305,23.64375,0.3940131,0,0.04032888,99
2228,2023-01-20 11:08:48.620242,162894369,0,16.65759,16.67922,0.5363305,23.65865,0.3942612,0,0.04032888,99
2280,2023-01-20 11:08:48.720271,162994379,0,16.65847,16.6801,0.5363305,23.67355,0.3945095,0,0.04032888,99
2332,2023-01-20 11:08:48.820258,163094350,0,16.65916,16.68079,0.5363305,23.68844,0.3947576,0,0.04032888,99
2390,2023-01-20 11:08:48.920343,163194434,0,16.65936,16.68099,0.5363305,23.70336,0.395006,0,0.04032888,99
2433,2023-01-20 11:08:49.020289,163294382,0,16.66025,16.68196,0.5363305,23.71825,0.3952541,0,0.04048161,99
2478,2023-01-20 11:08:49.120260,163394370,0,16.66025,16.68203,0.5363305,23.73314,0.3955023,0,0.04060883,99
2519,2023-01-20 11:08:49.222489,163494377,0,16.66025,16.68208,0.5363305,23.74804,0.3957506,0,0.04071472,99
2560,2023-01-20 11:08:49.333520,163594372,0,16.66113,16.6831,0.5363305,23.76294,0.3959988,0,0.04096659,99
2599,2023-01-20 11:08:49.440138,163694409,0,16.65936,16.68133,0.5363305,23.77785,0.3962471,0,0.04096659,99
2641,2023-01-20 11:08:49.540050,163794386,0,16.63632,16.65829,0.5363305,23.79274,0.3964949,0,0.04096659,99
2680,2023-01-20 11:08:49.636410,163894375,0,16.61948,16.64145,0.5363305,23.80764,0.3967425,0,0.04096659,99
2719,2023-01-20 11:08:49.727434,163994372,0,16.62746,16.64943,0.5363305,23.82254,0.3969903,0,0.04096659,99
2758,2023-01-20 11:08:49.820276,164094372,0,16.63455,16.65652,0.5363305,23.83744,0.3972381,0,0.04096659,99
2800,2023-01-20 11:08:49.920328,164194447,0,16.63455,16.65652,0.5363305,23.85235,0.3974861,0,0.04096659,99
2841,2023-01-20 11:08:50.020256,164294386,0,16.63543,16.65821,0.5388845,23.86731,0.397735,0,0.04227202,99
2881,2023-01-20 11:08:50.120331,164394424,0,16.63455,16.65722,0.5363305,23.88222,0.3979829,0,0.04227202,99
2922,2023-01-20 11:08:50.220309,164494380,0,16.63543,16.6581,0.5363305,23.89711,0.3982307,0,0.04227202,99
2961,2023-01-20 11:08:50.320258,164594370,0,16.63553,16.6582,0.5363305,23.91201,0.3984785,0,0.04227202,99
3001,2023-01-20 11:08:50.420220,164694374,0,16.63455,16.65722,0.5363305,23.92691,0.3987263,0,0.04227202,99
3044,2023-01-20 11:08:50.520231,164794432,0,16.63277,16.65545,0.5363305,23.94181,0.3989743,0,0.04227202,99
3083,2023-01-20 11:08:50.620138,164894365,0,16.61328,16.6397,0.5720859,23.9577,0.3992381,0,0.04619301,99
3122,2023-01-20 11:08:50.720207,164994376,0,16.54061,16.60058,1.159496,23.98991,0.399771,0,0.05172243,99
3160,2023-01-20 11:08:50.820246,165094382,0,16.57743,16.62336,0.8456429,24.0134,0.4001604,0,0.05430895,99
3201,2023-01-20 11:08:50.920198,165194399,0,16.58669,16.62919,0.7585247,24.03448,0.40051,0,0.05603691,99
3242,2023-01-20 11:08:51.020141,165294390,0,16.58935,16.63098,0.7253232,24.05463,0.4008442,0,0.05739822,99
3281,2023-01-20 11:08:51.120147,165394382,0,16.59467,16.63553,0.7023377,24.07414,0.401168,0,0.05818462,99
3323,2023-01-20 11:08:51.220158,165494390,0,16.59023,16.63226,0.7099995,24.09386,0.4014952,0,0.05918334,99
3361,2023-01-20 11:08:51.320080,165594356,0,16.58925,16.63253,0.7207829,24.11388,0.4018273,0,0.06004464,99
3401,2023-01-20 11:08:51.420063,165694377,0,16.58758,16.63217,0.7329851,24.13425,0.4021651,0,0.06084247,99
3441,2023-01-20 11:08:51.520101,165794432,0,16.59023,16.63471,0.7253232,24.15441,0.4024996,0,0.06131655,99
3482,2023-01-20 11:08:51.620028,165894371,0,16.59201,16.63539,0.7074456,24.17405,0.4028255,0,0.06131655,99
3520,2023-01-20 11:08:51.720041,165994377,0,16.58846,16.63314,0.7227693,24.19413,0.4031586,0,0.06182165,99
3560,2023-01-20 11:08:51.820094,166094425,0,16.58758,16.63321,0.7329851,24.2145,0.4034965,0,0.06226404,99
3600,2023-01-20 11:08:51.920055,166194389,0,16.58728,16.63282,0.7264584,24.23468,0.4038312,0,0.06269271,99
3642,2023-01-20 11:08:52.020048,166294383,0,16.58846,16.63397,0.7227693,24.25475,0.4041642,0,0.06296785,99
3679,2023-01-20 11:08:52.120049,166394376,0,16.58846,16.63333,0.7125535,24.27455,0.4044925,0,0.06296785,99
3713,2023-01-20 11:08:52.220065,166494387,0,16.58758,16.63228,0.7099995,24.29427,0.4048197,0,0.06296785,99
3744,2023-01-20 11:08:52.320060,166594385,0,16.58492,16.6318,0.740647,24.31485,0.405161,0,0.06330364,99
3776,2023-01-20 11:08:52.420048,166694380,0,16.58531,16.63153,0.7264584,24.33503,0.4054956,0,0.06362643,99
3809,2023-01-20 11:08:52.520040,166794398,0,16.58846,16.63428,0.7202153,24.35504,0.4058276,0,0.06362643,99
3841,2023-01-20 11:08:52.620001,166894372,0,16.58315,16.62993,0.7304311,24.37533,0.406164,0,0.06405506,99
3872,2023-01-20 11:08:52.720039,166994377,0,16.58669,16.632,0.7074456,24.39498,0.40649,0,0.06405506,99
3904,2023-01-20 11:08:52.820119,167094431,0,16.58669,16.63217,0.7099995,24.41471,0.4068173,0,0.06405506,99
3937,2023-01-20 11:08:52.920090,167194400,0,16.58433,16.63013,0.7151074,24.43457,0.4071467,0,0.06405506,99
3971,2023-01-20 11:08:53.020076,167294391,0,16.58669,16.632,0.7074456,24.45423,0.4074726,0,0.06405506,99
4002,2023-01-20 11:08:53.120076,167394422,0,16.58403,16.63063,0.7253232,24.47438,0.4078069,0,0.06425101,99
4036,2023-01-20 11:08:53.220061,167494430,0,16.58403,16.63014,0.7176614,24.49432,0.4081375,0,0.06425101,99
4067,2023-01-20 11:08:53.320079,167594438,0,16.57339,16.62542,0.8019419,24.5166,0.4085068,0,0.06487269,99
4099,2023-01-20 11:08:53.420112,167694471,0,16.44253,16.57325,1.915466,24.56983,0.409382,0,0.06824476,99
4132,2023-01-20 11:08:53.520049,167794449,0,16.30575,16.53003,3.133703,24.65686,0.4108012,0,0.07156791,99
4164,2023-01-20 11:08:53.620000,167894426,0,16.18257,16.49549,4.193594,24.77333,0.412686,0,0.07462036,99
4195,2023-01-20 11:08:53.720078,167994472,0,16.06027,16.46739,5.266255,24.9197,0.4150366,0,0.07730842,99
4227,2023-01-20 11:08:53.820057,168094428,0,15.91138,16.43717,6.59942,25.10295,0.4179524,0,0.07967193,99
4260,2023-01-20 11:08:53.920052,168194440,0,15.7749,16.40919,7.752672,25.31834,0.4213503,0,0.0818161,99
4295,2023-01-20 11:08:54.020045,168294449,0,15.62867,16.38453,9.028231,25.56917,0.4252704,0,0.08372147,99
4327,2023-01-20 11:08:54.120014,168394431,0,15.52587,16.37903,10.00384,25.84703,0.4295843,0,0.08528336,99
4361,2023-01-20 11:08:54.219997,168494419,0,15.68008,16.42068,8.594059,26.08574,0.4333273,0,0.08617648,99
4392,2023-01-20 11:08:54.320021,168594419,0,15.81035,16.44143,7.276218,26.28787,0.4365231,0,0.0867314,99
4424,2023-01-20 11:08:54.420038,168694424,0,15.8458,16.44501,6.872977,26.47882,0.4395488,0,0.08718361,99
4457,2023-01-20 11:08:54.520026,168794449,0,15.80415,16.44068,7.263448,26.68064,0.4427385,0,0.08763433,99
4489,2023-01-20 11:08:54.619990,168894440,0,15.743,16.42388,7.718052,26.89503,0.4461136,0,0.08821969,99
4520,2023-01-20 11:08:54.719993,168994426,0,15.74123,16.43286,7.802333,27.11175,0.449525,0,0.08864511,99
4552,2023-01-20 11:08:54.820017,169094435,0,15.81567,16.44203,7.043808,27.30745,0.4526201,0,0.08892382,99
4585,2023-01-20 11:08:54.920045,169194452,0,15.78967,16.43147,7.187965,27.50716,0.4557735,0,0.08928749,99
4619,2023-01-20 11:08:55.020053,169294449,0,15.73768,16.42654,7.682297,27.72057,0.459132,0,0.08966829,99
4650,2023-01-20 11:08:55.120041,169394427,0,15.71021,16.42123,7.894276,27.93983,0.4625766,0,0.09006801,99
4684,2023-01-20 11:08:55.220043,169494422,0,15.66501,16.41331,8.267154,28.16948,0.466174,0,0.09051453,99
4715,2023-01-20 11:08:55.320045,169594430,0,15.65438,16.41192,8.331002,28.40093,0.4697973,0,0.0909313,99
4747,2023-01-20 11:08:55.420084,169694478,0,15.58702,16.39846,8.872439,28.64752,0.473641,0,0.0914565,99
4782,2023-01-20 11:08:55.520019,169794441,0,15.61046,16.40759,8.68061,28.88857,0.4774038,0,0.09182953,99
4814,2023-01-20 11:08:55.619988,169894426,0,15.63842,16.40939,8.366756,29.12098,0.4810383,0,0.09214613,99
4845,2023-01-20 11:08:55.720012,169994421,0,15.5817,16.39818,8.821361,29.36602,0.4848565,0,0.09255704,99
4877,2023-01-20 11:08:55.820029,170094416,0,15.58348,16.40409,8.836684,29.61148,0.4886816,0,0.09286474,99
4910,2023-01-20 11:08:55.920053,170194443,0,15.66265,16.41527,8.104551,29.83669,0.4922091,0,0.09286474,99
4944,2023-01-20 11:08:56.020064,170294455,0,15.70489,16.41405,7.646542,30.04914,0.4955455,0,0.09274278,99
4975,2023-01-20 11:08:56.120046,170394430,0,15.6721,16.40471,7.914707,30.26896,0.4989905,0,0.09256258,99
5009,2023-01-20 11:08:56.220088,170494467,0,15.6526,16.39868,8.060283,30.49295,0.5024967,0,0.09256258,99
5040,2023-01-20 11:08:56.320042,170594423,0,15.60918,16.39178,8.430606,30.72705,0.5061508,0,0.09282906,99
5072,2023-01-20 11:08:56.420049,170694438,0,15.56221,16.38441,8.826468,30.97229,0.5099672,0,0.09315258,99
5105,2023-01-20 11:08:56.520023,170794444,0,15.56812,16.3882,8.77993,31.21621,0.5137646,0,0.09340461,99
5137,2023-01-20 11:08:56.619984,170894424,0,15.5817,16.38589,8.586398,31.45469,0.5174806,0,0.09365842,99
5168,2023-01-20 11:08:56.720065,170994471,0,15.59411,16.38633,8.438268,31.68922,0.5211378,0,0.09388409,99
5200,2023-01-20 11:08:56.820049,171094430,0,15.55423,16.38069,8.777945,31.93297,0.5249292,0,0.09415191,99
5233,2023-01-20 11:08:56.920061,171194450,0,15.55778,16.38038,8.714095,32.17508,0.528696,0,0.0943989,99
5267,2023-01-20 11:08:57.020103,171294496,0,15.55728,16.38128,8.708986,32.41714,0.5324617,0,0.09461395,99
5299,2023-01-20 11:08:57.120040,171394425,0,15.59854,16.38548,8.328447,32.64833,0.536068,0,0.09448764,99
5333,2023-01-20 11:08:57.220057,171494436,0,15.60209,16.37644,8.210965,32.87646,0.5396274,0,0.09430707,99
5364,2023-01-20 11:08:57.320052,171594429,0,15.47979,16.358,9.275966,33.13413,0.543616,0,0.09467566,99
5396,2023-01-20 11:08:57.420064,171694446,0,15.41155,16.35422,9.917007,33.40968,0.5478625,0,0.09505576,99
5429,2023-01-20 11:08:57.520071,171794489,0,15.40761,16.35604,9.943399,33.68601,0.5521202,0,0.0953826,99
5461,2023-01-20 11:08:57.619987,171894428,0,15.42484,16.35787,9.753555,33.95681,0.5562972,0,0.09566065,99
5492,2023-01-20 11:08:57.720030,171994437,0,15.48245,16.36415,9.199347,34.21239,0.5602543,0,0.09584474,99
5524,2023-01-20 11:08:57.820046,172094428,0,15.52676,16.36548,8.76262,34.4558,0.5640336,0,0.09571596,99
5557,2023-01-20 11:08:57.920060,172194447,0,15.58259,16.37,8.231397,34.68451,0.5675975,0,0.0956589,99
5593,2023-01-20 11:08:58.020025,172294416,0,15.6144,16.37152,7.917261,34.90438,0.5710307,0,0.09562928,99
5624,2023-01-20 11:08:58.120011,172394398,0,15.61627,16.36939,7.878952,35.12321,0.5744481,0,0.09558693,99
5658,2023-01-20 11:08:58.220005,172494390,0,15.70312,16.38451,7.120426,35.321,0.577554,0,0.09569533,99
5689,2023-01-20 11:08:58.320026,172594412,0,15.77224,16.38972,6.443629,35.50005,0.5803779,0,0.0958279,99
5721,2023-01-20 11:08:58.420045,172694438,0,15.75984,16.38582,6.527909,35.68144,0.5832366,0,0.09589296,99
5754,2023-01-20 11:08:58.519976,172794404,0,15.74241,16.38343,6.682849,35.86702,0.5861582,0,0.09592062,99
5786,2023-01-20 11:08:58.619953,172894402,0,15.71287,16.37933,6.949312,36.06007,0.5891916,0,0.09590362,99
5817,2023-01-20 11:08:58.720031,172994443,0,15.63222,16.36399,7.615894,36.27172,0.5925002,0,0.09608483,99
5849,2023-01-20 11:08:58.820007,173094393,0,15.56044,16.36198,8.325893,36.50288,0.5960972,0,0.09627128,99
5882,2023-01-20 11:08:58.920021,173194423,0,15.61981,16.36964,7.781901,36.71915,0.5994752,0,0.09635537,99
5916,2023-01-20 11:08:59.018207,173294445,0,15.68136,16.37259,7.176614,36.91856,0.6026022,0,0.09631757,99
5948,2023-01-20 11:08:59.109053,173394389,0,15.71198,16.37224,6.857369,37.10895,0.6055936,0,0.09628498,99
5982,2023-01-20 11:08:59.200059,173494503,0,15.67564,16.365,7.166398,37.30826,0.6087179,0,0.09619223,99
6013,2023-01-20 11:08:59.299956,173594397,0,15.6659,16.36689,7.291542,37.5106,0.6118878,0,0.09613805,99
6045,2023-01-20 11:08:59.400070,173694501,0,15.62158,16.35647,7.631217,37.72282,0.615203,0,0.09629966,99
6078,2023-01-20 11:08:59.511096,173794419,0,15.61636,16.35793,7.690243,37.93628,0.6185364,0,0.09642938,99
6110,2023-01-20 11:08:59.618248,173894502,0,15.64019,16.36031,7.467765,38.14391,0.6217837,0,0.09642938,99
6141,2023-01-20 11:08:59.709099,173994443,0,15.63222,16.35573,7.493304,38.35195,0.6250359,0,0.09655454,99
6173,2023-01-20 11:08:59.800059,174094499,0,15.63754,16.35735,7.454995,38.55917,0.6282762,0,0.09655454,99
6207,2023-01-20 11:08:59.899950,174194420,0,15.66678,16.35857,7.168952,38.75816,0.6313938,0,0.09649736,99
6241,2023-01-20 11:09:00.000059,174294559,0,15.68529,16.36037,6.997837,38.95284,0.6344473,0,0.09646985,99
6272,2023-01-20 11:09:00.099835,174394408,0,15.65526,16.35495,7.258341,39.15417,0.6375992,0,0.096398,99
6306,2023-01-20 11:09:00.200067,174494714,0,15.64019,16.35307,7.388592,39.36005,0.6408193,0,0.09648291,99
6337,2023-01-20 11:09:00.299800,174594396,0,15.67476,16.35449,7.048916,39.55524,0.6438788,0,0.09643009,99
6369,2023-01-20 11:09:00.400059,174694603,0,15.63842,16.34693,7.337513,39.75951,0.6470733,0,0.09655901,99
6404,2023-01-20 11:09:00.500072,174794671,0,15.58613,16.34253,7.820211,39.9769,0.6504616,0,0.09672317,99
6436,2023-01-20 11:09:00.600059,174894712,0,15.5435,16.33504,8.164143,40.20379,0.6539883,0,0.09695294,99
6467,2023-01-20 11:09:00.699775,174994396,0,15.52853,16.335,8.300354,40.43365,0.6575576,0,0.09716054,99
6500,2023-01-20 11:09:00.800059,175094647,0,15.54182,16.33767,8.177765,40.6614,0.6610973,0,0.09731838,99
6533,2023-01-20 11:09:00.899813,175194425,0,15.58348,16.34272,7.794672,40.87745,0.6644642,0,0.09740553,99
6567,2023-01-20 11:09:01.000062,175294698,0,15.60918,16.34199,7.529059,41.08718,0.6677378,0,0.09733123,99
6598,2023-01-20 11:09:01.099882,175394443,0,15.64,16.34492,7.244719,41.28793,0.6708775,0,0.09730089,99
6632,2023-01-20 11:09:01.200059,175494544,0,15.62601,16.33808,7.324743,41.49162,0.6740603,0,0.09721377,99
6663,2023-01-20 11:09:01.299849,175594402,0,15.58613,16.33368,7.679743,41.70465,0.6773808,0,0.09733982,99
6695,2023-01-20 11:09:01.400068,175694689,0,15.60297,16.33709,7.541829,41.91476,0.6806592,0,0.09733982,99
6728,2023-01-20 11:09:01.499779,175794427,0,15.62424,16.33521,7.30942,42.11729,0.6838235,0,0.09726728,99
6760,2023-01-20 11:09:01.600060,175894735,0,15.5307,16.32157,8.113064,42.34336,0.6873346,0,0.0974813,99
6791,2023-01-20 11:09:01.699725,175994395,0,15.52587,16.3269,8.205857,42.57055,0.6908618,0,0.09761644,99
6824,2023-01-20 11:09:01.800059,176094723,0,15.50726,16.31991,8.308016,42.8021,0.6944526,0,0.09781478,99
6857,2023-01-20 11:09:01.899773,176194433,0,15.50283,16.32111,8.351433,43.03343,0.6980389,0,0.09798094,99
6891,2023-01-20 11:09:02.000087,176294743,0,15.51789,16.32344,8.210965,43.26223,0.7015893,0,0.09810568,99
6922,2023-01-20 11:09:02.099761,176394405,0,15.55827,16.32578,7.829291,43.479,0.704962,0,0.0980313,99
6956,2023-01-20 11:09:02.200059,176494691,0,15.53917,16.32216,7.978555,43.70127,0.708416,0,0.09813788,99
6987,2023-01-20 11:09:02.299767,176594396,0,15.53296,16.32109,8.021974,43.92347,0.7118673,0,0.09824609,99
7019,2023-01-20 11:09:02.400059,176694684,0,15.46206,16.30774,8.586398,44.16268,0.715566,0,0.0984906,99
7052,2023-01-20 11:09:02.499745,176794419,0,15.46206,16.31685,8.668124,44.40284,0.7192795,0,0.09861263,99
7084,2023-01-20 11:09:02.600059,176894782,0,15.50017,16.31758,8.28049,44.63371,0.722858,0,0.0987149,99
7115,2023-01-20 11:09:02.699727,176994405,0,15.47536,16.31238,8.466361,44.86802,0.726484,0,0.09886465,99
7147,2023-01-20 11:09:02.800059,177094692,0,15.4337,16.30911,8.839239,45.11428,0.7302847,0,0.09903697,99
7180,2023-01-20 11:09:02.899779,177194416,0,15.43902,16.31176,8.80093,45.35809,0.7340489,0,0.09916447,99
7214,2023-01-20 11:09:03.000062,177294704,0,15.47358,16.31532,8.481686,45.59439,0.7377054,0,0.09924118,99
7245,2023-01-20 11:09:03.099755,177394408,0,15.55531,16.32038,7.710107,45.80795,0.7410273,0,0.09922884,99
7279,2023-01-20 11:09:03.200063,177494728,0,15.61184,16.3198,7.13575,46.00681,0.7441319,0,0.09921394,99
7310,2023-01-20 11:09:03.299736,177594405,0,15.54271,16.31321,7.771685,46.22201,0.7474767,0,0.09914136,99
7342,2023-01-20 11:09:03.400060,177694734,0,15.5817,16.32037,7.449887,46.42965,0.750712,0,0.09915195,99
7375,2023-01-20 11:09:03.499751,177794424,0,15.65526,16.3238,6.739888,46.6163,0.7536342,0,0.09919229,99
7407,2023-01-20 11:09:03.600063,177894735,0,15.65674,16.31987,6.685687,46.80261,0.7565511,0,0.09918653,99
7439,2023-01-20 11:09:03.699796,177994456,0,15.61361,16.31792,7.102549,46.99937,0.7596232,0,0.09916395,99
7471,2023-01-20 11:09:03.800059,178094706,0,15.58968,16.31304,7.299203,47.20264,0.7627922,0,0.09910095,99
7504,2023-01-20 11:09:03.899746,178194406,0,15.52942,16.30456,7.809994,47.41896,0.7661514,0,0.09924976,99
7538,2023-01-20 11:09:04.000060,178294732,0,15.4922,16.30537,8.182872,47.64702,0.7696846,0,0.09937546,99
7569,2023-01-20 11:09:04.099720,178394400,0,15.52085,16.30802,7.914423,47.86615,0.7730857,0,0.09945977,99
7604,2023-01-20 11:09:04.200062,178494751,0,15.52942,16.30712,7.812549,48.08394,0.7764679,0,0.09954548,99
7635,2023-01-20 11:09:04.299732,178594398,0,15.52144,16.30502,7.863627,48.30162,0.7798467,0,0.09964571,99
7667,2023-01-20 11:09:04.400059,178694701,0,15.51878,16.30581,7.891721,48.52152,0.7832592,0,0.09972771,99
7700,2023-01-20 11:09:04.499761,178794419,0,15.50372,16.30163,7.991325,48.74289,0.7866913,0,0.09984723,99
7732,2023-01-20 11:09:04.600060,178894734,0,15.46206,16.29841,8.364203,48.97598,0.7902953,0,0.09999081,99
7763,2023-01-20 11:09:04.699792,178994442,0,15.45487,16.29867,8.428052,49.20943,0.7939032,0,0.1001178,99
7795,2023-01-20 11:09:04.800064,179094689,0,15.48599,16.30251,8.149671,49.43638,0.7974179,0,0.1001907,99
7828,2023-01-20 11:09:04.899757,179194418,0,15.55689,16.30951,7.511182,49.64448,0.8006552,0,0.1001993,99
7862,2023-01-20 11:09:05.000059,179294757,0,15.61006,16.30922,6.977406,49.83897,0.8036912,0,0.1002034,99
7893,2023-01-20 11:09:05.099733,179394408,0,15.61893,16.30914,6.888017,50.02965,0.8066695,0,0.1002058,99
7927,2023-01-20 11:09:05.200064,179494716,0,15.6203,16.3072,6.855951,50.22069,0.8096536,0,0.1001894,99
7958,2023-01-20 11:09:05.299804,179594442,0,15.6012,16.30899,7.06424,50.4164,0.8127069,0,0.1001935,99
7991,2023-01-20 11:09:05.400059,179694683,0,15.61893,16.30827,6.880355,50.608,0.8156995,0,0.1001899,99
8026,2023-01-20 11:09:05.499973,179794653,0,15.65438,16.31221,6.563664,50.79028,0.818553,0,0.1002242,99
8058,2023-01-20 11:09:05.600063,179894799,0,15.70312,16.31712,6.12183,50.96059,0.8212275,0,0.100297,99
8089,2023-01-20 11:09:05.699732,179994408,0,15.72862,16.31877,5.879772,51.12329,0.8237866,0,0.1003694,99
8121,2023-01-20 11:09:05.800064,180094679,0,15.72439,16.31566,5.889421,51.28734,0.8263662,0,0.1003963,99
8154,2023-01-20 11:09:05.899813,180194468,0,15.65526,16.30936,6.517694,51.46802,0.8291948,0,0.100358,99
8188,2023-01-20 11:09:06.000059,180294754,0,15.64019,16.30963,6.668377,51.6538,0.8321004,0,0.1003893,99
8219,2023-01-20 11:09:06.099725,180394411,0,15.64463,16.30926,6.622405,51.83714,0.8349687,0,0.1003614,99
8253,2023-01-20 11:09:06.200066,180494743,0,15.64,16.307,6.645959,52.02237,0.8378658,0,0.1003614,99
8284,2023-01-20 11:09:06.299723,180594402,0,15.61715,16.30479,6.847154,52.21194,0.8408262,0,0.1004262,99
8316,2023-01-20 11:09:06.400060,180694742,0,15.60563,16.30375,6.946758,52.40557,0.843848,0,0.1004952,99
8349,2023-01-20 11:09:06.499740,180794414,0,15.58525,16.30406,7.14852,52.60351,0.8469329,0,0.1005537,99
8381,2023-01-20 11:09:06.600060,180894726,0,15.56132,16.30033,7.342621,52.80812,0.850117,0,0.1006462,99
8412,2023-01-20 11:09:06.699735,180994405,0,15.55433,16.29799,7.38093,53.0125,0.853296,0,0.1007543,99
8444,2023-01-20 11:09:06.800063,181094737,0,15.56841,16.30096,7.266002,53.21503,0.856449,0,0.100819,99
8477,2023-01-20 11:09:06.899752,181194414,0,15.58613,16.29987,7.074456,53.41092,0.8595022,0,0.1008885,99
8511,2023-01-20 11:09:07.000059,181294708,0,15.52942,16.29384,7.567369,53.62176,0.8627765,0,0.1010164,99
8542,2023-01-20 11:09:07.099756,181394402,0,15.47181,16.28942,8.080714,53.84556,0.866239,0,0.1011797,99
8576,2023-01-20 11:09:07.200060,181494704,0,15.4017,16.28383,8.700474,54.08799,0.8699727,0,0.1013886,99
8607,2023-01-20 11:09:07.299757,181594400,0,15.3371,16.27905,9.268303,54.34468,0.8739096,0,0.1016304,99
8640,2023-01-20 11:09:07.400064,181694705,0,15.31849,16.28287,9.472619,54.60863,0.8779529,0,0.1018069,99
8673,2023-01-20 11:09:07.499768,181794421,0,15.32736,16.28142,9.355137,54.86777,0.881925,0,0.1019825,99
8705,2023-01-20 11:09:07.600068,181894733,0,15.34951,16.28251,9.135498,55.12233,0.8858323,0,0.1021294,99
8736,2023-01-20 11:09:07.699758,181994403,0,15.36527,16.28177,8.961545,55.37048,0.8896452,0,0.1022708,99
8768,2023-01-20 11:09:07.800059,182094683,0,15.39028,16.28228,8.711541,55.61316,0.8933802,0,0.1023937,99
8801,2023-01-20 11:09:07.899833,182194469,0,15.39028,16.28294,8.708986,55.85458,0.8970957,0,0.1024985,99
8835,2023-01-20 11:09:08.000067,182294715,0,15.4213,16.28404,8.422944,56.08915,0.9007131,0,0.1024283,99
8866,2023-01-20 11:09:08.099738,182394404,0,15.4727,16.28541,7.937692,56.30897,0.9041143,0,0.1023868,99
8899,2023-01-20 11:09:08.200059,182494743,0,15.44345,16.27641,8.144563,56.53599,0.9076204,0,0.1022719,99
8931,2023-01-20 11:09:08.299751,182594412,0,15.35542,16.27054,8.933167,56.78333,0.9114184,0,0.1024412,99
8963,2023-01-20 11:09:08.400063,182694701,0,15.35749,16.27493,8.946505,57.03259,0.9152462,0,0.1025472,99
8996,2023-01-20 11:09:08.499746,182794415,0,15.38851,16.27603,8.647692,57.27213,0.9189325,0,0.1026313,99
9028,2023-01-20 11:09:08.600059,182894760,0,15.37964,16.27238,8.688556,57.51433,0.9226574,0,0.1027481,99
9059,2023-01-20 11:09:08.699720,182994389,0,15.34459,16.27404,9.038163,57.76448,0.9264959,0,0.1028366,99
9091,2023-01-20 11:09:08.800059,183094695,0,15.38673,16.27367,8.624707,58.00481,0.9301937,0,0.1028366,99
9126,2023-01-20 11:09:08.899806,183194455,0,15.408,16.27255,8.412728,58.23795,0.933786,0,0.102767,99
9160,2023-01-20 11:09:09.000054,183294721,0,15.37876,16.26744,8.637477,58.47854,0.937486,0,0.1028863,99
9191,2023-01-20 11:09:09.090853,183394397,0,15.3628,16.26982,8.808591,58.72245,0.9412332,0,0.1029693,99
9222,2023-01-20 11:09:09.182229,183494707,0,15.3628,16.26538,8.754958,58.96642,0.9449812,0,0.1030934,99
9257,2023-01-20 11:09:09.280169,183594394,0,15.32194,16.26343,9.120458,59.21899,0.948851,0,0.1032287,99
9287,2023-01-20 11:09:09.380375,183694613,0,15.34508,16.26892,8.943952,59.46798,0.9526719,0,0.1032917,99
9322,2023-01-20 11:09:09.480217,183794454,0,15.36546,16.26635,8.721756,59.7099,0.9563891,0,0.1032917,99
9352,2023-01-20 11:09:09.580429,183894662,0,15.33356,16.2619,8.977152,59.9598,0.960221,0,0.1034119,99
9386,2023-01-20 11:09:09.680171,183994387,0,15.31899,16.26117,9.100594,60.21193,0.9640832,0,0.10353,98
9416,2023-01-20 11:09:09.780470,184094667,0,15.30431,16.26164,9.237656,60.46927,0.9680216,0,0.103633,98
9452,2023-01-20 11:09:09.880257,184194469,0,15.31229,16.26101,9.145713,60.72283,0.9719043,0,0.103734,98
9484,2023-01-20 11:09:09.980389,184294624,0,15.28304,16.2569,9.375569,60.98369,0.975891,0,0.1038719,98
9517,2023-01-20 11:09:10.080160,184394404,0,15.29634,16.26136,9.283627,61.24102,0.9798272,0,0.103949,98
9548,2023-01-20 11:09:10.180372,184494620,0,15.29545,16.25609,9.229994,61.49799,0.9837576,0,0.1040777,98
9582,2023-01-20 11:09:10.280200,184594449,0,15.31012,16.26272,9.148834,61.75171,0.987642,0,0.1041225,98
9612,2023-01-20 11:09:10.380319,184694569,0,15.32558,16.25599,8.943952,62.00047,0.9914545,0,0.1040264,98
9647,2023-01-20 11:09:10.480077,184794416,0,15.3309,16.25702,8.908195,62.24755,0.9952426,0,0.1039625,98
9679,2023-01-20 11:09:10.580023,184894473,0,15.30165,16.25482,9.161037,62.50219,0.999139,0,0.1040453,98
9712,2023-01-20 11:09:10.679990,184994409,0,15.31406,16.2566,9.058879,62.75369,1.00299,0,0.1040453,98
9742,2023-01-20 11:09:10.780186,185094538,0,15.35148,16.25252,8.666422,62.99475,1.006691,0,0.1039685,98
9777,2023-01-20 11:09:10.880073,185194430,0,15.35749,16.25147,8.604275,63.23352,1.010358,0,0.1039003,98
9809,2023-01-20 11:09:10.980121,185294501,0,15.38585,16.25499,8.366756,63.46611,1.013937,0,0.1038804,98
9843,2023-01-20 11:09:11.080051,185394441,0,15.36015,16.24912,8.563412,63.70386,1.017588,0,0.1038112,98
9873,2023-01-20 11:09:11.180108,185494505,0,15.35926,16.24997,8.583843,63.94247,1.021253,0,0.1037661,98
9907,2023-01-20 11:09:11.279997,185594407,0,15.33474,16.2405,8.72885,64.18472,1.024968,0,0.1037661,98
9937,2023-01-20 11:09:11.380053,185694477,0,15.29279,16.24438,9.16359,64.43945,1.028864,0,0.1038447,98
9972,2023-01-20 11:09:11.479989,185794413,0,15.34154,16.24664,8.719203,64.68153,1.032578,0,0.1038054,98
10002,2023-01-20 11:09:11.580071,185894491,0,15.34951,16.24551,8.634922,64.92159,1.036262,0,0.103765,98
10035,2023-01-20 11:09:11.680013,185994416,0,15.36369,16.24537,8.499562,65.15753,1.039887,0,0.1037327,98
10065,2023-01-20 11:09:11.780019,186094402,0,15.34656,16.2383,8.603991,65.39651,1.043555,0,0.1036429,98
10100,2023-01-20 11:09:11.880159,186194542,0,15.33976,16.24027,8.688556,65.63822,1.047263,0,0.1036429,98
10132,2023-01-20 11:09:11.980027,186294416,0,15.35394,16.24148,8.565965,65.87589,1.050912,0,0.1036117,98
10165,2023-01-20 11:09:12.079988,186394402,0,15.33001,16.23726,8.74985,66.11892,1.054638,0,0.1036864,98
10196,2023-01-20 11:09:12.179974,186494418,0,15.30874,16.23966,8.974598,66.36827,1.058455,0,0.1037282,98
10230,2023-01-20 11:09:12.279960,186594384,0,15.33769,16.23864,8.689123,66.60957,1.062156,0,0.1036868,98
10261,2023-01-20 11:09:12.380002,186694393,0,15.31583,16.23442,8.852009,66.8555,1.065923,0,0.103771,98
10296,2023-01-20 11:09:12.480015,186794418,0,15.35128,16.23634,8.532764,67.0926,1.069562,0,0.1037242,98
10326,2023-01-20 11:09:12.579984,186894410,0,15.37699,16.23946,8.315678,67.32359,1.073114,0,0.103717,98
10359,2023-01-20 11:09:12.680043,186994449,0,15.38762,16.23602,8.182872,67.55099,1.076614,0,0.1036797,98
10389,2023-01-20 11:09:12.780016,187094391,0,15.40367,16.23766,8.044959,67.77435,1.080054,0,0.1036662,98
10424,2023-01-20 11:09:12.880049,187194423,0,15.47358,16.24414,7.429455,67.9808,1.083249,0,0.1037161,98
10456,2023-01-20 11:09:12.980074,187294455,0,15.57373,16.2464,6.481938,68.16093,1.086054,0,0.1037759,98
10489,2023-01-20 11:09:13.080014,187394401,0,15.66146,16.25537,5.715752,68.31963,1.088539,0,0.1039071,98
10520,2023-01-20 11:09:13.180027,187494422,0,15.68008,16.25264,5.506327,68.47263,1.090938,0,0.1039824,98
10554,2023-01-20 11:09:13.280057,187594443,0,15.64295,16.25168,5.851395,68.63522,1.093482,0,0.1040314,98
10584,2023-01-20 11:09:13.380027,187694401,0,15.63399,16.25337,5.950715,68.80046,1.096065,0,0.1040854,98
10619,2023-01-20 11:09:13.480015,187794410,0,15.6526,16.2556,5.789816,68.96132,1.098583,0,0.1041485,98
10649,2023-01-20 11:09:13.579974,187894398,0,15.63576,16.2547,5.9405,69.12633,1.101163,0,0.1041891,98
10682,2023-01-20 11:09:13.679978,187994389,0,15.60475,16.25136,6.20611,69.29871,1.103853,0,0.1041893,98
10712,2023-01-20 11:09:13.780012,188094399,0,15.58682,16.25274,6.390563,69.47626,1.106621,0,0.1042023,98
10747,2023-01-20 11:09:13.880084,188194462,0,15.57727,16.25107,6.466614,69.65602,1.109421,0,0.104197,98
10779,2023-01-20 11:09:13.980069,188294443,0,15.55689,16.2522,6.673484,69.84138,1.112304,0,0.1041897,98
10812,2023-01-20 11:09:14.080008,188394389,0,15.54448,16.25051,6.775642,70.0295,1.115229,0,0.1042014,98
10843,2023-01-20 11:09:14.180029,188494421,0,15.54094,16.25025,6.806291,70.21864,1.118168,0,0.1042145,98
10877,2023-01-20 11:09:14.280059,188594446,0,15.52055,16.24647,6.962082,70.41209,1.121171,0,0.104267,98
10909,2023-01-20 11:09:14.380021,188694399,0,15.52183,16.24785,6.960946,70.60538,1.124171,0,0.1042989,98
10944,2023-01-20 11:09:14.480023,188794422,0,15.51169,16.24838,7.061686,70.8016,1.127214,0,0.1043217,98
10974,2023-01-20 11:09:14.579962,188894390,0,15.49751,16.24648,7.176614,71.0009,1.130303,0,0.1043626,98
11007,2023-01-20 11:09:14.679976,188994386,0,15.46206,16.24378,7.485642,71.20884,1.133518,0,0.1044285,98
11037,2023-01-20 11:09:14.780029,189094408,0,15.47358,16.24571,7.391146,71.41422,1.136696,0,0.1044666,98
11072,2023-01-20 11:09:14.880031,189194420,0,15.49131,16.24544,7.216342,71.6147,1.139802,0,0.1045035,98
11104,2023-01-20 11:09:14.980002,189294412,0,15.49663,16.24674,7.176614,71.81406,1.142891,0,0.1045226,98
11137,2023-01-20 11:09:15.079993,189394399,0,15.45231,16.24193,7.549491,72.02375,1.146132,0,0.1045918,98
11168,2023-01-20 11:09:15.180012,189494407,0,15.42484,16.24192,7.807441,72.24065,1.149477,0,0.1046542,98
11202,2023-01-20 11:09:15.280012,189594390,0,15.44897,16.24641,7.619299,72.45229,1.152747,0,0.1046615,98
11235,2023-01-20 11:09:15.380025,189694385,0,15.48156,16.24253,7.273664,72.65434,1.155875,0,0.1046197,98
11270,2023-01-20 11:09:15.480042,189794435,0,15.46118,16.24024,7.442225,72.86119,1.159073,0,0.104682,98
11302,2023-01-20 11:09:15.579942,189894383,0,15.44522,16.24097,7.598017,73.07215,1.162331,0,0.1047303,98
11335,2023-01-20 11:09:15.679960,189994374,0,15.41332,16.23727,7.861073,73.29051,1.165697,0,0.104814,98
11365,2023-01-20 11:09:15.780006,190094376,0,15.43124,16.24029,7.715782,73.50486,1.169005,0,0.1048565,98
11400,2023-01-20 11:09:15.880085,190194446,0,15.41864,16.23781,7.807441,73.72189,1.172351,0,0.1049218,98
11432,2023-01-20 11:09:15.980035,190294396,0,15.35837,16.23436,8.341218,73.95351,1.175908,0,0.1050186,98
11465,2023-01-20 11:09:16.080060,190394424,0,15.36635,16.23742,8.290139,74.18388,1.179448,0,0.1050725,98
11496,2023-01-20 11:09:16.180024,190494391,0,15.39914,16.23683,7.96834,74.40516,1.182856,0,0.1051274,98
11530,2023-01-20 11:09:16.280015,190594382,0,15.3823,16.23209,8.075606,74.62948,1.186306,0,0.1052286,98
11560,2023-01-20 11:09:16.380014,190694379,0,15.34557,16.23422,8.439403,74.86391,1.189904,0,0.1052973,98
11595,2023-01-20 11:09:16.480007,190794386,0,15.38319,16.23676,8.1037,75.08905,1.193367,0,0.1053315,98
11625,2023-01-20 11:09:16.579980,190894377,0,15.39914,16.23053,7.899383,75.30847,1.196746,0,0.1052473,98
11658,2023-01-20 11:09:16.679994,190994382,0,15.42661,16.23642,7.695066,75.52225,1.200044,0,0.1052369,98
11688,2023-01-20 11:09:16.780049,191094423,0,15.43725,16.23449,7.577585,75.73284,1.203295,0,0.105211,98
11723,2023-01-20 11:09:16.880024,191194391,0,15.42336,16.23214,7.690243,75.94641,1.206589,0,0.1051692,98
11755,2023-01-20 11:09:16.980026,191294388,0,15.42573,16.23034,7.654203,76.15903,1.209869,0,0.1051201,98
11788,2023-01-20 11:09:17.080011,191394375,0,15.4213,16.23104,7.705283,76.37305,1.213169,0,0.1050887,98
11819,2023-01-20 11:09:17.180019,191494386,0,15.40978,16.2281,7.787009,76.5894,1.216503,0,0.1050887,98
11853,2023-01-20 11:09:17.280015,191594378,0,15.36989,16.22562,8.136901,76.81543,1.219977,0,0.105166,98
11883,2023-01-20 11:09:17.380055,191694411,0,15.37019,16.22576,8.130091,77.04136,1.22345,0,0.1052345,98
11918,2023-01-20 11:09:17.479999,191794381,0,15.37699,16.22645,8.067945,77.26542,1.226895,0,0.1052888,98
11948,2023-01-20 11:09:17.579958,191894373,0,15.40269,16.22771,7.838088,77.48314,1.230249,0,0.1052586,98
11981,2023-01-20 11:09:17.679964,191994359,0,15.37078,16.22453,8.106253,77.7083,1.23371,0,0.1053205,98
12011,2023-01-20 11:09:17.779988,192094350,0,15.36458,16.22568,8.172656,77.93531,1.237198,0,0.1053641,98
12046,2023-01-20 11:09:17.880063,192194421,0,15.37807,16.22436,8.027933,78.15849,1.24063,0,0.105418,98
12078,2023-01-20 11:09:17.980028,192294390,0,15.28393,16.21641,8.83413,78.40382,1.244379,0,0.1055543,98
12112,2023-01-20 11:09:18.080034,192394413,0,15.18467,16.21308,9.728015,78.67413,1.248484,0,0.1057159,98
12143,2023-01-20 11:09:18.179990,192494388,0,15.07124,16.21243,10.78024,78.97353,1.252996,0,0.1058594,98
12177,2023-01-20 11:09:18.272793,192594367,0,15.07212,16.21643,10.80068,79.27351,1.257518,0,0.1059478,98
12207,2023-01-20 11:09:18.363827,192694371,0,15.00388,16.2088,11.35659,79.589,1.262251,0,0.1060989,98
12242,2023-01-20 11:09:18.460237,192794388,0,14.96577,16.20964,11.70988,79.91437,1.26712,0,0.1062239,98
12272,2023-01-20 11:09:18.560142,192894364,0,14.94805,16.20954,11.86312,80.24384,1.272045,0,0.106337,98
12306,2023-01-20 11:09:18.660154,192994404,0,14.93919,16.20413,11.87844,80.57396,1.276977,0,0.1064904,98
12336,2023-01-20 11:09:18.760117,193094366,0,14.92323,16.20547,12.02657,80.90793,1.281961,0,0.1066164,98
12371,2023-01-20 11:09:18.860099,193194381,0,14.98222,16.20798,11.48712,81.22709,1.286743,0,0.1067078,98
12403,2023-01-20 11:09:18.960043,193294381,0,14.9897,16.20605,11.38809,81.54345,1.291485,0,0.1068092,98
12436,2023-01-20 11:09:19.060017,193394363,0,15.01895,16.20357,11.07906,81.85117,1.296107,0,0.1069245,98
12466,2023-01-20 11:09:19.160053,193494376,0,15.04465,16.20197,10.83388,82.15218,1.300635,0,0.1068242,98
12501,2023-01-20 11:09:19.260110,193594365,0,15.03667,16.19836,10.87474,82.45425,1.305177,0,0.1068242,98
12532,2023-01-20 11:09:19.360249,193694407,0,15.07773,16.20173,10.52797,82.74684,1.309589,0,0.106763,98
12568,2023-01-20 11:09:19.460177,193794388,0,15.16074,16.201,9.748446,83.0176,1.313694,0,0.1067104,98
12598,2023-01-20 11:09:19.560000,193894364,0,15.14922,16.19225,9.784202,83.28934,1.31781,0,0.1066029,98
12632,2023-01-20 11:09:19.659940,193994344,0,15.14568,16.19578,9.855713,83.56307,1.321956,0,0.1065478,98
12662,2023-01-20 11:09:19.759991,194094361,0,15.14391,16.18871,9.814849,83.83578,1.326086,0,0.1064513,98
12698,2023-01-20 11:09:19.860041,194194403,0,15.125,16.19141,10.02285,84.11433,1.330299,0,0.1063982,98
12730,2023-01-20 11:09:19.960013,194294386,0,15.14834,16.1917,9.809742,84.38677,1.334426,0,0.1063595,98
12763,2023-01-20 11:09:20.059983,194394353,0,15.17227,16.18614,9.539021,84.6517,1.338446,0,0.106287,98
12793,2023-01-20 11:09:20.160020,194494378,0,15.17758,16.18574,9.490498,84.91541,1.342448,0,0.1062282,98
12828,2023-01-20 11:09:20.260001,194594360,0,15.151,16.17999,9.694814,85.18468,1.346528,0,0.1061388,98
12859,2023-01-20 11:09:20.359974,194694343,0,15.07872,16.18424,10.41162,85.47388,1.350889,0,0.1061814,98
12894,2023-01-20 11:09:20.459990,194794376,0,15.19176,16.19507,9.444526,85.73633,1.354876,0,0.1062321,98
12926,2023-01-20 11:09:20.559962,194894371,0,15.34863,16.18649,7.889167,85.95547,1.358239,0,0.1062046,98
12960,2023-01-20 11:09:20.660012,194994417,0,15.30697,16.17919,8.218627,86.1839,1.361736,0,0.1061267,98
12990,2023-01-20 11:09:20.759980,195094364,0,15.23164,16.18096,8.949059,86.43237,1.36552,0,0.1060806,98
13025,2023-01-20 11:09:20.859989,195194366,0,15.26,16.18693,8.737081,86.67509,1.369224,0,0.1060912,98
13057,2023-01-20 11:09:20.959998,195294377,0,15.23529,16.18184,8.924655,86.92303,1.373002,0,0.10606,98
13091,2023-01-20 11:09:21.059990,195394369,0,15.28304,16.18477,8.502116,87.15922,1.376611,0,0.1060584,98
13121,2023-01-20 11:09:21.159986,195494363,0,15.30254,16.18243,8.2978,87.38972,1.380139,0,0.1060391,98
13156,2023-01-20 11:09:21.260001,195594377,0,15.299,16.18459,8.351433,87.62176,1.383689,0,0.1060409,98
13187,2023-01-20 11:09:21.360040,195694416,0,15.35306,16.18305,7.827873,87.8393,1.387028,0,0.1060303,98
13222,2023-01-20 11:09:21.459980,195794384,0,15.34163,16.18251,7.931449,88.05957,1.390408,0,0.1060178,98
13252,2023-01-20 11:09:21.559922,195894372,0,15.31229,16.17955,8.182872,88.28687,1.393888,0,0.1059852,98
13286,2023-01-20 11:09:21.659931,195994369,0,15.29102,16.18003,8.389742,88.51992,1.397452,0,0.1059635,98
13316,2023-01-20 11:09:21.759979,196094366,0,15.26798,16.17763,8.581288,88.7583,1.401091,0,0.1060044,98
13351,2023-01-20 11:09:21.860016,196194385,0,15.21658,16.18098,9.097189,89.01107,1.404938,0,0.1060111,98
13383,2023-01-20 11:09:21.960061,196294434,0,15.27369,16.18095,8.558588,89.24895,1.408571,0,0.1060056,98
13417,2023-01-20 11:09:22.059985,196394372,0,15.2538,16.17431,8.678339,89.48988,1.412246,0,0.10607,98
13447,2023-01-20 11:09:22.159971,196494379,0,15.23253,16.17667,8.89798,89.73708,1.416012,0,0.1061068,98
13482,2023-01-20 11:09:22.259952,196594356,0,15.23164,16.17687,8.905643,89.98442,1.419779,0,0.106138,98
13513,2023-01-20 11:09:22.359985,196694370,0,15.17227,16.1741,9.434311,90.24654,1.423756,0,0.106191,98
13548,2023-01-20 11:09:22.459991,196794383,0,15.14371,16.17609,9.719217,90.51658,1.427845,0,0.1062209,98
13578,2023-01-20 11:09:22.559955,196894371,0,15.14922,16.17428,9.646289,90.78452,1.431904,0,0.1062641,98
13612,2023-01-20 11:09:22.660000,196994412,0,15.15011,16.17294,9.620749,91.0519,1.435955,0,0.1063151,98
13642,2023-01-20 11:09:22.759985,197094373,0,15.16163,16.17095,9.487943,91.31538,1.43995,0,0.1063791,98
13677,2023-01-20 11:09:22.859995,197194371,0,15.15011,16.17311,9.613087,91.58242,1.443995,0,0.1064173,98
13709,2023-01-20 11:09:22.960010,197294383,0,15.20476,16.17294,9.100594,91.83527,1.44784,0,0.1063865,98
13743,2023-01-20 11:09:23.060005,197394375,0,15.23696,16.16927,8.767727,92.07881,1.451551,0,0.1063341,98
13773,2023-01-20 11:09:23.160017,197494384,0,15.09073,16.15764,10.01917,92.35717,1.455752,0,0.106487,98
13808,2023-01-20 11:09:23.260037,197594408,0,15.00211,16.16747,10.93859,92.6611,1.460311,0,0.1065363,98
13839,2023-01-20 11:09:23.359988,197694368,0,15.05262,16.17128,10.49931,92.95267,1.4647,0,0.1065459,98
13874,2023-01-20 11:09:23.459998,197794390,0,15.10924,16.16647,9.917859,93.22825,1.468864,0,0.1065982,98
13904,2023-01-20 11:09:23.559953,197894358,0,15.15277,16.16504,9.500713,93.4921,1.472862,0,0.1065469,98
13938,2023-01-20 11:09:23.659966,197994362,0,15.21569,16.16531,8.915857,93.73978,1.476631,0,0.1065092,98
13968,2023-01-20 11:09:23.759996,198094369,0,15.17227,16.15839,9.265749,93.99721,1.480536,0,0.1064268,98
14003,2023-01-20 11:09:23.860000,198194368,0,15.12352,16.15797,9.712691,94.26701,1.484617,0,0.1065051,98
14035,2023-01-20 11:09:23.960045,198294419,0,15.15454,16.16483,9.486525,94.53069,1.488613,0,0.1064976,98
14069,2023-01-20 11:09:24.059978,198394367,0,15.21214,16.16195,8.920965,94.77839,1.492381,0,0.1064695,98
14099,2023-01-20 11:09:24.159974,198494382,0,15.1767,16.15666,9.209562,95.03427,1.496264,0,0.106407,98
14134,2023-01-20 11:09:24.259966,198594366,0,15.13859,16.15885,9.584993,95.3005,1.500294,0,0.1064437,98
14165,2023-01-20 11:09:24.359989,198694363,0,15.13504,16.16039,9.630965,95.56804,1.504344,0,0.106463,98
14200,2023-01-20 11:09:24.460001,198794381,0,15.18408,16.15907,9.160186,95.82256,1.508208,0,0.1064379,98
14231,2023-01-20 11:09:24.559979,198894389,0,15.17138,16.15847,9.275966,96.08026,1.512118,0,0.1064139,98
14265,2023-01-20 11:09:24.659952,198994370,0,15.17758,16.15707,9.207008,96.33598,1.515999,0,0.1063845,98
14295,2023-01-20 11:09:24.759956,199094368,0,15.1829,16.15584,9.148268,96.59012,1.519858,0,0.1063522,98
14330,2023-01-20 11:09:24.859956,199194355,0,15.20151,16.15692,8.984814,96.83968,1.523651,0,0.1063356,98
14362,2023-01-20 11:09:24.960008,199294388,0,15.27418,16.15668,8.300354,97.07034,1.527175,0,0.1063209,98
14396,2023-01-20 11:09:25.059995,199394367,0,15.26877,16.15499,8.337245,97.3019,1.53071,0,0.1062963,98
14426,2023-01-20 11:09:25.160008,199494379,0,15.27507,16.16055,8.328447,97.53329,1.534245,0,0.1063205,98
14461,2023-01-20 11:09:25.260044,199594409,0,15.26798,16.15227,8.320785,97.76452,1.537775,0,0.1062749,98
14492,2023-01-20 11:09:25.360015,199694371,0,15.23785,16.15397,8.622152,98.00395,1.541423,0,0.1062528,98
14527,2023-01-20 11:09:25.460013,199794387,0,15.23873,16.15971,8.665569,98.24472,1.545092,0,0.1062801,98
14559,2023-01-20 11:09:25.559950,199894360,0,15.32391,16.15562,7.826454,98.46208,1.548423,0,0.1062696,98
14593,2023-01-20 11:09:25.659956,199994365,0,15.25025,16.15211,8.489347,98.69793,1.55202,0,0.1062342,98
14623,2023-01-20 11:09:25.759983,200094366,0,15.29811,16.15662,8.080714,98.92242,1.555454,0,0.1062416,98
14658,2023-01-20 11:09:25.860160,200194530,0,15.36546,16.15788,7.457549,99.12993,1.558643,0,0.1062574,98
14690,2023-01-20 11:09:25.960022,200294386,0,15.34685,16.15003,7.562261,99.33971,1.561862,0,0.1062081,98
14724,2023-01-20 11:09:26.059991,200394369,0,15.26089,16.1565,8.433728,99.57396,1.565437,0,0.1061941,98
14754,2023-01-20 11:09:26.159971,200494375,0,15.26089,16.15408,8.410173,99.80761,1.569003,0,0.1062032,98
14789,2023-01-20 11:09:26.259963,200594362,0,15.20062,16.14807,8.915857,100.0553,1.572767,0,0.1062653,98
14820,2023-01-20 11:09:26.359992,200694365,0,15.13593,16.14972,9.536469,100.3202,1.576777,0,0.1063064,98
14855,2023-01-20 11:09:26.460005,200794386,0,15.13327,16.14859,9.546683,100.5854,1.580791,0,0.1063534,98
14885,2023-01-20 11:09:26.560005,200894416,0,15.12599,16.14859,9.611384,100.8525,1.584831,0,0.1063956,98
14919,2023-01-20 11:09:26.659942,200994363,0,15.13061,16.14735,9.551792,101.1177,1.588844,0,0.1064447,98
14949,2023-01-20 11:09:26.759954,201094372,0,15.06326,16.14633,10.16985,101.4003,1.593099,0,0.1064985,98
14984,2023-01-20 11:09:26.859967,201194366,0,15.06858,16.14443,10.09578,101.6807,1.597326,0,0.1065642,98
15016,2023-01-20 11:09:26.960015,201294382,0,15.03756,16.14549,10.39204,101.9695,1.601668,0,0.1066139,98
15050,2023-01-20 11:09:27.060014,201394375,0,15.03736,16.14489,10.38325,102.2579,1.606005,0,0.1066645,98
15080,2023-01-20 11:09:27.160069,201494439,0,15.06503,16.14456,10.11622,102.5391,1.610241,0,0.1067131,98
15115,2023-01-20 11:09:27.259979,201594359,0,15.13948,16.14658,9.439419,102.8011,1.614208,0,0.1066912,98
15146,2023-01-20 11:09:27.359984,201694376,0,15.19442,16.14807,8.938843,103.0495,1.617982,0,0.1066858,98
15181,2023-01-20 11:09:27.459992,201794383,0,15.22721,16.14346,8.591505,103.2882,1.621616,0,0.1066459,98
15211,2023-01-20 11:09:27.559994,201894376,0,15.24513,16.14014,8.396837,103.5214,1.625172,0,0.1065893,98
15245,2023-01-20 11:09:27.660003,201994379,0,15.20594,16.1404,8.770282,103.7651,1.628877,0,0.1065476,98
15275,2023-01-20 11:09:27.760008,202094377,0,15.21569,16.14705,8.739635,104.0078,1.632571,0,0.1065669,98
15310,2023-01-20 11:09:27.860199,202194566,0,15.2733,16.1433,8.164994,104.2351,1.636042,0,0.1065527,98
15342,2023-01-20 11:09:27.960023,202294390,0,15.29368,16.14056,7.950462,104.4556,1.639414,0,0.1065204,98
15376,2023-01-20 11:09:28.060006,202394369,0,15.22445,16.14173,8.612505,104.6948,1.643056,0,0.1065045,98
15406,2023-01-20 11:09:28.160017,202494373,0,15.23164,16.14458,8.571074,104.9329,1.646682,0,0.1065143,98
15441,2023-01-20 11:09:28.260010,202594367,0,15.32913,16.14938,7.697621,105.1467,1.64996,0,0.1065594,98
15472,2023-01-20 11:09:28.360013,202694377,0,15.42041,16.14602,6.808845,105.3359,1.652877,0,0.1065683,98
15507,2023-01-20 11:09:28.454621,202794437,0,15.37964,16.14354,7.168952,105.5351,1.655942,0,0.1065556,98
15537,2023-01-20 11:09:28.545477,202894360,0,15.30618,16.14241,7.849155,105.753,1.659277,0,0.1065371,98
15571,2023-01-20 11:09:28.640043,202994365,0,15.4213,16.15488,6.880355,105.9442,1.662225,0,0.1066205,98
15601,2023-01-20 11:09:28.740049,203094370,0,15.41243,16.13822,6.811399,106.1334,1.665141,0,0.1065546,98
15636,2023-01-20 11:09:28.840038,203194359,0,15.25557,16.14465,8.343771,106.3652,1.668677,0,0.1065557,98
15668,2023-01-20 11:09:28.940062,203294384,0,15.2148,16.14395,8.719203,106.6075,1.672363,0,0.1065629,98
15702,2023-01-20 11:09:29.040028,203394349,0,15.18802,16.14619,8.99276,106.8572,1.676156,0,0.1065493,98
15732,2023-01-20 11:09:29.140105,203494420,0,15.26532,16.14558,8.262044,107.0869,1.679662,0,0.1065426,98
15767,2023-01-20 11:09:29.240042,203594363,0,15.25114,16.14095,8.34888,107.3187,1.683197,0,0.106578,98
15798,2023-01-20 11:09:29.340026,203694372,0,15.23785,16.14174,8.479131,107.5542,1.686787,0,0.1066026,98
15833,2023-01-20 11:09:29.440013,203794380,0,15.18379,16.13927,8.959273,107.8032,1.690566,0,0.106647,98
15863,2023-01-20 11:09:29.540000,203894382,0,15.21658,16.14474,8.703878,108.045,1.694246,0,0.1066375,98
15898,2023-01-20 11:09:29.640016,203994363,0,15.23529,16.1395,8.476293,108.2804,1.697832,0,0.1066759,98
15928,2023-01-20 11:09:29.740184,204094420,0,15.21658,16.13863,8.640029,108.5205,1.701487,0,0.1067182,98
15964,2023-01-20 11:09:29.840162,204194360,0,15.16252,16.13659,9.122727,108.7738,1.705327,0,0.1067746,98
15997,2023-01-20 11:09:29.940124,204294392,0,15.10491,16.13924,9.684598,109.0429,1.709392,0,0.1068015,98
16030,2023-01-20 11:09:30.040039,204394367,0,15.12441,16.13806,9.487943,109.3065,1.713378,0,0.1068362,98
16060,2023-01-20 11:09:30.140007,204494380,0,15.14962,16.13935,9.262343,109.5638,1.717276,0,0.1068557,98
16095,2023-01-20 11:09:30.239975,204594369,0,15.15011,16.13752,9.237656,109.8204,1.721164,0,0.1068898,98
16126,2023-01-20 11:09:30.339986,204694364,0,15.14568,16.13672,9.268303,110.0779,1.725063,0,0.1069278,98
16161,2023-01-20 11:09:30.440053,204794429,0,15.14834,16.13644,9.237656,110.3346,1.728953,0,0.1069645,98
16193,2023-01-20 11:09:30.539990,204894385,0,15.13327,16.13467,9.357692,110.5945,1.732885,0,0.1070135,98
16227,2023-01-20 11:09:30.639969,204994377,0,15.11614,16.13449,9.512064,110.8587,1.736879,0,0.1070594,98
16257,2023-01-20 11:09:30.739958,205094372,0,15.07567,16.13601,9.901685,111.1338,1.741026,0,0.1070872,98
16292,2023-01-20 11:09:30.839961,205194364,0,15.07478,16.13266,9.87359,111.408,1.74516,0,0.1071426,98
16348,2023-01-20 11:09:30.940029,205294397,0,15.04731,16.13127,10.11111,111.689,1.749388,0,0.1072054,98
16401,2023-01-20 11:09:31.040061,205394410,0,15.08541,16.13535,9.791863,111.9611,1.753492,0,0.1072251,98
16431,2023-01-20 11:09:31.140027,205494383,0,15.09743,16.13211,9.645436,112.2289,1.757537,0,0.1072722,98
16465,2023-01-20 11:09:31.240020,205594383,0,15.0925,16.1283,9.648843,112.497,1.761582,0,0.1073493,98
16496,2023-01-20 11:09:31.339998,205694368,0,15.11377,16.13378,9.503267,112.7609,1.765572,0,0.107332,98
16531,2023-01-20 11:09:31.439996,205794378,0,15.11909,16.12933,9.416433,113.0226,1.769527,0,0.1072843,98
16561,2023-01-20 11:09:31.539979,205894377,0,15.22544,16.13138,8.44593,113.2572,1.773099,0,0.1072631,98
16595,2023-01-20 11:09:31.639971,205994371,0,15.27763,16.12642,7.917261,113.4771,1.776459,0,0.1072081,98
16625,2023-01-20 11:09:31.740030,206094410,0,15.14391,16.11947,9.099742,113.73,1.780289,0,0.1072081,98
16660,2023-01-20 11:09:31.839995,206194362,0,15.04288,16.13037,10.14431,114.0117,1.784526,0,0.1072029,98
16693,2023-01-20 11:09:31.940018,206294382,0,15.08364,16.1293,9.753555,114.2827,1.788614,0,0.107208,98
16726,2023-01-20 11:09:32.040000,206394362,0,15.1634,16.13465,9.056325,114.5342,1.792428,0,0.1072454,98
16756,2023-01-20 11:09:32.140019,206494380,0,15.23824,16.12922,8.308867,114.7651,1.795946,0,0.1072323,98
16791,2023-01-20 11:09:32.239995,206594357,0,15.23785,16.12217,8.251829,114.9943,1.799438,0,0.1071673,98
16822,2023-01-20 11:09:32.340027,206694396,0,15.09073,16.11954,9.592655,115.2608,1.803461,0,0.1072495,98
16857,2023-01-20 11:09:32.440003,206794384,0,15.01009,16.12765,10.42014,115.5503,1.807806,0,0.1072503,98
16887,2023-01-20 11:09:32.539962,206894363,0,15.02427,16.12685,10.27967,115.8358,1.812095,0,0.1072584,98
16921,2023-01-20 11:09:32.639944,206994358,0,15.07576,16.12487,9.778811,116.1074,1.816191,0,0.1072835,98
16951,2023-01-20 11:09:32.739944,207094361,0,15.12175,16.12171,9.32449,116.3665,1.820108,0,0.1072397,98
16986,2023-01-20 11:09:32.839963,207194369,0,15.10048,16.1166,9.475173,116.6297,1.824083,0,0.1072397,98
17019,2023-01-20 11:09:32.940008,207294385,0,15.10757,16.11919,9.436864,116.8919,1.828044,0,0.1071987,98
17052,2023-01-20 11:09:33.040038,207394397,0,15.15365,16.12016,9.018016,117.1425,1.831841,0,0.1071744,98
17082,2023-01-20 11:09:33.140045,207494403,0,15.14125,16.11222,9.066541,117.3944,1.835655,0,0.1070943,98
17117,2023-01-20 11:09:33.239974,207594344,0,15.05115,16.11275,9.906508,117.6694,1.839794,0,0.107162,98
17148,2023-01-20 11:09:33.339966,207694368,0,15.03135,16.11928,10.15197,117.9515,1.844034,0,0.1071641,98
17183,2023-01-20 11:09:33.439962,207794383,0,15.06858,16.11402,9.751,118.2224,1.848117,0,0.1072136,98
17213,2023-01-20 11:09:33.539946,207894365,0,15.04908,16.11412,9.929777,118.4982,1.852267,0,0.1072576,98
17247,2023-01-20 11:09:33.640005,207994414,0,15.06237,16.11587,9.819958,118.7711,1.856378,0,0.1072815,98
17277,2023-01-20 11:09:33.739977,208094364,0,15.08857,16.11652,9.583008,119.0372,1.860393,0,0.107268,98
17312,2023-01-20 11:09:33.840058,208194428,0,15.11555,16.11295,9.301504,119.2958,1.864302,0,0.1072301,98
17345,2023-01-20 11:09:33.940010,208294373,0,15.12264,16.10879,9.2019,119.5513,1.868165,0,0.1071687,98
17378,2023-01-20 11:09:34.040003,208394361,0,15.10491,16.10868,9.370461,119.8116,1.872097,0,0.1071205,98
17408,2023-01-20 11:09:34.140028,208494384,0,15.07921,16.11386,9.659059,120.0799,1.876144,0,0.1071172,97
17443,2023-01-20 11:09:34.240020,208594374,0,15.08857,16.10534,9.4922,120.3436,1.880122,0,0.1071172,97
17474,2023-01-20 11:09:34.340047,208694403,0,15.11023,16.11086,9.342367,120.6032,1.884045,0,0.1071071,97
17509,2023-01-20 11:09:34.440022,208794389,0,15.09073,16.10504,9.470065,120.8662,1.888014,0,0.1071071,97
17539,2023-01-20 11:09:34.539979,208894370,0,15.11023,16.10881,9.32449,121.1252,1.891928,0,0.1070923,97
17573,2023-01-20 11:09:34.639977,208994375,0,15.12795,16.10746,9.148268,121.3794,1.895772,0,0.1070703,97
17604,2023-01-20 11:09:34.740000,209094378,0,15.10826,16.10611,9.321937,121.6384,1.899685,0,0.107043,97
17639,2023-01-20 11:09:34.839999,209194364,0,15.10048,16.1038,9.373015,121.8987,1.903616,0,0.107043,97
17672,2023-01-20 11:09:34.940057,209294418,0,15.08098,16.09977,9.510928,122.1631,1.907603,0,0.1071174,97
17705,2023-01-20 11:09:35.040006,209394364,0,15.11289,16.1091,9.298951,122.4212,1.911505,0,0.1071319,97
17735,2023-01-20 11:09:35.140033,209494392,0,15.17315,16.10283,8.680893,122.6625,1.915165,0,0.1070946,97
17770,2023-01-20 11:09:35.239997,209594369,0,15.12205,16.10115,9.145997,122.9165,1.919006,0,0.1070528,97
17801,2023-01-20 11:09:35.339957,209694359,0,15.0996,16.10217,9.3628,123.1766,1.922933,0,0.1070813,97
17836,2023-01-20 11:09:35.439976,209794389,0,15.05971,16.09842,9.694814,123.446,1.926991,0,0.1071409,97
17868,2023-01-20 11:09:35.539968,209894364,0,15.05174,16.1029,9.809742,123.7184,1.931091,0,0.1071544,97
17902,2023-01-20 11:09:35.640019,209994401,0,15.03401,16.09905,9.934885,123.9945,1.935242,0,0.1072015,97
17932,2023-01-20 11:09:35.740005,210094378,0,15.09349,16.10377,9.424094,124.2562,1.939193,0,0.1072017,97
17967,2023-01-20 11:09:35.840050,210194424,0,15.08719,16.09845,9.436864,124.5185,1.94315,0,0.1071608,97
18000,2023-01-20 11:09:35.939984,210294374,0,15.05794,16.10007,9.722908,124.7885,1.947215,0,0.1071831,97
18033,2023-01-20 11:09:36.039986,210394376,0,15.04022,16.10082,9.894022,125.0634,1.951349,0,0.1071966,97
18063,2023-01-20 11:09:36.140023,210494390,0,15.05617,16.10176,9.753555,125.3343,1.955429,0,0.1072004,97
18098,2023-01-20 11:09:36.240010,210594363,0,15.01767,16.09854,10.07961,125.6143,1.959633,0,0.107233,97
18129,2023-01-20 11:09:36.340035,210694388,0,15.00388,16.09731,10.19283,125.8975,1.963882,0,0.1072738,97
18164,2023-01-20 11:09:36.436441,210794407,0,14.98173,16.09769,10.3997,126.1865,1.968212,0,0.1073073,97
18194,2023-01-20 11:09:36.527390,210894373,0,14.99679,16.09872,10.2669,126.4716,1.972487,0,0.1073284,97
18228,2023-01-20 11:09:36.620184,210994365,0,14.98173,16.09515,10.36906,126.7596,1.976803,0,0.10738,97
18258,2023-01-20 11:09:36.720197,211094375,0,14.95465,16.09509,10.61594,127.0546,1.981213,0,0.1074275,97
18293,2023-01-20 11:09:36.820192,211194364,0,14.96046,16.09689,10.57593,127.3483,1.985608,0,0.1074544,97
18326,2023-01-20 11:09:36.920279,211294437,0,14.98439,16.09541,10.33586,127.6357,1.989914,0,0.1074923,97
18359,2023-01-20 11:09:37.020216,211394366,0,14.98882,16.09502,10.28733,127.9212,1.994194,0,0.1075303,97
18389,2023-01-20 11:09:37.120201,211494368,0,15.01718,16.09359,10.01406,128.1994,1.998372,0,0.1074901,97
18424,2023-01-20 11:09:37.220174,211594360,0,15.00979,16.09288,10.07961,128.4794,2.002574,0,0.1074538,97
18455,2023-01-20 11:09:37.320151,211694370,0,15.02161,16.09329,9.975749,128.7565,2.006737,0,0.107429,97
18490,2023-01-20 11:09:37.422364,211794390,0,15.04199,16.08695,9.733123,129.027,2.010806,0,0.1073612,97
18520,2023-01-20 11:09:37.533362,211894374,0,15.04288,16.08854,9.743339,129.2976,2.014877,0,0.1073213,97
18554,2023-01-20 11:09:37.636381,211994410,0,15.05351,16.08817,9.643734,129.5656,2.018911,0,0.1072877,97
18584,2023-01-20 11:09:37.727290,212094387,0,15.01009,16.0838,10.00129,129.8434,2.023081,0,0.1073578,97
18619,2023-01-20 11:09:37.820070,212194416,0,15.01471,16.0874,9.988802,130.121,2.027248,0,0.1073887,97
18652,2023-01-20 11:09:37.920052,212294380,0,15.06946,16.0876,9.482835,130.3843,2.031217,0,0.1073664,97
18685,2023-01-20 11:09:38.020066,212394382,0,15.05705,16.08409,9.56967,130.6502,2.03522,0,0.1073221,97
18715,2023-01-20 11:09:38.120053,212494381,0,15.03224,16.08395,9.799526,130.9224,2.039312,0,0.1073221,97
18750,2023-01-20 11:09:38.220075,212594415,0,15.01806,16.08609,9.95021,131.1989,2.043464,0,0.1073372,97
18781,2023-01-20 11:09:38.320019,212694376,0,15.03441,16.08243,9.76746,131.4701,2.047542,0,0.1072975,97
18816,2023-01-20 11:09:38.420011,212794384,0,15.05883,16.08409,9.5569,131.7357,2.051541,0,0.1072796,97
18846,2023-01-20 11:09:38.519981,212894370,0,15.05617,16.07753,9.526253,132.0003,2.055525,0,0.1072152,97
18880,2023-01-20 11:09:38.619977,212994375,0,15.07744,16.08402,9.388339,132.2611,2.059457,0,0.1072156,97
18910,2023-01-20 11:09:38.720001,213094387,0,15.09428,16.0821,9.214669,132.5171,2.063321,0,0.1072012,97
18945,2023-01-20 11:09:38.819998,213194372,0,15.11515,16.08049,9.006948,132.7673,2.067103,0,0.1071775,97
18978,2023-01-20 11:09:38.920061,213294423,0,15.11112,16.0752,9.000137,133.0174,2.070883,0,0.1071183,97
19011,2023-01-20 11:09:39.020017,213394371,0,15.10934,16.08255,9.084419,133.2697,2.074694,0,0.1071295,97
19041,2023-01-20 11:09:39.120019,213494377,0,15.10314,16.07861,9.107405,133.5227,2.078516,0,0.1071077,97
19076,2023-01-20 11:09:39.219997,213594364,0,15.06149,16.07721,9.480282,133.786,2.082482,0,0.1071401,97
19107,2023-01-20 11:09:39.319975,213694366,0,15.08266,16.08443,9.347475,134.0457,2.086398,0,0.1071708,97
19142,2023-01-20 11:09:39.419984,213794393,0,15.10491,16.0771,9.074203,134.2978,2.090207,0,0.107138,97
19172,2023-01-20 11:09:39.519999,213894404,0,15.09516,16.07638,9.161037,134.5523,2.094049,0,0.107107,97
19206,2023-01-20 11:09:39.619970,213994370,0,15.12441,16.07906,8.913303,134.7999,2.097793,0,0.1071037,97
19236,2023-01-20 11:09:39.719985,214094372,0,15.13504,16.079,8.813699,135.0447,2.101499,0,0.1071007,97
19275,2023-01-20 11:09:39.819993,214194368,0,15.14272,16.07616,8.717501,135.2869,2.105166,0,0.1070764,97
19308,2023-01-20 11:09:39.920026,214294389,0,15.13061,16.0761,8.831576,135.5323,2.108879,0,0.1070571,97
19341,2023-01-20 11:09:40.020011,214394366,0,15.12529,16.07905,8.908195,135.7797,2.112621,0,0.107065,97
19371,2023-01-20 11:09:40.120028,214494387,0,15.16518,16.07789,8.525102,136.0165,2.116213,0,0.1070621,97
19406,2023-01-20 11:09:40.220050,214594412,0,15.12618,16.0771,8.882656,136.2634,2.119946,0,0.1070538,97
19437,2023-01-20 11:09:40.320003,214694368,0,15.17719,16.07955,8.428052,136.4974,2.123498,0,0.1070664,97
19472,2023-01-20 11:09:40.420011,214794382,0,15.19797,16.07612,8.203304,136.7253,2.126962,0,0.1070495,97
19504,2023-01-20 11:09:40.519973,214894365,0,15.20683,16.07701,8.129238,136.9511,2.130396,0,0.1070432,97
19538,2023-01-20 11:09:40.619973,214994378,0,15.16252,16.07811,8.553195,137.1887,2.133999,0,0.1070469,97
19568,2023-01-20 11:09:40.719984,215094372,0,15.16518,16.07981,8.54298,137.426,2.137598,0,0.107063,97
19603,2023-01-20 11:09:40.820045,215194417,0,15.18507,16.07667,8.328732,137.6575,2.141113,0,0.1070511,97
19636,2023-01-20 11:09:40.920030,215294390,0,15.19176,16.08049,8.300354,137.888,2.144615,0,0.1070716,97
19669,2023-01-20 11:09:41.020010,215394361,0,15.23164,16.0765,7.891721,138.1072,2.147954,0,0.1070564,97
19699,2023-01-20 11:09:41.120030,215494383,0,15.20949,16.07814,8.113915,138.3327,2.151383,0,0.1070574,97
19734,2023-01-20 11:09:41.220015,215594375,0,15.19974,16.07942,8.216074,138.5609,2.154852,0,0.1070681,97
19765,2023-01-20 11:09:41.319974,215694366,0,15.18703,16.07946,8.334407,138.7924,2.158368,0,0.1070767,97
19800,2023-01-20 11:09:41.419977,215794393,0,15.16074,16.08105,8.596613,139.0313,2.161989,0,0.1070547,97
19830,2023-01-20 11:09:41.520002,215894410,0,15.18201,16.08045,8.392297,139.2645,2.165529,0,0.1070547,97
19864,2023-01-20 11:09:41.619977,215994378,0,15.14922,16.07606,8.655354,139.5048,2.169171,0,0.1070821,97
19894,2023-01-20 11:09:41.719976,216094369,0,15.13061,16.08283,8.895425,139.7519,2.172909,0,0.1070459,97
19929,2023-01-20 11:09:41.819987,216194374,0,15.18507,16.08197,8.376973,139.9846,2.176443,0,0.1070673,97
19962,2023-01-20 11:09:41.919990,216294381,0,15.18645,16.07833,8.331002,140.2161,2.179958,0,0.1070556,97
19995,2023-01-20 11:09:42.019985,216394376,0,15.15011,16.07691,8.655354,140.4565,2.183601,0,0.1070787,97
20025,2023-01-20 11:09:42.120057,216494431,0,15.1572,16.0796,8.614491,140.696,2.18723,0,0.1070754,97
20060,2023-01-20 11:09:42.220010,216594372,0,15.14036,16.0774,8.74985,140.9389,2.190908,0,0.1070921,97
20091,2023-01-20 11:09:42.319987,216694357,0,15.15553,16.07541,8.586965,141.1774,2.194523,0,0.107125,97
20126,2023-01-20 11:09:42.420012,216794392,0,15.13682,16.07447,8.74985,141.4205,2.198204,0,0.1071629,97
20156,2023-01-20 11:09:42.519984,216894378,0,15.13593,16.07621,8.772836,141.6642,2.201892,0,0.1071813,97
20190,2023-01-20 11:09:42.619964,216994367,0,15.12884,16.07891,8.864779,141.9105,2.205617,0,0.1071736,97
20220,2023-01-20 11:09:42.719988,217094382,0,15.13239,16.0758,8.80093,142.155,2.209317,0,0.1071946,97
20255,2023-01-20 11:09:42.820037,217194421,0,15.13682,16.07371,8.737081,142.3978,2.212993,0,0.1072322,97
20288,2023-01-20 11:09:42.920017,217294384,0,15.13977,16.0745,8.714663,142.6398,2.216657,0,0.107259,97
20320,2023-01-20 11:09:43.020017,217394370,0,15.13948,16.07563,8.726865,142.8822,2.220326,0,0.1072728,97
20350,2023-01-20 11:09:43.120025,217494379,0,15.14125,16.07687,8.721756,143.1245,2.223995,0,0.1072742,97
20385,2023-01-20 11:09:43.220023,217594381,0,15.1315,16.07495,8.793267,143.3688,2.227692,0,0.1072926,97
20416,2023-01-20 11:09:43.320012,217694383,0,15.08098,16.07349,9.247872,143.6257,2.231566,0,0.1073224,97
20451,2023-01-20 11:09:43.420044,217794428,0,15.04918,16.07503,9.557467,143.8913,2.235564,0,0.1073353,97
20481,2023-01-20 11:09:43.519982,217894376,0,15.02249,16.07348,9.78931,144.1631,2.239647,0,0.107361,97
20515,2023-01-20 11:09:43.619968,217994368,0,14.99325,16.07479,10.0728,144.4429,2.243842,0,0.1073723,97
20545,2023-01-20 11:09:43.719977,218094366,0,14.98261,16.07393,10.16219,144.7252,2.248072,0,0.1073903,97
20580,2023-01-20 11:09:43.819999,218194381,0,14.95868,16.07026,10.34607,145.0127,2.252372,0,0.10744,97
20613,2023-01-20 11:09:43.919990,218294383,0,14.99797,16.07262,10.00015,145.2905,2.256538,0,0.1074634,97
20646,2023-01-20 11:09:44.019984,218394381,0,15.02161,16.06866,9.738231,145.561,2.260602,0,0.1075203,97
20676,2023-01-20 11:09:44.120063,218494437,0,15.02161,16.07014,9.748446,145.832,2.264672,0,0.1075586,97
20711,2023-01-20 11:09:44.220001,218594359,0,14.98882,16.06785,10.02683,146.1103,2.268844,0,0.1076142,97
20742,2023-01-20 11:09:44.320001,218694369,0,14.97286,16.06629,10.15453,146.3925,2.273068,0,0.1076788,97
20777,2023-01-20 11:09:44.420001,218794384,0,14.95563,16.07053,10.35203,146.6801,2.277369,0,0.1076988,97
20807,2023-01-20 11:09:44.519955,218894377,0,14.97464,16.06661,10.13409,146.9616,2.281585,0,0.1077526,97
