LineNo,UTC_Approx,UTC_GPS,TimeUS,GPSTime,GPSWeek,Lat,Lng,Alt,RelAlt,GPSAlt,Roll,Pitch,Yaw
27964,2023-01-20 11:10:06.191632,2023-01-20 11:10:06.000000,240606836,472224000,2245,39.8059124,32.3815857,794.07,54.67,781.01,2.72,3.4,208.58
29012,2023-01-20 11:10:09.442381,2023-01-20 11:10:09.400000,243876766,472227400,2245,39.8057953,32.3814981,794.5,55.1,783.27,-0.54,-6.82,212.42
29782,2023-01-20 11:10:11.623512,2023-01-20 11:10:11.600000,246057930,472229600,2245,39.8056771,32.3814102,794.61,55.21,783.4,1.98,-2.18,216.73
30499,2023-01-20 11:10:13.782332,2023-01-20 11:10:13.600000,248216719,472231600,2245,39.8055615,32.3813197,794.51,55.11,783.22,0.22,-2.88,213.31
31189,2023-01-20 11:10:15.902819,2023-01-20 11:10:15.800000,250357033,472233800,2245,39.8054439,32.3812321,794.31,54.91,783.15,1.53,-1.87,211.72
31881,2023-01-20 11:10:18.042573,2023-01-20 11:10:18.000000,252496956,472236000,2245,39.8053265,32.3811452,794.21,54.81,783.3,0.39,-3.02,212.93
32590,2023-01-20 11:10:20.182366,2023-01-20 11:10:20.000000,254636736,472238000,2245,39.805209,32.3810575,794.2,54.8,783.4,0.87,-3.25,212.12
33284,2023-01-20 11:10:22.322339,2023-01-20 11:10:22.200000,256776723,472240200,2245,39.8050912,32.3809694,794.2,54.8,783.93,0.33,-1.2,208.72
33999,2023-01-20 11:10:24.482342,2023-01-20 11:10:24.400000,258936730,472242400,2245,39.8049742,32.3808816,794.1,54.7,784.62,1.27,-2.72,209.34
34768,2023-01-20 11:10:26.642356,2023-01-20 11:10:26.600000,261116759,472244600,2245,39.804858,32.3807926,794.16,54.76,785.51,0.76,-3.06,209.61
35456,2023-01-20 11:10:28.782731,2023-01-20 11:10:28.600000,263257108,472246600,2245,39.8047396,32.380706,794.06,54.66,785.38,0.84,-2.7,209.5
36174,2023-01-20 11:10:30.942330,2023-01-20 11:10:30.800000,265416712,472248800,2245,39.8046228,32.3806172,794.07,54.67,785.87,0.92,-2.52,209.67
36860,2023-01-20 11:10:33.082681,2023-01-20 11:10:33.000000,267557040,472251000,2245,39.8045048,32.3805293,793.98,54.58,785.83,1.47,-1.38,209.65
37545,2023-01-20 11:10:35.182217,2023-01-20 11:10:35.000000,269676729,472253000,2245,39.804388,32.3804416,793.92,54.52,785.94,0.89,-1.22,209.02
38267,2023-01-20 11:10:37.342057,2023-01-20 11:10:37.200000,271836711,472255200,2245,39.8042716,32.3803531,793.92,54.52,786.02,0.29,-1.17,209.9
38984,2023-01-20 11:10:39.542063,2023-01-20 11:10:39.400000,274036737,472257400,2245,39.8041544,32.3802636,794.12,54.72,786.7,0.35,-2.22,208.81
39684,2023-01-20 11:10:41.702172,2023-01-20 11:10:41.600000,276196841,472259600,2245,39.8040364,32.3801757,794.12,54.72,787.11,-0.75,-1.79,209.35
40446,2023-01-20 11:10:43.842874,2023-01-20 11:10:43.800000,278357020,472261800,2245,39.8039191,32.380088,794.19,54.79,786.89,0.06,-1.85,209.5
41139,2023-01-20 11:10:45.982659,2023-01-20 11:10:45.800000,280497033,472263800,2245,39.8038011,32.3800009,794.21,54.81,786.34,1.25,-1.2,210.09
41849,2023-01-20 11:10:48.162356,2023-01-20 11:10:48.000000,282676726,472266000,2245,39.8036845,32.3799109,794.2,54.8,785.96,0.17,-2.78,210.27
42569,2023-01-20 11:10:50.322373,2023-01-20 11:10:50.200000,284836734,472268200,2245,39.8035677,32.3798214,794.26,54.86,786.12,0.49,-1.87,210.19
43260,2023-01-20 11:10:52.462355,2023-01-20 11:10:52.400000,286976722,472270400,2245,39.8034491,32.3797348,794.17,54.77,785.56,0.77,-1.48,210.11
43976,2023-01-20 11:10:54.602249,2023-01-20 11:10:54.600000,289136714,472272600,2245,39.8033315,32.3796462,794.1,54.7,785.47,0.31,-1.5,209.9
44667,2023-01-20 11:10:56.742331,2023-01-20 11:10:56.600000,291276733,472274600,2245,39.8032143,32.3795582,794.14,54.74,785.86,-0.21,-1.89,210.26
45381,2023-01-20 11:10:58.902367,2023-01-20 11:10:58.800000,293436736,472276800,2245,39.8030971,32.3794703,794.15,54.75,786.04,1.4,-1.9,209.9
46127,2023-01-20 11:11:01.062468,2023-01-20 11:11:01.000000,295596848,472279000,2245,39.8029801,32.3793808,794.17,54.77,786.67,0.05,-2.02,209.71
46837,2023-01-20 11:11:03.182625,2023-01-20 11:11:03.000000,297736798,472281000,2245,39.8028632,32.3792935,794.15,54.75,787.12,0.24,-1.72,209.73
47525,2023-01-20 11:11:05.322341,2023-01-20 11:11:05.200000,299876713,472283200,2245,39.8027453,32.379206,794.07,54.67,787.23,0.43,-0.66,209.98
48244,2023-01-20 11:11:07.502666,2023-01-20 11:11:07.400000,302057049,472285400,2245,39.8026278,32.379117,794.2,54.8,787.77,1.9,-1.54,211.07
48964,2023-01-20 11:11:09.662325,2023-01-20 11:11:09.600000,304216724,472287600,2245,39.802511,32.3790283,794.29,54.89,788.03,-0.94,-2,211.02
49657,2023-01-20 11:11:11.820392,2023-01-20 11:11:11.800000,306376741,472289800,2245,39.8023932,32.3789401,794.3,54.9,788.11,0.08,-2.49,210.19
50369,2023-01-20 11:11:13.947681,2023-01-20 11:11:13.800000,308516701,472291800,2245,39.8022759,32.378853,794.3,54.9,788.38,0.87,-1.03,210.7
51108,2023-01-20 11:11:16.102331,2023-01-20 11:11:16.000000,310676710,472294000,2245,39.8021586,32.3787644,794.25,54.85,788.26,0,-2.35,208.34
51827,2023-01-20 11:11:18.262347,2023-01-20 11:11:18.200000,312836733,472296200,2245,39.8020408,32.378676,794.35,54.95,788.15,1.22,-2.55,210.87
52522,2023-01-20 11:11:20.422465,2023-01-20 11:11:20.400000,314996841,472298400,2245,39.8019229,32.3785883,794.38,54.98,788.12,1.54,-3.13,212.03
53234,2023-01-20 11:11:22.562484,2023-01-20 11:11:22.400000,317157032,472300400,2245,39.8018059,32.3784993,794.4,55,787.45,1.35,-3.3,211.64
53952,2023-01-20 11:11:24.722053,2023-01-20 11:11:24.600000,319316707,472302600,2245,39.8016887,32.3784107,794.35,54.95,787.21,0.37,-4.56,210.87
54641,2023-01-20 11:11:26.842059,2023-01-20 11:11:26.800000,321436715,472304800,2245,39.8015715,32.3783227,794.17,54.77,787.03,0.38,-1.83,213.66
55326,2023-01-20 11:11:28.982073,2023-01-20 11:11:28.800000,323576712,472306800,2245,39.8014539,32.378234,794.26,54.86,787.39,0.09,-0.13,210.72
56046,2023-01-20 11:11:31.122602,2023-01-20 11:11:31.000000,325736775,472309000,2245,39.8013362,32.3781471,794.24,54.84,788.09,0.27,-1.77,209.81
56785,2023-01-20 11:11:33.262350,2023-01-20 11:11:33.200000,327876717,472311200,2245,39.8012185,32.3780608,794.44,55.04,788.01,1.72,0.35,207.4
57500,2023-01-20 11:11:35.422344,2023-01-20 11:11:35.400000,330036736,472313400,2245,39.801102,32.3779707,794.36,54.96,787.68,0.64,-1.99,207.59
58190,2023-01-20 11:11:37.562390,2023-01-20 11:11:37.400000,332176809,472315400,2245,39.8009833,32.3778844,794.11,54.71,787.14,2.72,-1.65,210.1
58909,2023-01-20 11:11:39.742711,2023-01-20 11:11:39.600000,334357106,472317600,2245,39.8008672,32.3777931,794.2,54.8,787.21,0.66,-2.56,208.6
59692,2023-01-20 11:11:42.102356,2023-01-20 11:11:42.000000,336736725,472320000,2245,39.8007507,32.3777042,794.09,54.69,787.12,-0.73,11.53,208.2
61553,2023-01-20 11:11:47.823536,2023-01-20 11:11:47.800000,342457922,472325800,2245,39.8006411,32.3776018,794.52,55.12,788.86,16.56,-10.98,284.77
62592,2023-01-20 11:11:50.962554,2023-01-20 11:11:50.800000,345616744,472328800,2245,39.8007118,32.3774512,794.75,55.35,788.66,4.53,-5.3,300.42
64449,2023-01-20 11:11:56.662276,2023-01-20 11:11:56.600000,351316683,472334600,2245,39.8008255,32.3773567,794.43,55.03,786.15,-3.44,-11.23,30.3
64846,2023-01-20 11:11:57.942090,2023-01-20 11:11:57.800000,352596476,472335800,2245,39.8008515,32.3773749,794.34,54.94,785.14,-3.14,-11.06,30.67
65963,2023-01-20 11:12:01.182790,2023-01-20 11:12:01.000000,355857133,472339000,2245,39.8009691,32.3774615,794.52,55.12,783.28,-1.5,-21.09,31.51
66650,2023-01-20 11:12:03.262366,2023-01-20 11:12:03.200000,357936732,472341200,2245,39.8010881,32.3775471,794.31,54.91,782.74,-0.88,-14,29.65
67373,2023-01-20 11:12:05.502319,2023-01-20 11:12:05.400000,360176709,472343400,2245,39.8012042,32.3776388,794.28,54.88,782.08,-3.91,-18.45,31.91
68068,2023-01-20 11:12:07.622437,2023-01-20 11:12:07.600000,362296848,472345600,2245,39.8013223,32.3777238,794.34,54.94,782.75,-2.08,-15.91,30.14
68775,2023-01-20 11:12:09.722224,2023-01-20 11:12:09.600000,364416694,472347600,2245,39.8014393,32.3778131,794.22,54.82,783.38,-2.65,-15.72,29.53
69470,2023-01-20 11:12:11.902335,2023-01-20 11:12:11.800000,366596938,472349800,2245,39.8015561,32.3779022,794.43,55.03,784.13,-2.78,-16.64,30.28
70185,2023-01-20 11:12:14.062418,2023-01-20 11:12:14.000000,368757014,472352000,2245,39.8016737,32.3779907,794.44,55.04,784.79,-3.9,-16.05,29.91
70902,2023-01-20 11:12:16.222100,2023-01-20 11:12:16.200000,370916692,472354200,2245,39.8017915,32.3780776,794.47,55.07,785.03,-1.61,-16.73,29.76
71673,2023-01-20 11:12:18.442107,2023-01-20 11:12:18.400000,373136722,472356400,2245,39.8019076,32.3781675,794.57,55.17,783.11,-3.8,-21.15,31.65
72334,2023-01-20 11:12:20.482595,2023-01-20 11:12:20.400000,375196901,472358400,2245,39.802027,32.3782527,794.68,55.28,782.59,0.41,-16.19,30.03
73022,2023-01-20 11:12:22.582554,2023-01-20 11:12:22.400000,377296968,472360400,2245,39.8021443,32.3783406,794.42,55.02,782.46,-1.29,-15.25,30.33
73733,2023-01-20 11:12:24.762372,2023-01-20 11:12:24.600000,379476745,472362600,2245,39.8022615,32.3784289,794.55,55.15,782.71,-1.67,-16.88,30.4
74458,2023-01-20 11:12:26.982488,2023-01-20 11:12:26.800000,381696848,472364800,2245,39.8023784,32.3785188,794.62,55.22,782.91,-1.92,-19.3,30.47
75169,2023-01-20 11:12:29.113726,2023-01-20 11:12:29.000000,383836698,472367000,2245,39.8024962,32.3786071,794.45,55.05,781.88,-1.85,-16.24,30.4
75861,2023-01-20 11:12:31.242402,2023-01-20 11:12:31.200000,385976766,472369200,2245,39.8026129,32.3786955,794.46,55.06,781.15,-1.57,-16.46,30.47
76577,2023-01-20 11:12:33.382344,2023-01-20 11:12:33.200000,388116715,472371200,2245,39.8027295,32.3787839,794.33,54.93,780.29,-2.29,-16.31,29.8
77324,2023-01-20 11:12:35.562485,2023-01-20 11:12:35.400000,390296901,472373400,2245,39.8028467,32.3788728,794.31,54.91,780.44,-2.32,-15.74,29.43
78034,2023-01-20 11:12:37.722617,2023-01-20 11:12:37.600000,392456999,472375600,2245,39.802964,32.3789599,794.41,55.01,780.31,-2.12,-16.78,29.32
78753,2023-01-20 11:12:39.902738,2023-01-20 11:12:39.800000,394657027,472377800,2245,39.8030809,32.37905,794.25,54.85,780.57,-2.3,-18.61,30.55
79471,2023-01-20 11:12:42.062387,2023-01-20 11:12:42.000000,396816756,472380000,2245,39.8031982,32.3791386,794.4,55,779.99,-2.19,-16.64,29.87
80162,2023-01-20 11:12:44.222347,2023-01-20 11:12:44.200000,398976725,472382200,2245,39.803316,32.3792253,794.42,55.02,779.05,-3.11,-18.23,31.25
80880,2023-01-20 11:12:46.362361,2023-01-20 11:12:46.200000,401116725,472384200,2245,39.8034316,32.3793155,794.34,54.94,778.16,-3.23,-17.87,31.41
81568,2023-01-20 11:12:48.442432,2023-01-20 11:12:48.400000,403216761,472386400,2245,39.8035504,32.3794005,794.36,54.96,778.21,-2.25,-15.78,29.9
82309,2023-01-20 11:12:50.602326,2023-01-20 11:12:50.600000,405376730,472388600,2245,39.8036672,32.3794896,794.28,54.88,777.83,-3.97,-16.38,28.45
83021,2023-01-20 11:12:52.762356,2023-01-20 11:12:52.600000,407536723,472390600,2245,39.8037845,32.3795794,794.21,54.81,777.94,-2.1,-12.6,29.33
83740,2023-01-20 11:12:54.942363,2023-01-20 11:12:54.800000,409716740,472392800,2245,39.803903,32.3796658,794.22,54.82,778.38,-2.13,-15.22,30.57
84436,2023-01-20 11:12:57.102397,2023-01-20 11:12:57.000000,411896836,472395000,2245,39.80402,32.3797531,794.27,54.87,778.1,-2.48,-15.45,29.02
85148,2023-01-20 11:12:59.282159,2023-01-20 11:12:59.200000,414076762,472397200,2245,39.804135,32.3798451,794.47,55.07,778.48,-4.3,-19.22,30.48
85838,2023-01-20 11:13:01.382103,2023-01-20 11:13:01.200000,416176729,472399200,2245,39.8042531,32.3799305,794.35,54.95,778.21,-1.32,-16.76,29.51
86557,2023-01-20 11:13:03.562386,2023-01-20 11:13:03.400000,418357021,472401400,2245,39.8043701,32.3800197,794.21,54.81,777.6,-4.56,-18.19,31.62
87245,2023-01-20 11:13:05.682071,2023-01-20 11:13:05.600000,420476708,472403600,2245,39.8044885,32.3801054,794.22,54.82,777.12,-0.8,-16.81,30.67
87984,2023-01-20 11:13:07.782655,2023-01-20 11:13:07.600000,422596988,472405600,2245,39.8046056,32.3801951,794.19,54.79,777.02,-2.75,-16.81,31.02
88698,2023-01-20 11:13:09.962346,2023-01-20 11:13:09.800000,424776722,472407800,2245,39.8047222,32.3802844,794.29,54.89,776.89,-3.43,-17.71,31.27
89391,2023-01-20 11:13:12.082468,2023-01-20 11:13:12.000000,426896826,472410000,2245,39.8048405,32.3803716,794.3,54.9,776.36,-2.59,-14.85,29.62
90101,2023-01-20 11:13:14.222348,2023-01-20 11:13:14.200000,429036720,472412200,2245,39.8049587,32.3804575,794.32,54.92,775.61,0.55,-14.41,29.95
90825,2023-01-20 11:13:16.384194,2023-01-20 11:13:16.200000,431216748,472414200,2245,39.805075,32.3805483,794.31,54.91,775.51,-2.8,-15.48,29.95
91519,2023-01-20 11:13:18.562476,2023-01-20 11:13:18.400000,433396836,472416400,2245,39.805192,32.3806359,794.29,54.89,775.51,-2.06,-17.26,29.52
92232,2023-01-20 11:13:20.722599,2023-01-20 11:13:20.600000,435556996,472418600,2245,39.8053098,32.3807227,794.34,54.94,776.08,-0.41,-17.04,30.12
92925,2023-01-20 11:13:22.862552,2023-01-20 11:13:22.800000,437696939,472420800,2245,39.8054267,32.3808111,794.25,54.85,776.68,-1.12,-15.75,30.29
93685,2023-01-20 11:13:25.002316,2023-01-20 11:13:25.000000,439836730,472423000,2245,39.8055433,32.3809011,794.22,54.82,777.58,-3.3,-14.76,30.49
94379,2023-01-20 11:13:27.142634,2023-01-20 11:13:27.000000,441996848,472425000,2245,39.8056606,32.3809892,794.24,54.84,777.76,-2.58,-15.75,30.28
95093,2023-01-20 11:13:29.302634,2023-01-20 11:13:29.200000,444157006,472427200,2245,39.8057783,32.381077,794.11,54.71,777.94,-2.44,-17.24,30.96
95792,2023-01-20 11:13:31.442527,2023-01-20 11:13:31.400000,446296940,472429400,2245,39.8058956,32.3811649,794.15,54.75,777.86,-1.39,-14.27,29.87
96602,2023-01-20 11:13:33.942605,2023-01-20 11:13:33.800000,448796972,472431800,2245,39.8060132,32.3812513,793.75,54.35,778.35,-2.31,5.16,29.04
98941,2023-01-20 11:13:41.062366,2023-01-20 11:13:41.000000,455936726,472439000,2245,39.806146,32.3812199,794.1,54.7,780.86,7.79,-14.71,298.27
99788,2023-01-20 11:13:43.702380,2023-01-20 11:13:43.600000,458576766,472441600,2245,39.8062106,32.3810659,794.18,54.78,782.12,2.46,4.43,294.76
101483,2023-01-20 11:13:48.876871,2023-01-20 11:13:48.800000,463771531,472446800,2245,39.8061562,32.3809504,794.27,54.87,783.24,0.26,1.87,207.59
102602,2023-01-20 11:13:52.122043,2023-01-20 11:13:52.000000,467016687,472450000,2245,39.8060376,32.3808644,794.42,55.02,784.95,-0.64,-5.99,212.22
103325,2023-01-20 11:13:54.322126,2023-01-20 11:13:54.200000,469216749,472452200,2245,39.8059208,32.3807751,794.67,55.27,785.71,-0.43,-3.63,211.93
104014,2023-01-20 11:13:56.442868,2023-01-20 11:13:56.400000,471357088,472454400,2245,39.8058042,32.380686,794.59,55.19,785.26,-0.61,-2.52,211.48
104730,2023-01-20 11:13:58.622296,2023-01-20 11:13:58.600000,473536736,472456600,2245,39.8056871,32.3805972,794.47,55.07,785.18,-0.87,-3.19,211.55
105425,2023-01-20 11:14:00.782475,2023-01-20 11:14:00.600000,475696842,472458600,2245,39.8055694,32.3805089,794.35,54.95,784.73,-0.7,-2.31,211.06
106136,2023-01-20 11:14:02.929913,2023-01-20 11:14:02.800000,477857090,472460800,2245,39.8054525,32.38042,794.25,54.85,784.65,-0.68,-2.39,209.78
106824,2023-01-20 11:14:05.042504,2023-01-20 11:14:05.000000,479976698,472463000,2245,39.805335,32.3803339,794.19,54.79,784.03,0.21,-0.75,209.55
107543,2023-01-20 11:14:07.202317,2023-01-20 11:14:07.200000,482136741,472465200,2245,39.8052187,32.3802452,794.13,54.73,784.15,-1.64,-2.46,209.68
108282,2023-01-20 11:14:09.342355,2023-01-20 11:14:09.200000,484276748,472467200,2245,39.8051014,32.3801577,794.1,54.7,783.85,0.04,-0.41,209.51
108999,2023-01-20 11:14:11.482319,2023-01-20 11:14:11.400000,486416717,472469400,2245,39.8049843,32.3800708,794.12,54.72,783.57,-1.2,-1.63,209.79
109688,2023-01-20 11:14:13.625005,2023-01-20 11:14:13.600000,488576712,472471600,2245,39.8048672,32.3799818,794.1,54.7,783.39,-0.86,-1.72,210.24
110405,2023-01-20 11:14:15.782534,2023-01-20 11:14:15.600000,490736767,472473600,2245,39.8047502,32.3798931,794.17,54.77,783.06,-0.72,-1.1,211.11
111101,2023-01-20 11:14:17.942497,2023-01-20 11:14:17.800000,492896874,472475800,2245,39.8046322,32.3798052,794.32,54.92,782.72,-0.88,-1.09,208.9
111812,2023-01-20 11:14:20.102666,2023-01-20 11:14:20.000000,495057034,472478000,2245,39.8045155,32.3797164,794.41,55.01,782.82,-1.61,-2.03,210.7
112535,2023-01-20 11:14:22.302708,2023-01-20 11:14:22.200000,497257065,472480200,2245,39.8043991,32.379627,794.47,55.07,782.76,-1.27,-3.89,209.17
113268,2023-01-20 11:14:24.362543,2023-01-20 11:14:24.200000,499336725,472482200,2245,39.8042795,32.379543,794.49,55.09,781.56,1.35,0.13,210.49
113964,2023-01-20 11:14:26.522432,2023-01-20 11:14:26.400000,501496848,472484400,2245,39.8041632,32.3794535,794.43,55.03,781.07,-1.21,-1.47,209.12
114675,2023-01-20 11:14:28.702322,2023-01-20 11:14:28.600000,503676715,472486600,2245,39.8040472,32.3793636,794.45,55.05,781.69,-0.31,-1.38,210.6
115372,2023-01-20 11:14:30.822562,2023-01-20 11:14:30.800000,505796919,472488800,2245,39.8039292,32.3792787,794.4,55,781.24,0.71,-2.23,213.47
116078,2023-01-20 11:14:32.929337,2023-01-20 11:14:32.800000,507916705,472490800,2245,39.8038119,32.379191,794.38,54.98,780.46,0.65,-1.11,212.07
116775,2023-01-20 11:14:35.102387,2023-01-20 11:14:35.000000,510096941,472493000,2245,39.8036951,32.3791004,794.29,54.89,780.24,-0.9,-1.59,209.61
117490,2023-01-20 11:14:37.262387,2023-01-20 11:14:37.200000,512257041,472495200,2245,39.8035775,32.3790127,794.29,54.89,780.59,-1.09,-3,208.95
118207,2023-01-20 11:14:39.422069,2023-01-20 11:14:39.400000,514416713,472497400,2245,39.803461,32.3789244,794.33,54.93,780.84,-0.08,-2.86,212.17
118944,2023-01-20 11:14:41.562366,2023-01-20 11:14:41.400000,516557036,472499400,2245,39.8033426,32.3788376,794.26,54.86,781.3,1.59,-2.98,212.15
119637,2023-01-20 11:14:43.682665,2023-01-20 11:14:43.600000,518696840,472501600,2245,39.8032257,32.37875,794.22,54.82,781.57,1.49,-3.24,210.78
120351,2023-01-20 11:14:45.842723,2023-01-20 11:14:45.800000,520857078,472503800,2245,39.8031085,32.3786602,794.25,54.85,782.19,-0.21,-3.8,209.35
121069,2023-01-20 11:14:48.022359,2023-01-20 11:14:48.000000,523036730,472506000,2245,39.8029909,32.3785713,794.17,54.77,783.25,0.34,-4.85,210.18
121755,2023-01-20 11:14:50.142678,2023-01-20 11:14:50.000000,525157043,472508000,2245,39.8028727,32.3784859,794.07,54.67,783.79,1.25,-3.84,208.88
122454,2023-01-20 11:14:52.275102,2023-01-20 11:14:52.200000,527296880,472510200,2245,39.8027558,32.3783972,794,54.6,784.15,0.59,-2.52,210.85
123165,2023-01-20 11:14:54.423744,2023-01-20 11:14:54.400000,529457943,472512400,2245,39.802638,32.3783101,794.08,54.68,784.47,1.25,-3.62,211.58
123882,2023-01-20 11:14:56.582334,2023-01-20 11:14:56.400000,531616753,472514400,2245,39.802522,32.3782203,794.13,54.73,784.91,-1.1,-2.81,208.31
124620,2023-01-20 11:14:58.742366,2023-01-20 11:14:58.600000,533776758,472516600,2245,39.8024058,32.3781307,794.19,54.79,785.2,-1.08,-2.16,207.39
125338,2023-01-20 11:15:00.882309,2023-01-20 11:15:00.800000,535916697,472518800,2245,39.802288,32.3780435,794.19,54.79,785.57,-1.68,-2.63,207.71
126025,2023-01-20 11:15:03.003804,2023-01-20 11:15:03.000000,538057958,472521000,2245,39.8021705,32.3779554,794.13,54.73,785.26,-1.88,-2.88,207.9
126743,2023-01-20 11:15:05.162520,2023-01-20 11:15:05.000000,540216762,472523000,2245,39.8020535,32.3778674,794.11,54.71,784.86,-1.52,-3,208.92
127432,2023-01-20 11:15:07.302693,2023-01-20 11:15:07.200000,542357066,472525200,2245,39.8019368,32.3777794,794.12,54.72,785.02,-2.45,-2.72,208.47
128151,2023-01-20 11:15:09.482344,2023-01-20 11:15:09.400000,544536723,472527400,2245,39.8018188,32.3776913,794.16,54.76,785.3,-1.25,-2.73,208.16
128847,2023-01-20 11:15:11.638726,2023-01-20 11:15:11.600000,546696941,472529600,2245,39.8017015,32.3776034,794.16,54.76,785.64,-1.11,-3.28,209.8
129555,2023-01-20 11:15:13.762328,2023-01-20 11:15:13.600000,548836724,472531600,2245,39.8015841,32.3775156,794.11,54.71,785.99,-0.61,-3.08,209.17
130296,2023-01-20 11:15:15.902375,2023-01-20 11:15:15.800000,550976760,472533800,2245,39.8014668,32.3774284,794.11,54.71,786.52,-0.55,-2.98,210.28
131014,2023-01-20 11:15:18.062378,2023-01-20 11:15:18.000000,553136734,472536000,2245,39.8013501,32.3773393,794.07,54.67,786.23,-1.88,-2.4,209.73
131710,2023-01-20 11:15:20.222527,2023-01-20 11:15:20.200000,555296927,472538200,2245,39.8012324,32.3772513,794.17,54.77,786.56,-0.36,-2.91,212.51
132423,2023-01-20 11:15:22.382295,2023-01-20 11:15:22.200000,557476788,472540200,2245,39.8011153,32.3771618,794.37,54.97,787.19,-0.95,-1.37,210.92
133428,2023-01-20 11:15:25.422067,2023-01-20 11:15:25.400000,560516713,472543400,2245,39.8009976,32.3770753,794.17,54.77,787.4,-0.1,4.18,206.92
135579,2023-01-20 11:15:32.002363,2023-01-20 11:15:32.000000,567116731,472550000,2245,39.8009793,32.3769005,794.66,55.26,788.2,3.73,-9.48,304.22
136490,2023-01-20 11:15:34.842659,2023-01-20 11:15:34.800000,569957025,472552800,2245,39.8010512,32.3767521,794.64,55.24,786.76,4.39,7.37,303.06
138057,2023-01-20 11:15:39.669608,2023-01-20 11:15:39.600000,574784001,472557600,2245,39.8011434,32.3767736,794.3,54.9,785.62,-1.63,-7.13,28.24
139175,2023-01-20 11:15:42.902365,2023-01-20 11:15:42.800000,578036709,472560800,2245,39.8012585,32.3768653,794.66,55.26,784.68,-3.48,-19.07,30.96
139862,2023-01-20 11:15:45.002393,2023-01-20 11:15:45.000000,580136774,472563000,2245,39.8013776,32.3769502,794.4,55,783.42,-2.07,-13.02,28.62
140581,2023-01-20 11:15:47.182336,2023-01-20 11:15:47.000000,582316710,472565000,2245,39.8014945,32.3770377,794.33,54.93,783.17,-1.95,-15.82,28.69
141279,2023-01-20 11:15:49.362421,2023-01-20 11:15:49.200000,584496836,472567200,2245,39.8016108,32.3771265,794.28,54.88,782.59,-2.78,-16.3,30.6
141992,2023-01-20 11:15:51.462529,2023-01-20 11:15:51.400000,586616755,472569400,2245,39.8017281,32.3772143,794.32,54.92,782.31,-2.2,-13.67,30.03
142680,2023-01-20 11:15:53.603719,2023-01-20 11:15:53.600000,588758141,472571600,2245,39.8018446,32.3773025,794.27,54.87,781.68,-2.58,-13.54,29.2
143395,2023-01-20 11:15:55.762320,2023-01-20 11:15:55.600000,590916705,472573600,2245,39.8019625,32.3773898,794.28,54.88,781.46,-0.42,-12.38,31.08
144084,2023-01-20 11:15:57.922707,2023-01-20 11:15:57.800000,593077091,472575800,2245,39.8020796,32.3774783,794.25,54.85,781.13,-2.3,-11.31,29.84
144861,2023-01-20 11:16:00.122626,2023-01-20 11:16:00.000000,595296918,472578000,2245,39.8021954,32.3775701,794.27,54.87,780.83,-4,-15.23,29.16
145573,2023-01-20 11:16:02.302366,2023-01-20 11:16:02.200000,597476711,472580200,2245,39.8023141,32.3776566,794.53,55.13,780.63,-2.62,-15.56,30.88
146262,2023-01-20 11:16:04.402360,2023-01-20 11:16:04.400000,599576721,472582400,2245,39.802431,32.3777464,794.38,54.98,780.01,-4.6,-12.47,29.63
146953,2023-01-20 11:16:06.522418,2023-01-20 11:16:06.400000,601696842,472584400,2245,39.8025487,32.3778324,794.22,54.82,780.49,-1.96,-12.82,29.08
147665,2023-01-20 11:16:08.682214,2023-01-20 11:16:08.600000,603876699,472586600,2245,39.8026662,32.3779206,794.3,54.9,780.61,-2.3,-12.86,30.24
148385,2023-01-20 11:16:10.862421,2023-01-20 11:16:10.800000,606057009,472588800,2245,39.8027841,32.3780085,794.45,55.05,780.82,-2.19,-17.27,29.86
149105,2023-01-20 11:16:13.022084,2023-01-20 11:16:13.000000,608216709,472591000,2245,39.8029007,32.3780991,794.31,54.91,780.41,-4.39,-17.43,31.64
149789,2023-01-20 11:16:15.142064,2023-01-20 11:16:15.000000,610336719,472593000,2245,39.803019,32.378184,794.53,55.13,780.5,-0.89,-17.15,29.76
150527,2023-01-20 11:16:17.282075,2023-01-20 11:16:17.200000,612476691,472595200,2245,39.8031355,32.3782739,794.29,54.89,780.52,-4.17,-19.6,31.87
151246,2023-01-20 11:16:19.422498,2023-01-20 11:16:19.400000,614636755,472597400,2245,39.8032523,32.3783622,794.46,55.06,780.71,-3.71,-19.14,31.82
151934,2023-01-20 11:16:21.502310,2023-01-20 11:16:21.400000,616716708,472599400,2245,39.8033712,32.3784477,794.38,54.98,780.67,-1.63,-17.63,30.87
152624,2023-01-20 11:16:23.662259,2023-01-20 11:16:23.600000,618876687,472601600,2245,39.8034889,32.3785356,794.43,55.03,781.19,-0.65,-17.62,30.51
153340,2023-01-20 11:16:25.802435,2023-01-20 11:16:25.800000,621016778,472603800,2245,39.8036065,32.3786237,794.48,55.08,781.11,-1.64,-17.71,30.69
154029,2023-01-20 11:16:27.947770,2023-01-20 11:16:27.800000,623176714,472605800,2245,39.8037232,32.3787132,794.52,55.12,781.52,-2.48,-17.46,30.91
154746,2023-01-20 11:16:30.082352,2023-01-20 11:16:30.000000,625316726,472608000,2245,39.8038411,32.3787982,794.66,55.26,782.18,-0.04,-17.13,30.29
155485,2023-01-20 11:16:32.223476,2023-01-20 11:16:32.200000,627457850,472610200,2245,39.8039575,32.3788883,794.68,55.28,782.52,-1.61,-15.99,30.33
156202,2023-01-20 11:16:34.402409,2023-01-20 11:16:34.400000,629636783,472612400,2245,39.804074,32.3789773,794.72,55.32,782.3,-2.84,-16.87,30.41
156920,2023-01-20 11:16:36.582314,2023-01-20 11:16:36.400000,631816721,472614400,2245,39.8041913,32.3790647,794.71,55.31,782.18,-1.96,-17.77,31.45
157608,2023-01-20 11:16:38.691521,2023-01-20 11:16:38.600000,633936714,472616600,2245,39.8043086,32.3791511,794.59,55.19,782.36,-1.67,-15.77,30.3
158329,2023-01-20 11:16:40.882390,2023-01-20 11:16:40.800000,636136756,472618800,2245,39.8044258,32.37924,794.56,55.16,782.74,-1.69,-18.79,30.7
159025,2023-01-20 11:16:43.042556,2023-01-20 11:16:43.000000,638296933,472621000,2245,39.8045427,32.3793292,794.54,55.14,782.55,-3.69,-18.81,31.13
159731,2023-01-20 11:16:45.162371,2023-01-20 11:16:45.000000,640416724,472623000,2245,39.80466,32.3794156,794.6,55.2,783.16,-1.78,-18.98,30.56
160421,2023-01-20 11:16:47.282349,2023-01-20 11:16:47.200000,642536702,472625200,2245,39.8047772,32.3795032,794.41,55.01,782.78,-2.55,-17.54,30.6
161166,2023-01-20 11:16:49.422581,2023-01-20 11:16:49.400000,644696955,472627400,2245,39.8048937,32.3795928,794.3,54.9,782.2,-1.88,-18.3,30.42
161878,2023-01-20 11:16:51.562320,2023-01-20 11:16:51.400000,646836719,472629400,2245,39.8050118,32.3796791,794.33,54.93,781.69,-0.62,-17.91,29.35
162566,2023-01-20 11:16:53.662320,2023-01-20 11:16:53.600000,648936714,472631600,2245,39.8051295,32.3797664,794.33,54.93,780.95,-1.31,-15.14,29.02
163284,2023-01-20 11:16:55.842323,2023-01-20 11:16:55.800000,651116706,472633800,2245,39.8052457,32.3798566,794.22,54.82,780.95,-2.27,-16.39,30.48
164005,2023-01-20 11:16:58.042163,2023-01-20 11:16:58.000000,653336717,472636000,2245,39.8053628,32.3799448,794.36,54.96,781.33,-1.27,-18.88,29.99
164690,2023-01-20 11:17:00.182109,2023-01-20 11:17:00.000000,655476694,472638000,2245,39.8054806,32.3800331,794.33,54.93,781.25,-0.21,-17.89,29.36
165385,2023-01-20 11:17:02.302235,2023-01-20 11:17:02.200000,657596836,472640200,2245,39.8055984,32.3801212,794.32,54.92,781.39,-0.68,-16.76,29.95
166099,2023-01-20 11:17:04.442104,2023-01-20 11:17:04.400000,659736727,472642400,2245,39.8057153,32.380209,794.24,54.84,782.65,-0.12,-16.62,29.02
166843,2023-01-20 11:17:06.602079,2023-01-20 11:17:06.600000,661896946,472644600,2245,39.8058322,32.3802985,794.27,54.87,783.64,-2.74,-15.04,30.54
167561,2023-01-20 11:17:08.782700,2023-01-20 11:17:08.600000,664097030,472646600,2245,39.8059492,32.3803881,794.38,54.98,784.32,-4.25,-16.29,30.81
168275,2023-01-20 11:17:10.942719,2023-01-20 11:17:10.800000,666257093,472648800,2245,39.8060671,32.380475,794.43,55.03,784.01,-1.82,-14.99,30.69
168991,2023-01-20 11:17:13.102338,2023-01-20 11:17:13.000000,668416732,472651000,2245,39.8061846,32.3805638,794.35,54.95,784.26,-3.12,-6.9,29.07
170239,2023-01-20 11:17:16.962777,2023-01-20 11:17:16.800000,672296917,472654800,2245,39.8063005,32.3806538,794.27,54.87,783.96,-3.4,-11.11,30.37
172086,2023-01-20 11:17:22.582294,2023-01-20 11:17:22.400000,677916720,472660400,2245,39.8064068,32.3805451,794.21,54.81,783.86,3.6,-11.05,296.94
173032,2023-01-20 11:17:25.482345,2023-01-20 11:17:25.400000,680816725,472663400,2245,39.8064719,32.3803909,794.3,54.9,783.98,-8.88,8.44,287.89
174403,2023-01-20 11:17:29.719576,2023-01-20 11:17:29.600000,685073991,472667600,2245,39.8063978,32.3803123,794.27,54.87,783.93,0.19,1.97,207.08
175500,2023-01-20 11:17:32.942447,2023-01-20 11:17:32.800000,688296852,472670800,2245,39.8062784,32.3802283,794.24,54.84,783.5,0.94,-7.19,211.81
176210,2023-01-20 11:17:35.102704,2023-01-20 11:17:35.000000,690457088,472673000,2245,39.8061606,32.3801402,794.12,54.72,783.07,1.2,-2.81,209.87
176928,2023-01-20 11:17:37.262385,2023-01-20 11:17:37.200000,692636731,472675200,2245,39.8060437,32.3800505,794.02,54.62,782.76,0.72,-3.08,211.12
177650,2023-01-20 11:17:39.442350,2023-01-20 11:17:39.400000,694816736,472677400,2245,39.8059255,32.3799636,793.76,54.36,781.76,3.22,-2.75,211.43
178345,2023-01-20 11:17:41.622447,2023-01-20 11:17:41.600000,696996905,472679600,2245,39.8058093,32.3798731,793.84,54.44,781.52,1.16,-3.86,208.2
179056,2023-01-20 11:17:43.782661,2023-01-20 11:17:43.600000,699157031,472681600,2245,39.8056921,32.3797837,793.95,54.55,782.24,1.79,-4.37,212.71
179776,2023-01-20 11:17:45.942174,2023-01-20 11:17:45.800000,701336719,472683800,2245,39.8055745,32.3796957,794.02,54.62,782.54,2.5,-4.51,211.79
180462,2023-01-20 11:17:48.082094,2023-01-20 11:17:48.000000,703476725,472686000,2245,39.8054566,32.3796076,794.02,54.62,781.61,1.84,-4,212.15
181229,2023-01-20 11:17:50.242079,2023-01-20 11:17:50.200000,705636727,472688200,2245,39.8053391,32.3795188,794.02,54.62,781.43,2.22,-4.33,211.95
181917,2023-01-20 11:17:52.362406,2023-01-20 11:17:52.200000,707757042,472690200,2245,39.8052224,32.3794309,794.02,54.62,781.97,1.57,-3.06,211.75
182637,2023-01-20 11:17:54.522067,2023-01-20 11:17:54.400000,709916719,472692400,2245,39.8051052,32.3793436,793.97,54.57,782.4,1.66,-3.61,210.62
183326,2023-01-20 11:17:56.662420,2023-01-20 11:17:56.600000,712076760,472694600,2245,39.8049882,32.3792536,793.98,54.58,782.72,-0.19,-2.3,208.84
184048,2023-01-20 11:17:58.802324,2023-01-20 11:17:58.800000,714216723,472696800,2245,39.8048706,32.3791673,794.12,54.72,783.2,0.12,-2.78,209.87
184734,2023-01-20 11:18:00.942717,2023-01-20 11:18:00.800000,716357071,472698800,2245,39.804754,32.3790791,794.08,54.68,782.84,-0.75,-2.75,210.06
185449,2023-01-20 11:18:03.102386,2023-01-20 11:18:03.000000,718516728,472701000,2245,39.8046364,32.3789906,794.1,54.7,782.25,0.07,-1.9,210.31
186138,2023-01-20 11:18:05.242572,2023-01-20 11:18:05.200000,720676753,472703200,2245,39.8045197,32.3789025,794.13,54.73,782.74,0.04,-3.32,209.81
186904,2023-01-20 11:18:07.382431,2023-01-20 11:18:07.200000,722816836,472705200,2245,39.804402,32.3788162,794.11,54.71,782.55,-0.14,-2.6,210.04
187594,2023-01-20 11:18:09.522640,2023-01-20 11:18:09.400000,724957063,472707400,2245,39.8042857,32.378727,794.03,54.63,783.26,-0.45,-0.25,209.06
188315,2023-01-20 11:18:11.722642,2023-01-20 11:18:11.600000,727157025,472709600,2245,39.8041686,32.3786382,794.23,54.83,784.26,-0.98,-3.45,209.36
189004,2023-01-20 11:18:13.842655,2023-01-20 11:18:13.800000,729277028,472711800,2245,39.8040505,32.3785525,794.17,54.77,784.49,0.29,-1,211.52
189722,2023-01-20 11:18:16.003718,2023-01-20 11:18:16.000000,731457963,472714000,2245,39.8039339,32.3784618,794.22,54.82,785.08,-2.24,-1.84,208.61
190435,2023-01-20 11:18:18.162401,2023-01-20 11:18:18.000000,733616770,472716000,2245,39.8038161,32.3783751,794.27,54.87,785.2,-0.34,-1.23,210.3
191125,2023-01-20 11:18:20.302681,2023-01-20 11:18:20.200000,735757052,472718200,2245,39.803698,32.3782889,794.21,54.81,784.8,0.66,0.3,210.2
191895,2023-01-20 11:18:22.502667,2023-01-20 11:18:22.400000,737957055,472720400,2245,39.8035826,32.3781974,794.27,54.87,785.37,-0.87,-3.42,210.28
192615,2023-01-20 11:18:24.642482,2023-01-20 11:18:24.600000,740116720,472722600,2245,39.8034649,32.3781098,794.39,54.99,785.35,-0.62,-3.2,210.53
193304,2023-01-20 11:18:26.762337,2023-01-20 11:18:26.600000,742236722,472724600,2245,39.8033466,32.3780233,794.33,54.93,784.77,1.05,-2.07,209.3
194020,2023-01-20 11:18:28.942348,2023-01-20 11:18:28.800000,744416714,472726800,2245,39.8032299,32.3779342,794.33,54.93,784.95,-0.42,-2.83,210.45
194711,2023-01-20 11:18:31.082682,2023-01-20 11:18:31.000000,746557048,472729000,2245,39.8031125,32.3778462,794.39,54.99,785.09,1.2,-2.03,212.68
195403,2023-01-20 11:18:33.220528,2023-01-20 11:18:33.200000,748696961,472731200,2245,39.8029944,32.3777587,794.35,54.95,785.29,1.14,-1.67,212.06
196113,2023-01-20 11:18:35.342175,2023-01-20 11:18:35.200000,750836737,472733200,2245,39.8028775,32.3776702,794.19,54.79,785.36,-0.46,-1.09,208.11
196833,2023-01-20 11:18:37.522070,2023-01-20 11:18:37.400000,753016717,472735400,2245,39.80276,32.3775827,794.51,55.11,785.74,1.4,-3.89,208.96
197572,2023-01-20 11:18:39.642059,2023-01-20 11:18:39.600000,755136724,472737600,2245,39.8026432,32.3774945,794.26,54.86,785.76,0.31,-2.59,211.04
198261,2023-01-20 11:18:41.782079,2023-01-20 11:18:41.600000,757276718,472739600,2245,39.8025259,32.3774058,794.22,54.82,785.42,-0.25,-2.66,209.35
198975,2023-01-20 11:18:43.902531,2023-01-20 11:18:43.800000,759416718,472741800,2245,39.8024088,32.3773182,794.22,54.82,785.39,0.5,-0.88,209
199671,2023-01-20 11:18:46.082601,2023-01-20 11:18:46.000000,761596941,472744000,2245,39.8022922,32.3772286,794.34,54.94,785.74,-1.74,-2.21,208.52
200355,2023-01-20 11:18:48.182592,2023-01-20 11:18:48.000000,763696952,472746000,2245,39.8021738,32.3771441,794.31,54.91,785.5,2.08,0.09,210.33
201070,2023-01-20 11:18:50.362334,2023-01-20 11:18:50.200000,765876711,472748200,2245,39.8020577,32.3770532,794.34,54.94,786.1,-1.35,-0.21,209.75
201789,2023-01-20 11:18:52.542662,2023-01-20 11:18:52.400000,768057061,472750400,2245,39.8019408,32.3769639,794.48,55.08,786.81,-2.07,-2.08,210.79
202512,2023-01-20 11:18:54.682351,2023-01-20 11:18:54.600000,770216720,472752600,2245,39.8018228,32.3768781,794.55,55.15,787.3,-0.28,-1.71,208.35
203249,2023-01-20 11:18:56.823555,2023-01-20 11:18:56.800000,772357970,472754800,2245,39.801706,32.3767903,794.57,55.17,787.32,-1.29,-0.95,209.74
203964,2023-01-20 11:18:58.982336,2023-01-20 11:18:58.800000,774516713,472756800,2245,39.801589,32.376701,794.62,55.22,787.87,-1.39,-1.71,210.31
204660,2023-01-20 11:19:01.162540,2023-01-20 11:19:01.000000,776696916,472759000,2245,39.8014715,32.3766119,794.72,55.32,788.17,-1.51,-2.02,210.61
205402,2023-01-20 11:19:03.382533,2023-01-20 11:19:03.200000,778936850,472761200,2245,39.8013541,32.3765251,794.82,55.42,788.24,-0.13,6.83,212.49
206870,2023-01-20 11:19:07.862341,2023-01-20 11:19:07.800000,783416740,472765800,2245,39.8012375,32.3764363,794.88,55.48,788.94,1.54,7.45,210.63
208401,2023-01-20 11:19:12.562409,2023-01-20 11:19:12.400000,788136796,472770400,2245,39.8012816,32.37627,794.94,55.54,788.32,6.55,-8.15,305
209507,2023-01-20 11:19:15.962320,2023-01-20 11:19:15.800000,791536734,472773800,2245,39.8013567,32.3761241,794.72,55.32,788.08,17.35,-0.7,330.78
210779,2023-01-20 11:19:19.847125,2023-01-20 11:19:19.800000,795421494,472777800,2245,39.8014327,32.3761739,794.34,54.94,786.05,-0.92,-8.08,29.07
211823,2023-01-20 11:19:23.082081,2023-01-20 11:19:23.000000,798676697,472781000,2245,39.8015499,32.3762636,794.66,55.26,784.67,-2.66,-20.68,31.42
212555,2023-01-20 11:19:25.182240,2023-01-20 11:19:25.000000,800776905,472783000,2245,39.8016673,32.3763502,794.38,54.98,782.96,-1.74,-14.98,28.8
213275,2023-01-20 11:19:27.362414,2023-01-20 11:19:27.200000,802957003,472785200,2245,39.8017838,32.3764395,794.2,54.8,781.43,-1.14,-16.89,29.87
213994,2023-01-20 11:19:29.522092,2023-01-20 11:19:29.400000,805116709,472787400,2245,39.8019006,32.3765278,794.32,54.92,780.23,-2.34,-16.79,32.12
214659,2023-01-20 11:19:31.582901,2023-01-20 11:19:31.400000,807197210,472789400,2245,39.8020189,32.3766143,794.4,55,780.19,-1.78,-13.26,30.6
215370,2023-01-20 11:19:33.722311,2023-01-20 11:19:33.600000,809336727,472791600,2245,39.8021366,32.376702,794.42,55.02,780.33,-2.21,-15.18,28.47
216089,2023-01-20 11:19:35.902359,2023-01-20 11:19:35.800000,811516724,472793800,2245,39.802253,32.3767912,794.36,54.96,780.25,-3.58,-15.86,30.14
216776,2023-01-20 11:19:38.062378,2023-01-20 11:19:38.000000,813676736,472796000,2245,39.8023699,32.376879,794.43,55.03,780.08,-3.56,-15.51,30.97
217469,2023-01-20 11:19:40.162655,2023-01-20 11:19:40.000000,815796852,472798000,2245,39.8024872,32.3769663,794.33,54.93,780.31,-2.82,-13.5,29.77
218232,2023-01-20 11:19:42.342311,2023-01-20 11:19:42.200000,817976720,472800200,2245,39.8026046,32.377055,794.44,55.04,781.3,-3.17,-15.24,31.27
218926,2023-01-20 11:19:44.462440,2023-01-20 11:19:44.400000,820096825,472802400,2245,39.8027228,32.3771406,794.45,55.05,781.12,-1.66,-14.1,30.35
219641,2023-01-20 11:19:46.602309,2023-01-20 11:19:46.600000,822236734,472804600,2245,39.8028389,32.3772311,794.32,54.92,780.96,-3.82,-12.37,29.03
220355,2023-01-20 11:19:48.782346,2023-01-20 11:19:48.600000,824416709,472806600,2245,39.8029556,32.3773206,794.44,55.04,781.27,-3.23,-14.75,30.45
221046,2023-01-20 11:19:50.902768,2023-01-20 11:19:50.800000,826557018,472808800,2245,39.8030737,32.3774063,794.24,54.84,781.91,-2.88,-12.02,29.01
221764,2023-01-20 11:19:53.102651,2023-01-20 11:19:53.000000,828757020,472811000,2245,39.8031906,32.3774941,794.4,55,782.44,-2.29,-15.12,31.43
222450,2023-01-20 11:19:55.203573,2023-01-20 11:19:55.200000,830857959,472813200,2245,39.8033084,32.3775812,794.27,54.87,782.97,-1.02,-10.67,30.79
223217,2023-01-20 11:19:57.382364,2023-01-20 11:19:57.200000,833036730,472815200,2245,39.8034233,32.3776735,794.07,54.67,783.63,-4.66,-10.15,28.59
223950,2023-01-20 11:19:59.622563,2023-01-20 11:19:59.600000,835296876,472817600,2245,39.8035413,32.3777592,794.43,55.03,784.47,0.53,-19.2,30.28
224662,2023-01-20 11:20:01.782734,2023-01-20 11:20:01.600000,837457086,472819600,2245,39.8036575,32.3778484,794.46,55.06,784.12,-3.09,-17.46,30.43
225348,2023-01-20 11:20:03.902365,2023-01-20 11:20:03.800000,839576710,472821800,2245,39.8037745,32.3779356,794.4,55,783.35,-1.3,-16.94,30.12
226067,2023-01-20 11:20:06.062338,2023-01-20 11:20:06.000000,841736693,472824000,2245,39.8038925,32.3780228,794.34,54.94,782.64,-0.7,-17.45,30.26
226752,2023-01-20 11:20:08.182245,2023-01-20 11:20:08.000000,843876731,472826000,2245,39.804009,32.3781113,794.38,54.98,782.22,0,-16.72,30.55
227438,2023-01-20 11:20:10.242101,2023-01-20 11:20:10.200000,845936723,472828200,2245,39.8041264,32.3781981,794.34,54.94,782.25,-0.49,-12.76,30.58
228136,2023-01-20 11:20:12.402249,2023-01-20 11:20:12.400000,848096851,472830400,2245,39.8042436,32.3782862,794.39,54.99,782.63,-1.5,-15.56,30.97
228897,2023-01-20 11:20:14.562351,2023-01-20 11:20:14.400000,850257038,472832400,2245,39.8043607,32.3783739,794.45,55.05,782.68,-2.18,-15.9,31.28
229586,2023-01-20 11:20:16.682047,2023-01-20 11:20:16.600000,852376714,472834600,2245,39.8044787,32.378462,794.39,54.99,782.67,-0.62,-13.06,28.7
230302,2023-01-20 11:20:18.822398,2023-01-20 11:20:18.800000,854536733,472836800,2245,39.8045961,32.37855,794.11,54.71,782.55,-0.6,-14.22,30
231025,2023-01-20 11:20:21.062351,2023-01-20 11:20:21.000000,856776711,472839000,2245,39.8047112,32.3786422,794.28,54.88,782.26,-3.62,-15.92,30.55
231708,2023-01-20 11:20:23.162339,2023-01-20 11:20:23.000000,858876730,472841000,2245,39.8048303,32.3787274,794.3,54.9,782.03,-0.59,-12.85,29.35
232422,2023-01-20 11:20:25.322352,2023-01-20 11:20:25.200000,861036725,472843200,2245,39.8049468,32.3788161,794.34,54.94,782.18,-3.32,-14.42,29.05
233123,2023-01-20 11:20:27.469469,2023-01-20 11:20:27.400000,863196847,472845400,2245,39.8050646,32.3789038,794.25,54.85,782.08,-2.26,-14.12,29.79
233837,2023-01-20 11:20:29.623431,2023-01-20 11:20:29.600000,865357853,472847600,2245,39.8051814,32.3789925,794.4,55,781.7,-2.99,-14.92,30.47
234580,2023-01-20 11:20:31.762460,2023-01-20 11:20:31.600000,867496884,472849600,2245,39.8052983,32.37908,794.38,54.98,780.76,-1.89,-15.57,30.95
235290,2023-01-20 11:20:33.922633,2023-01-20 11:20:33.800000,869657023,472851800,2245,39.8054158,32.3791684,794.42,55.02,780.55,-1.29,-16.04,30.84
235980,2023-01-20 11:20:36.023587,2023-01-20 11:20:36.000000,871757966,472854000,2245,39.8055332,32.3792552,794.28,54.88,780.44,-1.77,-13.69,29.01
236694,2023-01-20 11:20:38.184119,2023-01-20 11:20:38.000000,873936794,472856000,2245,39.8056496,32.3793449,794.32,54.92,780.63,-3.91,-16.16,30.88
237382,2023-01-20 11:20:40.322315,2023-01-20 11:20:40.200000,876076710,472858200,2245,39.8057673,32.3794311,794.43,55.03,781.01,-1.13,-13.46,29.39
238104,2023-01-20 11:20:42.482313,2023-01-20 11:20:42.400000,878236725,472860400,2245,39.8058844,32.3795212,794.32,54.92,781.15,-4.23,-15.36,28.64
238823,2023-01-20 11:20:44.682345,2023-01-20 11:20:44.600000,880436730,472862600,2245,39.8060018,32.3796095,794.41,55.01,780.87,-2.52,-16.73,30.58
239510,2023-01-20 11:20:46.784427,2023-01-20 11:20:46.600000,882557011,472864600,2245,39.8061196,32.3796972,794.34,54.94,780.99,-2.39,-14.49,29.75
240276,2023-01-20 11:20:48.942318,2023-01-20 11:20:48.800000,884716716,472866800,2245,39.8062368,32.379785,794.32,54.92,781.08,-1.9,-15.18,30.31
240965,2023-01-20 11:20:51.062319,2023-01-20 11:20:51.000000,886836735,472869000,2245,39.8063543,32.3798725,794.3,54.9,781.21,-1.55,-12.89,30.32
241719,2023-01-20 11:20:53.402365,2023-01-20 11:20:53.400000,889176759,472871400,2245,39.8064716,32.3799612,794.21,54.81,781.13,-1.14,0,30.12
243455,2023-01-20 11:20:58.702802,2023-01-20 11:20:58.600000,894497414,472876600,2245,39.8065911,32.3800431,794.1,54.7,781.69,-11.31,-3.46,353.36
244616,2023-01-20 11:21:02.242070,2023-01-20 11:21:02.200000,898036727,472880200,2245,39.8066585,32.3798899,794.22,54.82,782.74,4.01,-9.54,298.65
245931,2023-01-20 11:21:06.282703,2023-01-20 11:21:06.200000,902096929,472884200,2245,39.8066998,32.3797227,794.26,54.86,783.35,-3.67,-1.1,212.39
246836,2023-01-20 11:21:09.054962,2023-01-20 11:21:09.000000,904869339,472887000,2245,39.8066412,32.3796778,794.17,54.77,784.06,-0.45,1.3,208.93
247880,2023-01-20 11:21:12.242695,2023-01-20 11:21:12.200000,908057063,472890200,2245,39.8065226,32.3795943,794.46,55.06,785.04,0.47,-5.1,210.61
248642,2023-01-20 11:21:14.402377,2023-01-20 11:21:14.400000,910216739,472892400,2245,39.8064062,32.3795058,794.58,55.18,784.38,-0.27,-1.78,211.71
249330,2023-01-20 11:21:16.522687,2023-01-20 11:21:16.400000,912357025,472894400,2245,39.80629,32.3794166,794.5,55.1,783.74,-2.14,-1.05,209.65
250048,2023-01-20 11:21:18.682353,2023-01-20 11:21:18.600000,914516762,472896600,2245,39.8061728,32.3793275,794.43,55.03,783.09,-1.41,-1.08,210.25
250737,2023-01-20 11:21:20.842341,2023-01-20 11:21:20.800000,916676715,472898800,2245,39.8060553,32.3792405,794.31,54.91,781.86,-0.94,-1.48,210.91
251453,2023-01-20 11:21:22.982329,2023-01-20 11:21:22.800000,918816725,472900800,2245,39.8059383,32.3791531,794.23,54.83,781.21,-0.55,-1.17,210.5
252141,2023-01-20 11:21:25.142331,2023-01-20 11:21:25.000000,920976739,472903000,2245,39.8058221,32.3790637,794.21,54.81,780.87,-0.5,-1.83,210.74
252861,2023-01-20 11:21:27.291601,2023-01-20 11:21:27.200000,923136735,472905200,2245,39.8057052,32.3789759,794.2,54.8,781.32,0.57,2.58,210.37
253911,2023-01-20 11:21:30.522308,2023-01-20 11:21:30.400000,926376722,472908400,2245,39.8055883,32.3788885,794.23,54.83,780.5,-0.38,4.38,206.61
255567,2023-01-20 11:21:35.582509,2023-01-20 11:21:35.400000,931457534,472913400,2245,39.8055196,32.3788362,794.96,55.56,782.4,-0.26,8.47,209.12
