LineNo,UTC_Approx,TimeUS,RMSRollP,RMSRollD,RMSPitchP,RMSPitchD,RMSYaw
698,2023-01-20 11:08:47.422232,161676988,0.02193751,0.0002046148,0.005241254,0.0003607069,0.0116721
1047,2023-01-20 11:08:47.517218,161776974,0.02173237,0.0002165782,0.006384834,0.0004634197,0.05495618
1163,2023-01-20 11:08:47.631830,161894308,0.02142403,0.0002197241,0.007982473,0.0005283122,0.132161
1426,2023-01-20 11:08:47.739746,161996682,0.02107062,0.0002120089,0.009842942,0.0005564934,0.2333025
1845,2023-01-20 11:08:47.843263,162097209,0.02071766,0.0001992845,0.01183549,0.0006010996,0.3467717
1892,2023-01-20 11:08:47.943052,162197240,0.02035005,0.0002235112,0.01391972,0.0006108821,0.4562223
1937,2023-01-20 11:08:48.042879,162297203,0.01993392,0.0002216146,0.0160708,0.0006091153,0.5558124
1983,2023-01-20 11:08:48.142870,162397190,0.01955151,0.0002123404,0.01815706,0.0005723755,0.6475853
2036,2023-01-20 11:08:48.242888,162497191,0.01928423,0.000210942,0.01948467,0.0004781149,0.7213578
2077,2023-01-20 11:08:48.342951,162597221,0.019133,0.0002069644,0.02029128,0.0004005391,0.7723951
2135,2023-01-20 11:08:48.439094,162697231,0.01906875,0.0002213167,0.02078152,0.0003411649,0.8063275
2194,2023-01-20 11:08:48.530029,162797205,0.01904459,0.0002243352,0.02108361,0.0002883196,0.828706
2254,2023-01-20 11:08:48.623106,162897233,0.01899947,0.0002112677,0.02131559,0.0002513546,0.8434605
2308,2023-01-20 11:08:48.723066,162997173,0.01894694,0.000211918,0.02145006,0.0002270264,0.8532267
2364,2023-01-20 11:08:48.823107,163097199,0.01895928,0.0002121547,0.0215201,0.0002135692,0.8597036
2419,2023-01-20 11:08:48.923149,163197240,0.0189452,0.0001960017,0.0215399,0.0002044636,0.863994
2459,2023-01-20 11:08:49.023091,163297185,0.01902624,0.000209636,0.0210773,0.0003928785,0.8604154
2503,2023-01-20 11:08:49.123088,163397198,0.0192196,0.0002302872,0.02004463,0.0004959996,0.8383194
2545,2023-01-20 11:08:49.225627,163497203,0.0194977,0.0002187515,0.01863818,0.0005432746,0.7992635
2585,2023-01-20 11:08:49.336664,163597204,0.01994169,0.0004505776,0.01677709,0.002228026,0.7455738
2628,2023-01-20 11:08:49.442964,163697237,0.02072021,0.000402995,0.01391989,0.001994085,0.6338607
2666,2023-01-20 11:08:49.542909,163797247,0.02117418,0.0005496382,0.01161765,0.00169114,0.52087
2706,2023-01-20 11:08:49.638978,163897195,0.02150332,0.0005666843,0.009781168,0.001520153,0.4262725
2744,2023-01-20 11:08:49.730028,163997221,0.02171895,0.0006165798,0.008331748,0.001348267,0.3486762
2787,2023-01-20 11:08:49.823095,164097191,0.02185215,0.0006043114,0.00719972,0.00120864,0.2851873
2827,2023-01-20 11:08:49.923118,164197238,0.02194692,0.0006551667,0.006314232,0.00116178,0.2332569
2867,2023-01-20 11:08:50.023062,164297191,0.02201764,0.0006792345,0.005645272,0.001105359,0.1907827
2906,2023-01-20 11:08:50.123102,164397194,0.02205783,0.0007410404,0.005140989,0.001094311,0.1560427
2949,2023-01-20 11:08:50.223156,164497228,0.02206767,0.0007005996,0.004777591,0.001003723,0.1276287
2987,2023-01-20 11:08:50.323079,164597192,0.02207918,0.00068744,0.004520774,0.0008628774,0.1043887
3029,2023-01-20 11:08:50.423074,164697229,0.02209261,0.0007337395,0.004336274,0.0008026163,0.08538062
3069,2023-01-20 11:08:50.522985,164797187,0.02209817,0.0007643932,0.00419563,0.0008639611,0.06983387
3109,2023-01-20 11:08:50.622956,164897182,0.02211505,0.0008243151,0.004105689,0.00108771,0.05711915
3147,2023-01-20 11:08:50.723020,164997188,0.02197787,0.002074157,0.004377635,0.004004798,0.04672588
3188,2023-01-20 11:08:50.823042,165097180,0.02194379,0.003327221,0.004302884,0.003897466,0.03821957
3228,2023-01-20 11:08:50.923134,165197336,0.0219288,0.003770201,0.004326833,0.004110123,0.0312626
3268,2023-01-20 11:08:51.022945,165297194,0.02194988,0.003398846,0.004297713,0.004043795,0.02557419
3306,2023-01-20 11:08:51.122954,165397188,0.02199205,0.003556123,0.004236425,0.00376915,0.02092252
3349,2023-01-20 11:08:51.222993,165497226,0.02198103,0.003584318,0.004254927,0.003726248,0.01712062
3387,2023-01-20 11:08:51.322916,165597193,0.02197672,0.003687999,0.004211877,0.00387424,0.01401199
3429,2023-01-20 11:08:51.422923,165697238,0.02195225,0.003442433,0.004232574,0.004371043,0.01147138
3467,2023-01-20 11:08:51.522855,165797186,0.0219523,0.003257029,0.004318479,0.004708679,0.00940012
3508,2023-01-20 11:08:51.622853,165897195,0.02196837,0.003679388,0.004237333,0.004365024,0.007711508
3545,2023-01-20 11:08:51.722847,165997183,0.02193187,0.004121487,0.004228454,0.004364891,0.006339111
3588,2023-01-20 11:08:51.822860,166097191,0.02189017,0.003932954,0.004189377,0.004505861,0.005218961
3628,2023-01-20 11:08:51.922981,166197315,0.02195875,0.003931728,0.004199438,0.004885586,0.004315702
3668,2023-01-20 11:08:52.022873,166297207,0.02188899,0.003911253,0.004237115,0.004840203,0.003590948
3704,2023-01-20 11:08:52.122875,166397202,0.02196104,0.003618603,0.004121235,0.004361248,0.003016408
3739,2023-01-20 11:08:52.222930,166497253,0.02189971,0.00377808,0.004129467,0.004185097,0.0025585
3769,2023-01-20 11:08:52.322877,166597202,0.02187307,0.00446165,0.00411607,0.004355957,0.002201529
3804,2023-01-20 11:08:52.422982,166697315,0.02191475,0.004290007,0.004126539,0.004681495,0.001941827
3834,2023-01-20 11:08:52.522897,166797255,0.0218784,0.004296919,0.004168252,0.004628524,0.001745959
3867,2023-01-20 11:08:52.622818,166897189,0.02192704,0.004167974,0.004110085,0.004684033,0.001626018
3897,2023-01-20 11:08:52.722844,166997182,0.02186413,0.003939419,0.004005269,0.004098891,0.001528616
3932,2023-01-20 11:08:52.822876,167097188,0.02180088,0.003968288,0.003988313,0.003872036,0.001477289
3964,2023-01-20 11:08:52.922929,167197239,0.02186791,0.003857944,0.003911027,0.003682232,0.001460087
3997,2023-01-20 11:08:53.022892,167297208,0.02185242,0.003676821,0.003958609,0.003693536,0.0014779
4027,2023-01-20 11:08:53.122849,167397196,0.0218579,0.003482029,0.003929525,0.004080781,0.001500987
4062,2023-01-20 11:08:53.222874,167497243,0.02189086,0.003261963,0.003833873,0.004670477,0.001511306
4092,2023-01-20 11:08:53.322881,167597240,0.0216476,0.003129407,0.003423696,0.005072217,0.001528426
4127,2023-01-20 11:08:53.422956,167697316,0.02172867,0.002944304,0.003350627,0.00616887,0.001521942
4157,2023-01-20 11:08:53.522848,167797249,0.02147361,0.005304134,0.003689411,0.007320035,0.001537037
4190,2023-01-20 11:08:53.622829,167897254,0.0208588,0.007527092,0.005868432,0.01331027,0.001652441
4220,2023-01-20 11:08:53.722844,167997237,0.02056373,0.007669285,0.005952904,0.01420237,0.001840379
4255,2023-01-20 11:08:53.822873,168097245,0.01852606,0.009353916,0.006084914,0.0134838,0.007537795
4288,2023-01-20 11:08:53.922991,168197379,0.01593673,0.01261447,0.007301872,0.01605093,0.009068528
4321,2023-01-20 11:08:54.022960,168297364,0.02517864,0.01756356,0.009248146,0.02381137,0.007670707
4352,2023-01-20 11:08:54.122835,168397252,0.02094132,0.01625252,0.01583541,0.03344004,0.007065441
4387,2023-01-20 11:08:54.222816,168497237,0.0184467,0.01898866,0.01742955,0.03414201,0.009603785
4417,2023-01-20 11:08:54.322943,168597340,0.01982318,0.02326886,0.0176619,0.03132548,0.009846913
4452,2023-01-20 11:08:54.422935,168697322,0.03056748,0.02500913,0.01565412,0.0271013,0.009597679
4482,2023-01-20 11:08:54.522891,168797315,0.03240045,0.02723925,0.01449995,0.02771334,0.0181484
4515,2023-01-20 11:08:54.622890,168897339,0.03518277,0.02534477,0.01637176,0.03172624,0.02285649
4545,2023-01-20 11:08:54.722808,168997241,0.03183769,0.02820141,0.01582594,0.03069056,0.02052863
4580,2023-01-20 11:08:54.822830,169097248,0.02726603,0.02972321,0.01580163,0.02817357,0.01696153
4612,2023-01-20 11:08:54.922982,169197388,0.02327145,0.02965225,0.0190138,0.02395025,0.01872635
4645,2023-01-20 11:08:55.022859,169297255,0.02009124,0.02784668,0.01856159,0.02712072,0.02643192
4675,2023-01-20 11:08:55.122869,169397255,0.01755902,0.02796545,0.01654857,0.02728183,0.0358807
4710,2023-01-20 11:08:55.222865,169497244,0.01523009,0.02605563,0.0149343,0.02810785,0.04433177
4740,2023-01-20 11:08:55.322855,169597240,0.018801,0.02400608,0.01773353,0.03280284,0.05002135
4775,2023-01-20 11:08:55.422936,169697331,0.03095563,0.03001254,0.01853436,0.03052289,0.05187395
4807,2023-01-20 11:08:55.522885,169797308,0.03028252,0.02764084,0.02193273,0.0260378,0.04602983
4840,2023-01-20 11:08:55.622817,169897254,0.02678999,0.0258204,0.01899914,0.02343697,0.03836934
4870,2023-01-20 11:08:55.722951,169997359,0.02255396,0.02439197,0.01802442,0.02105396,0.03689439
4905,2023-01-20 11:08:55.822853,170097240,0.01989187,0.02272,0.01908198,0.027521,0.03932379
4937,2023-01-20 11:08:55.922971,170197361,0.0177189,0.02343294,0.01646907,0.02525369,0.04499735
4970,2023-01-20 11:08:56.022929,170297320,0.01606566,0.02248676,0.01412569,0.02308325,0.05329783
5000,2023-01-20 11:08:56.122856,170397240,0.01389857,0.02008476,0.01440157,0.0240851,0.06399097
5035,2023-01-20 11:08:56.222867,170497246,0.01682427,0.02182524,0.01412953,0.02938584,0.06996939
5065,2023-01-20 11:08:56.322948,170597329,0.01450237,0.02023025,0.01406391,0.03159214,0.06539562
5100,2023-01-20 11:08:56.422955,170697345,0.0167207,0.0214796,0.0146139,0.03023143,0.05516813
5130,2023-01-20 11:08:56.522954,170797376,0.0223297,0.02521199,0.01961045,0.02763534,0.04536635
5163,2023-01-20 11:08:56.622878,170897317,0.0289374,0.02587749,0.01683303,0.02457644,0.03914343
5193,2023-01-20 11:08:56.722907,170997312,0.02881601,0.02424155,0.01565189,0.0277344,0.03446154
5228,2023-01-20 11:08:56.822945,171097326,0.02898649,0.0215669,0.01817621,0.02556739,0.02924899
5260,2023-01-20 11:08:56.922976,171197365,0.02978187,0.02268664,0.01588881,0.02305841,0.02401221
5293,2023-01-20 11:08:57.022859,171297252,0.03335526,0.02430575,0.01446585,0.02345196,0.02028545
5324,2023-01-20 11:08:57.122859,171397244,0.03196587,0.02337956,0.01337173,0.02262901,0.01772724
5359,2023-01-20 11:08:57.222862,171497241,0.03087427,0.02363897,0.01461798,0.02138166,0.01496906
5389,2023-01-20 11:08:57.322959,171597336,0.02794964,0.02101092,0.01550537,0.02020127,0.01234673
5424,2023-01-20 11:08:57.422938,171697321,0.02397856,0.02012554,0.01869898,0.02836702,0.01020302
5454,2023-01-20 11:08:57.522823,171797242,0.02066764,0.02277732,0.01938834,0.02784996,0.008393039
5487,2023-01-20 11:08:57.622813,171897252,0.02127147,0.02245693,0.01960134,0.03141328,0.009865493
5517,2023-01-20 11:08:57.722846,171997252,0.02268616,0.02126126,0.01964512,0.02780721,0.01709986
5552,2023-01-20 11:08:57.822964,172097346,0.02423371,0.02152636,0.02551713,0.02917368,0.0258928
5584,2023-01-20 11:08:57.922957,172197344,0.03382865,0.01973091,0.02415318,0.02898509,0.03841479
5619,2023-01-20 11:08:58.022935,172297325,0.03010465,0.02530735,0.02198163,0.02587559,0.04777003
5649,2023-01-20 11:08:58.122967,172397354,0.02928527,0.02469338,0.02730735,0.02429271,0.04924115
5684,2023-01-20 11:08:58.223156,172497541,0.03083535,0.02602581,0.0270852,0.02389708,0.04549956
5714,2023-01-20 11:08:58.322937,172597322,0.02702357,0.02930886,0.02902107,0.02066362,0.04007369
5749,2023-01-20 11:08:58.422948,172697342,0.02260206,0.02721061,0.02885876,0.0192817,0.03334346
5779,2023-01-20 11:08:58.522887,172797316,0.0205027,0.02524849,0.02682023,0.01916246,0.03013065
5812,2023-01-20 11:08:58.622880,172897328,0.01778799,0.0224489,0.02883021,0.02087569,0.03854882
5842,2023-01-20 11:08:58.722899,172997310,0.01552885,0.02037908,0.02658889,0.02299077,0.04905974
5877,2023-01-20 11:08:58.822930,173097317,0.0136534,0.02101989,0.02901933,0.02705279,0.05391962
5909,2023-01-20 11:08:58.922962,173197365,0.01874607,0.02233969,0.02828271,0.02735262,0.05365212
5943,2023-01-20 11:08:59.020839,173297341,0.01997739,0.02434173,0.02805509,0.0235254,0.04928913
5974,2023-01-20 11:08:59.111752,173397358,0.02433863,0.03060364,0.02382524,0.02470812,0.04212297
6009,2023-01-20 11:08:59.203093,173497537,0.02496723,0.03097808,0.02056069,0.02676357,0.03526215
6039,2023-01-20 11:08:59.302818,173597259,0.02100517,0.02755313,0.02151259,0.02923071,0.03551175
6074,2023-01-20 11:08:59.403276,173697386,0.0207014,0.02723211,0.02035037,0.02954554,0.03866915
6103,2023-01-20 11:08:59.514246,173797254,0.02221272,0.02449336,0.01873749,0.03025036,0.0383812
6136,2023-01-20 11:08:59.620806,173897316,0.02019263,0.02430571,0.0171039,0.02712335,0.03482923
6166,2023-01-20 11:08:59.711648,173997248,0.01792899,0.02259591,0.0176814,0.03042253,0.02976502
6202,2023-01-20 11:08:59.802874,174097315,0.01658215,0.02148147,0.01899679,0.03138883,0.02474333
6234,2023-01-20 11:08:59.902868,174197339,0.01487206,0.01937597,0.01710869,0.03008356,0.02026
6267,2023-01-20 11:09:00.002815,174297317,0.01476024,0.02305236,0.01525413,0.02552306,0.01663889
6297,2023-01-20 11:09:00.102782,174397357,0.01951787,0.02484533,0.01756413,0.02249602,0.01498937
6332,2023-01-20 11:09:00.202897,174497542,0.01643624,0.02163043,0.01740877,0.02345393,0.0180769
6362,2023-01-20 11:09:00.302648,174597242,0.01906718,0.020658,0.01845744,0.02276694,0.02352943
6397,2023-01-20 11:09:00.402801,174697346,0.01663127,0.0203174,0.01705098,0.02293023,0.02993048
6429,2023-01-20 11:09:00.502639,174797239,0.01665314,0.020384,0.01577066,0.02284547,0.03475639
6462,2023-01-20 11:09:00.602671,174897323,0.01492992,0.02392148,0.01700594,0.02559077,0.04068974
6492,2023-01-20 11:09:00.702701,174997321,0.01660625,0.02320316,0.01522554,0.02599248,0.04734328
6528,2023-01-20 11:09:00.802730,175097319,0.01570714,0.02303163,0.01376556,0.02501812,0.05423393
6560,2023-01-20 11:09:00.902797,175197410,0.01650909,0.02586152,0.01595612,0.02367248,0.05886014
6593,2023-01-20 11:09:01.002690,175297324,0.01982202,0.0278234,0.0162458,0.02369188,0.06373115
6623,2023-01-20 11:09:01.102764,175397322,0.02187433,0.02509066,0.01678587,0.02481524,0.0697924
6658,2023-01-20 11:09:01.203092,175497579,0.02229209,0.02215954,0.01556236,0.02146997,0.07598864
6688,2023-01-20 11:09:01.302701,175597256,0.02447428,0.0191804,0.01459185,0.0191364,0.07905477
6723,2023-01-20 11:09:01.402726,175697348,0.02362478,0.01627681,0.01444644,0.01842434,0.07799634
6753,2023-01-20 11:09:01.502594,175797243,0.02505657,0.01460532,0.01284656,0.02067729,0.0734237
6786,2023-01-20 11:09:01.602675,175897350,0.0220205,0.01381908,0.01227512,0.0218205,0.06705024
6817,2023-01-20 11:09:01.702661,175997330,0.02142235,0.0128204,0.01409908,0.02352944,0.05978244
6852,2023-01-20 11:09:01.802590,176097254,0.020479,0.0172956,0.0139214,0.02428806,0.05299439
6884,2023-01-20 11:09:01.902694,176197354,0.02302843,0.02183913,0.01587693,0.03050564,0.04628321
6917,2023-01-20 11:09:02.002663,176297319,0.02197263,0.02706617,0.01541277,0.03366484,0.0393764
6947,2023-01-20 11:09:02.102688,176397332,0.01960788,0.02699463,0.01514333,0.03287214,0.03317062
6982,2023-01-20 11:09:02.202977,176497609,0.01763436,0.02582892,0.01447714,0.02958646,0.02892026
7012,2023-01-20 11:09:02.302680,176597308,0.01633635,0.0242254,0.0145836,0.02990016,0.02552621
7047,2023-01-20 11:09:02.402726,176697352,0.01625388,0.02661448,0.01291567,0.02740076,0.02180461
7077,2023-01-20 11:09:02.502578,176797253,0.01596187,0.02886757,0.0121605,0.02584275,0.01796246
7110,2023-01-20 11:09:02.602531,176897253,0.01470631,0.02626529,0.01374207,0.02323597,0.0147028
7140,2023-01-20 11:09:02.702639,176997316,0.01662157,0.0271351,0.01400913,0.02209807,0.0123575
7175,2023-01-20 11:09:02.802696,177097329,0.01623752,0.03140477,0.01343361,0.0236636,0.01165752
7207,2023-01-20 11:09:02.902781,177197419,0.01508222,0.02837904,0.01827276,0.02923711,0.01333086
7240,2023-01-20 11:09:03.002694,177297336,0.01459926,0.02620605,0.01858682,0.02699569,0.01433816
7270,2023-01-20 11:09:03.102663,177397317,0.01482507,0.02421541,0.01797345,0.02775884,0.01244098
7305,2023-01-20 11:09:03.202796,177497461,0.0193461,0.02621842,0.01627363,0.02566306,0.01115819
7335,2023-01-20 11:09:03.302584,177597254,0.0185675,0.02401689,0.0176392,0.02498204,0.01423786
7370,2023-01-20 11:09:03.402666,177697340,0.01814225,0.02211055,0.01750711,0.02411167,0.02100074
7400,2023-01-20 11:09:03.502653,177797326,0.01518811,0.01981524,0.01555748,0.02139878,0.0322484
7433,2023-01-20 11:09:03.602575,177897247,0.015811,0.01889293,0.0148487,0.01952713,0.04214315
7464,2023-01-20 11:09:03.702654,177997313,0.0152445,0.01857073,0.01557616,0.01984861,0.04835311
7499,2023-01-20 11:09:03.802607,178097254,0.02422856,0.0172147,0.01544273,0.02141859,0.05490897
7531,2023-01-20 11:09:03.902690,178197350,0.02977974,0.01789124,0.01768673,0.0205246,0.06050365
7564,2023-01-20 11:09:04.002649,178297321,0.03391884,0.01961208,0.01831301,0.02141705,0.06441244
7595,2023-01-20 11:09:04.102625,178397306,0.03366403,0.01936964,0.019139,0.02537736,0.06649359
7630,2023-01-20 11:09:04.202792,178497480,0.02798492,0.02066275,0.01717735,0.02684356,0.06470893
7660,2023-01-20 11:09:04.302589,178597254,0.02336284,0.0201965,0.01480024,0.02430268,0.0590025
7695,2023-01-20 11:09:04.402698,178697340,0.01988891,0.01854649,0.01293878,0.02300989,0.05118438
7725,2023-01-20 11:09:04.502702,178797360,0.01819829,0.01979316,0.01286884,0.02618855,0.0426017
7758,2023-01-20 11:09:04.602638,178897312,0.01664378,0.02116196,0.0124691,0.02760184,0.03500876
7788,2023-01-20 11:09:04.702606,178997255,0.01528843,0.02254544,0.01087765,0.02356517,0.03026187
7823,2023-01-20 11:09:04.802703,179097329,0.01569466,0.02146266,0.01251252,0.02241213,0.02860532
7855,2023-01-20 11:09:04.902698,179197360,0.01400118,0.02131705,0.01261705,0.02246945,0.0272838
7888,2023-01-20 11:09:05.002638,179297335,0.01313206,0.02387654,0.01514104,0.02737815,0.02453593
7918,2023-01-20 11:09:05.102573,179397247,0.01517624,0.02323247,0.02508891,0.03268825,0.02092901
7953,2023-01-20 11:09:05.202711,179497363,0.01390352,0.02165431,0.02216729,0.03217502,0.01756312
7983,2023-01-20 11:09:05.302675,179597312,0.01215569,0.0203422,0.02115221,0.029739,0.01453095
8019,2023-01-20 11:09:05.402732,179697357,0.01115559,0.01843052,0.02091322,0.02577361,0.01254274
8051,2023-01-20 11:09:05.502631,179797313,0.01111309,0.01634135,0.02158533,0.0221515,0.0147481
8084,2023-01-20 11:09:05.602601,179897335,0.01119193,0.01486783,0.01899147,0.0208352,0.01854474
8114,2023-01-20 11:09:05.702694,179997368,0.009848632,0.01378666,0.0157482,0.01835812,0.0352289
8149,2023-01-20 11:09:05.802694,180097310,0.008260572,0.01239416,0.01361124,0.0180563,0.06717481
8181,2023-01-20 11:09:05.902688,180197344,0.008267472,0.01394601,0.01186679,0.01611182,0.08631946
8214,2023-01-20 11:09:06.002625,180297320,0.008895071,0.01430429,0.01033326,0.01410151,0.08569756
8244,2023-01-20 11:09:06.102660,180397346,0.007493617,0.01240888,0.01027968,0.01472941,0.07901076
8279,2023-01-20 11:09:06.202660,180497337,0.008638092,0.01110568,0.009862904,0.01722846,0.07135967
8309,2023-01-20 11:09:06.302629,180597309,0.01582426,0.01160412,0.01314759,0.02050961,0.06242587
8344,2023-01-20 11:09:06.402654,180697336,0.01370383,0.01039386,0.01351276,0.01954228,0.05244769
8374,2023-01-20 11:09:06.502635,180797309,0.01493576,0.01165833,0.01316471,0.02119906,0.04488552
8407,2023-01-20 11:09:06.602648,180897314,0.01446459,0.01197798,0.01339484,0.01940365,0.04176627
8437,2023-01-20 11:09:06.702577,180997247,0.01532087,0.01166174,0.01163171,0.01892941,0.04469362
8472,2023-01-20 11:09:06.802666,181097340,0.01297644,0.0105112,0.01240831,0.01737912,0.04466511
8504,2023-01-20 11:09:06.902711,181197372,0.01244072,0.009387838,0.01218934,0.01886724,0.0422534
8537,2023-01-20 11:09:07.002662,181297311,0.01300215,0.009288394,0.02032676,0.02028165,0.03926095
8567,2023-01-20 11:09:07.102669,181397315,0.01238928,0.01382706,0.02884974,0.02630719,0.03406037
8602,2023-01-20 11:09:07.202778,181497422,0.0121718,0.01828607,0.03258455,0.03147854,0.02843147
8632,2023-01-20 11:09:07.302675,181597317,0.01086149,0.01643971,0.02869693,0.0385853,0.02865814
8668,2023-01-20 11:09:07.402713,181697354,0.009962061,0.01471949,0.02939131,0.0367679,0.03210523
8698,2023-01-20 11:09:07.502717,181797370,0.01523418,0.01849694,0.04092458,0.0381133,0.0392403
8731,2023-01-20 11:09:07.602646,181897311,0.02351671,0.01821826,0.05126882,0.03923647,0.0507914
8761,2023-01-20 11:09:07.702664,181997308,0.02460319,0.01985764,0.05447554,0.03542089,0.06307432
8796,2023-01-20 11:09:07.802736,182097360,0.02281817,0.02293064,0.05382672,0.03390568,0.06992079
8828,2023-01-20 11:09:07.902719,182197355,0.02086597,0.02113558,0.05300688,0.03541751,0.0690449
8861,2023-01-20 11:09:08.002669,182297317,0.02021464,0.01852769,0.04545631,0.03401823,0.06270997
8891,2023-01-20 11:09:08.102679,182397346,0.02235239,0.01916518,0.03748395,0.03089472,0.05518466
8926,2023-01-20 11:09:08.202646,182497329,0.02373759,0.01861359,0.03111322,0.02738165,0.04887625
8956,2023-01-20 11:09:08.302650,182597310,0.02244986,0.01717995,0.02982802,0.02939839,0.04395651
8991,2023-01-20 11:09:08.402743,182697382,0.02310625,0.02230118,0.0296061,0.02979047,0.03916217
9021,2023-01-20 11:09:08.502583,182797253,0.02109442,0.02347614,0.02983664,0.03163398,0.03393644
9054,2023-01-20 11:09:08.602605,182897305,0.01955918,0.02221828,0.03217437,0.03123144,0.02956617
9084,2023-01-20 11:09:08.702588,182997256,0.0178149,0.01991598,0.03394007,0.03336089,0.02699422
9119,2023-01-20 11:09:08.802672,183097308,0.01628479,0.01944133,0.03570251,0.03557684,0.02652339
9153,2023-01-20 11:09:08.902722,183197371,0.01583931,0.01962566,0.03404268,0.03710686,0.02716515
9186,2023-01-20 11:09:09.002423,183297322,0.01495557,0.02077994,0.02921381,0.03788691,0.02808766
9216,2023-01-20 11:09:09.093426,183397222,0.01387982,0.02049793,0.02516993,0.03822894,0.03005598
9249,2023-01-20 11:09:09.184638,183497351,0.01340569,0.01890943,0.02305752,0.04291052,0.03190757
9282,2023-01-20 11:09:09.283089,183597315,0.01160859,0.01862596,0.02108923,0.03934713,0.0321764
9315,2023-01-20 11:09:09.383121,183697360,0.01208896,0.01762083,0.01847326,0.03678327,0.02990346
9347,2023-01-20 11:09:09.483093,183797330,0.01617645,0.01881545,0.01725637,0.03778994,0.0263582
9378,2023-01-20 11:09:09.583029,183897262,0.01674139,0.02203955,0.01630295,0.03788526,0.02224816
9411,2023-01-20 11:09:09.683030,183997246,0.0166885,0.02106665,0.01669817,0.04013051,0.01826152
9445,2023-01-20 11:09:09.783120,184097316,0.01607404,0.02296665,0.01595606,0.03730682,0.01561006
9479,2023-01-20 11:09:09.883142,184197355,0.01511384,0.02030527,0.01769751,0.03906774,0.01559836
9510,2023-01-20 11:09:09.983103,184297339,0.01521924,0.01794338,0.01760217,0.03934193,0.01828469
9542,2023-01-20 11:09:10.083104,184397348,0.01297383,0.01725707,0.01660612,0.03638786,0.0201961
9574,2023-01-20 11:09:10.183082,184497330,0.0115625,0.01791478,0.01934013,0.03489239,0.01994007
9607,2023-01-20 11:09:10.283064,184597313,0.01040987,0.01652578,0.02217034,0.03511914,0.01832767
9640,2023-01-20 11:09:10.383121,184697371,0.009673837,0.01627907,0.02425969,0.03701419,0.01523625
9672,2023-01-20 11:09:10.483009,184797351,0.009427394,0.01630267,0.02345522,0.0385158,0.0129061
9705,2023-01-20 11:09:10.583020,184897473,0.01057886,0.0223548,0.02033108,0.03680286,0.01253616
9737,2023-01-20 11:09:10.682835,184997252,0.01217148,0.0242728,0.01979121,0.03630976,0.01348367
9770,2023-01-20 11:09:10.783075,185097425,0.0121198,0.0236002,0.02225563,0.03528778,0.01655188
9804,2023-01-20 11:09:10.883053,185197411,0.0119648,0.0216937,0.02143361,0.03478583,0.01928064
9835,2023-01-20 11:09:10.983063,185297443,0.01136018,0.02230692,0.01890616,0.03467846,0.02129305
9868,2023-01-20 11:09:11.082928,185397318,0.01096507,0.02144313,0.01878708,0.03657247,0.0224324
9900,2023-01-20 11:09:11.183061,185497459,0.01244764,0.02269765,0.01842228,0.03572031,0.02211384
9933,2023-01-20 11:09:11.282847,185597258,0.01163948,0.02159571,0.01809076,0.04049294,0.0215184
9966,2023-01-20 11:09:11.383072,185697497,0.01222177,0.02470735,0.01904166,0.03973052,0.02171998
9997,2023-01-20 11:09:11.482824,185797248,0.01765301,0.02369129,0.01902541,0.0397343,0.02484832
10028,2023-01-20 11:09:11.583014,185897434,0.0157298,0.02169606,0.01649512,0.03557829,0.02923421
10060,2023-01-20 11:09:11.682939,185997341,0.01376776,0.02082285,0.0158142,0.0364076,0.03000638
10093,2023-01-20 11:09:11.783033,186097415,0.01231923,0.02170061,0.01688813,0.04125373,0.02708803
10127,2023-01-20 11:09:11.882972,186197355,0.01149376,0.02337119,0.01542864,0.03886773,0.02359528
10158,2023-01-20 11:09:11.983032,186297421,0.01081668,0.02437205,0.0151854,0.03874867,0.02027494
10190,2023-01-20 11:09:12.082835,186397250,0.01008086,0.02371245,0.01471432,0.03896613,0.01727528
10222,2023-01-20 11:09:12.183056,186497501,0.009936723,0.02499153,0.01325038,0.03557812,0.01434575
10255,2023-01-20 11:09:12.282820,186597242,0.009012633,0.02268227,0.01321016,0.03481642,0.01176915
10289,2023-01-20 11:09:12.383090,186697479,0.008737385,0.02279169,0.01282785,0.03453916,0.009680892
10321,2023-01-20 11:09:12.482970,186797373,0.007974132,0.02030694,0.01257987,0.03429887,0.008553001
10352,2023-01-20 11:09:12.582994,186897421,0.00847025,0.02128012,0.01233214,0.03348534,0.008521447
10384,2023-01-20 11:09:12.682905,186997310,0.009117272,0.0200314,0.01267972,0.03365637,0.009036023
10417,2023-01-20 11:09:12.783039,187097413,0.009096012,0.02081566,0.01287867,0.0335073,0.008584423
10451,2023-01-20 11:09:12.882975,187197349,0.008172295,0.01924421,0.0158745,0.03561876,0.007374802
10482,2023-01-20 11:09:12.982879,187297260,0.00962055,0.02242826,0.01848987,0.0342759,0.006308418
10514,2023-01-20 11:09:13.082866,187397254,0.01153649,0.02612238,0.02073687,0.02989473,0.006011488
10546,2023-01-20 11:09:13.182957,187497352,0.0108249,0.02322149,0.02187668,0.02529813,0.006600747
10579,2023-01-20 11:09:13.282851,187597237,0.009390875,0.01966115,0.02043783,0.02225668,0.006805952
10612,2023-01-20 11:09:13.383014,187697388,0.00811823,0.01732548,0.01764221,0.02001804,0.006149821
10644,2023-01-20 11:09:13.482851,187797247,0.007633015,0.01627612,0.01568653,0.0176678,0.005202368
10675,2023-01-20 11:09:13.582824,187897249,0.008188092,0.01449033,0.01317671,0.01585732,0.00432705
10707,2023-01-20 11:09:13.682936,187997346,0.00755348,0.01480101,0.01113839,0.01512304,0.005018668
10740,2023-01-20 11:09:13.782859,188097245,0.008034555,0.01646445,0.01135942,0.01805527,0.008235011
10774,2023-01-20 11:09:13.882982,188197360,0.009473848,0.01840717,0.01120777,0.02005661,0.01321464
10805,2023-01-20 11:09:13.982940,188297314,0.01109711,0.01924641,0.01678503,0.02409683,0.01627058
10837,2023-01-20 11:09:14.082866,188397248,0.01446662,0.01915163,0.01757834,0.02888448,0.01707865
10869,2023-01-20 11:09:14.182990,188497382,0.01547178,0.02114987,0.02130816,0.03056639,0.01623605
10903,2023-01-20 11:09:14.282932,188597318,0.01670439,0.02259875,0.0212924,0.03558803,0.01579794
10937,2023-01-20 11:09:14.382959,188697336,0.01541185,0.02384371,0.02195329,0.03250958,0.01680822
10969,2023-01-20 11:09:14.482845,188797245,0.01510507,0.02369714,0.01936561,0.03194247,0.01896981
11000,2023-01-20 11:09:14.582879,188897308,0.01354507,0.02246335,0.01676538,0.02913454,0.02464854
11032,2023-01-20 11:09:14.682930,188997339,0.01436858,0.02117826,0.01510887,0.02920667,0.03039042
11065,2023-01-20 11:09:14.782861,189097239,0.01473539,0.02318016,0.01385696,0.02715081,0.03391638
11099,2023-01-20 11:09:14.882959,189197349,0.0183582,0.02615656,0.01292724,0.02565674,0.03474868
11130,2023-01-20 11:09:14.982936,189297347,0.0167231,0.02519627,0.01814407,0.02841345,0.03437293
11162,2023-01-20 11:09:15.082836,189397241,0.01694723,0.02342669,0.01854545,0.03830557,0.0350607
11194,2023-01-20 11:09:15.182926,189497321,0.01623284,0.02492794,0.01746767,0.03646018,0.03589522
11227,2023-01-20 11:09:15.282861,189597239,0.01556158,0.02243182,0.02139574,0.0332413,0.03614302
11263,2023-01-20 11:09:15.382968,189697327,0.01544366,0.02444456,0.01914114,0.03006399,0.03516115
11295,2023-01-20 11:09:15.482922,189797317,0.0144035,0.02490897,0.01880444,0.03126451,0.03309678
11328,2023-01-20 11:09:15.582887,189897329,0.01243592,0.02243352,0.01868429,0.03786996,0.03003415
11360,2023-01-20 11:09:15.682811,189997224,0.01178349,0.02308672,0.01653979,0.03464537,0.02595537
11393,2023-01-20 11:09:15.782858,190097227,0.0104995,0.02210766,0.01586115,0.03687508,0.02172088
11427,2023-01-20 11:09:15.882949,190197310,0.00947499,0.02105774,0.01443247,0.03490034,0.01788072
11458,2023-01-20 11:09:15.982950,190297311,0.008613712,0.01976153,0.01489086,0.03583894,0.01463501
11490,2023-01-20 11:09:16.082873,190397237,0.008840803,0.01846687,0.01590751,0.03771777,0.0120897
11522,2023-01-20 11:09:16.182987,190497354,0.009126639,0.01996096,0.01481166,0.03626805,0.01006889
11555,2023-01-20 11:09:16.282863,190597230,0.009224626,0.01975136,0.01492723,0.03807575,0.008523673
11588,2023-01-20 11:09:16.382965,190697330,0.01244132,0.02618295,0.01665196,0.03834528,0.00799944
11620,2023-01-20 11:09:16.482873,190797253,0.01345318,0.02429437,0.01702358,0.03822988,0.02735964
11651,2023-01-20 11:09:16.582843,190897240,0.0126171,0.0232682,0.01561403,0.03674082,0.07355217
11683,2023-01-20 11:09:16.682861,190997249,0.01203031,0.02418424,0.01430287,0.0341625,0.1172922
11716,2023-01-20 11:09:16.782847,191097221,0.01313555,0.02324833,0.01683561,0.03185058,0.1376371
11750,2023-01-20 11:09:16.882994,191197361,0.01321059,0.02222509,0.02551788,0.0301132,0.1402588
11781,2023-01-20 11:09:16.982890,191297252,0.01203404,0.02246839,0.03961021,0.02978187,0.1328695
11813,2023-01-20 11:09:17.082855,191397219,0.01276086,0.02663813,0.05157616,0.0291092,0.1210619
11845,2023-01-20 11:09:17.182880,191497247,0.01229901,0.02595221,0.05095821,0.03286578,0.1062311
11878,2023-01-20 11:09:17.282862,191597225,0.0166724,0.02671426,0.05007512,0.03126208,0.08935633
11911,2023-01-20 11:09:17.382901,191697257,0.02028128,0.0247744,0.04746789,0.03160987,0.0732964
11943,2023-01-20 11:09:17.482958,191797341,0.03632305,0.02603798,0.05161838,0.03448019,0.06066874
11974,2023-01-20 11:09:17.582909,191897325,0.03896917,0.02761536,0.04942599,0.03057079,0.05224587
12006,2023-01-20 11:09:17.682829,191997223,0.04223973,0.02506405,0.05321767,0.02984765,0.04653179
12039,2023-01-20 11:09:17.782866,192097227,0.04504062,0.02353952,0.0556751,0.02955331,0.04407844
12073,2023-01-20 11:09:17.882894,192197252,0.05654636,0.02380675,0.05233366,0.02765112,0.06020051
12104,2023-01-20 11:09:17.982893,192297255,0.06823245,0.02302538,0.04674936,0.02649359,0.09235941
12137,2023-01-20 11:09:18.082864,192397243,0.08332521,0.0211427,0.03984394,0.02333206,0.1190196
12169,2023-01-20 11:09:18.182969,192497368,0.0812308,0.02250109,0.04557153,0.02275622,0.1309362
12202,2023-01-20 11:09:18.275397,192597228,0.07337932,0.02117503,0.0446367,0.03035322,0.1306429
12235,2023-01-20 11:09:18.366517,192697327,0.06730004,0.01930127,0.04740712,0.03141127,0.1223197
12267,2023-01-20 11:09:18.463165,192797318,0.06029851,0.01930631,0.05613968,0.03117185,0.1098678
12298,2023-01-20 11:09:18.563024,192897248,0.05818779,0.02317107,0.05720729,0.03030361,0.09410387
12331,2023-01-20 11:09:18.662978,192997228,0.04833353,0.02405981,0.05427292,0.02754161,0.07745256
12364,2023-01-20 11:09:18.763079,193097328,0.04202698,0.02262854,0.05828599,0.02654047,0.06453093
12398,2023-01-20 11:09:18.863089,193197373,0.03520479,0.02342458,0.05455711,0.02401489,0.05740553
12429,2023-01-20 11:09:18.962914,193297254,0.03342841,0.02366882,0.05025176,0.0229754,0.05540638
12461,2023-01-20 11:09:19.062870,193397215,0.02843931,0.02275071,0.05079279,0.02388519,0.0555981
12493,2023-01-20 11:09:19.162925,193497247,0.02452528,0.02255395,0.04531985,0.02289971,0.05771294
12526,2023-01-20 11:09:19.262969,193597221,0.02753813,0.02282734,0.04390913,0.02204081,0.05674089
12561,2023-01-20 11:09:19.363181,193697336,0.02715993,0.02245088,0.03941954,0.02201973,0.05324838
12593,2023-01-20 11:09:19.463136,193797352,0.02935886,0.02339841,0.03361041,0.02397116,0.0466923
12624,2023-01-20 11:09:19.562938,193897306,0.02512232,0.0239263,0.02811871,0.02224928,0.03888597
12657,2023-01-20 11:09:19.662812,193997216,0.02273604,0.0228725,0.02397197,0.02411008,0.03190914
12691,2023-01-20 11:09:19.762853,194097222,0.03055633,0.02195877,0.02103794,0.02521541,0.0266236
12725,2023-01-20 11:09:19.862886,194197249,0.02722666,0.02303926,0.02117,0.02658977,0.02310698
12756,2023-01-20 11:09:19.962884,194297257,0.02559805,0.02209425,0.02017861,0.02950667,0.02041323
12789,2023-01-20 11:09:20.062948,194397318,0.02191221,0.02043969,0.02065374,0.02875481,0.01801308
12821,2023-01-20 11:09:20.162997,194497354,0.02400902,0.02116468,0.01822871,0.02771175,0.01579266
12853,2023-01-20 11:09:20.262864,194597223,0.02217735,0.02256906,0.01683147,0.02963903,0.01354671
12887,2023-01-20 11:09:20.362937,194697306,0.03069448,0.02078248,0.02008287,0.03140603,0.01133824
12919,2023-01-20 11:09:20.462854,194797241,0.02680644,0.02348076,0.02686297,0.02975052,0.01197672
12952,2023-01-20 11:09:20.562819,194897229,0.02342227,0.02474911,0.02244915,0.02733901,0.01589972
12985,2023-01-20 11:09:20.662834,194997239,0.02217693,0.02429323,0.02108319,0.02706708,0.0180825
13018,2023-01-20 11:09:20.762949,195097332,0.01926208,0.02244922,0.02257677,0.03436691,0.01774636
13052,2023-01-20 11:09:20.862945,195197322,0.01944696,0.02083855,0.02099134,0.03694228,0.01485238
13083,2023-01-20 11:09:20.962947,195297326,0.01874819,0.0212462,0.0187678,0.03511878,0.01215569
13116,2023-01-20 11:09:21.062856,195397235,0.01664606,0.02069217,0.016219,0.03096327,0.01005457
13147,2023-01-20 11:09:21.162939,195497316,0.01524679,0.02187288,0.01486605,0.02787751,0.008239313
13181,2023-01-20 11:09:21.262870,195597246,0.013972,0.02201723,0.01635352,0.02887091,0.006904599
13215,2023-01-20 11:09:21.362883,195697259,0.01273137,0.02317856,0.01603328,0.03094826,0.007517557
13247,2023-01-20 11:09:21.462970,195797375,0.011355,0.02253672,0.01530209,0.03238658,0.01028223
13278,2023-01-20 11:09:21.562874,195897325,0.01121915,0.02294984,0.01498702,0.03251544,0.01363115
13311,2023-01-20 11:09:21.662784,195997220,0.01021173,0.02249035,0.01370177,0.03043561,0.01569336
13344,2023-01-20 11:09:21.762832,196097218,0.0117881,0.0230755,0.01261051,0.02787776,0.01640539
13378,2023-01-20 11:09:21.862938,196197307,0.01130654,0.02375612,0.01350763,0.02637205,0.01607303
13409,2023-01-20 11:09:21.962879,196297252,0.01151369,0.02353463,0.01308706,0.02559103,0.01573281
13442,2023-01-20 11:09:22.062951,196397338,0.01246385,0.02249194,0.01405329,0.02717406,0.01484968
13473,2023-01-20 11:09:22.162849,196497257,0.01270263,0.02055407,0.01443284,0.03219237,0.01309195
13507,2023-01-20 11:09:22.262811,196597215,0.01173387,0.01898368,0.01443134,0.03546369,0.01081106
13541,2023-01-20 11:09:22.362863,196697247,0.01085939,0.02115344,0.0145984,0.0375482,0.009549491
13573,2023-01-20 11:09:22.462859,196797251,0.009891561,0.01987772,0.01551481,0.03686066,0.009623994
13604,2023-01-20 11:09:22.562835,196897252,0.008578829,0.01772151,0.01516972,0.03612188,0.009835473
13637,2023-01-20 11:09:22.662801,196997212,0.008691086,0.01902534,0.01470853,0.03325291,0.009818952
13670,2023-01-20 11:09:22.762937,197097324,0.008429877,0.01911429,0.01400505,0.03144618,0.01009126
13704,2023-01-20 11:09:22.862876,197197252,0.01055596,0.02060939,0.01383038,0.02981466,0.01053112
13735,2023-01-20 11:09:22.962868,197297241,0.01052934,0.02071705,0.01287767,0.02739143,0.0102799
13768,2023-01-20 11:09:23.062880,197397250,0.01369055,0.02064336,0.01304722,0.02543565,0.009472031
13799,2023-01-20 11:09:23.162943,197497310,0.01389378,0.01955472,0.01662711,0.02566275,0.007859624
13833,2023-01-20 11:09:23.262869,197597241,0.01467422,0.01772104,0.0163314,0.02650368,0.007086687
13867,2023-01-20 11:09:23.362993,197697373,0.01261802,0.01680667,0.01776862,0.0255721,0.007353684
13899,2023-01-20 11:09:23.462920,197797312,0.01143112,0.01848376,0.01968881,0.02643725,0.00689905
13930,2023-01-20 11:09:23.562845,197897250,0.01315215,0.01894499,0.01913399,0.02508764,0.005971257
13963,2023-01-20 11:09:23.662810,197997206,0.01241651,0.01969079,0.01735578,0.02403284,0.004937815
13996,2023-01-20 11:09:23.762855,198097228,0.01318366,0.0207908,0.01714526,0.02593902,0.004418868
14030,2023-01-20 11:09:23.862886,198197254,0.01282883,0.02153017,0.01583036,0.02954055,0.003985059
14061,2023-01-20 11:09:23.962876,198297251,0.0199491,0.02155246,0.01474575,0.03071373,0.003289958
14094,2023-01-20 11:09:24.062934,198397323,0.02089699,0.02310071,0.01311998,0.02737498,0.002805415
14125,2023-01-20 11:09:24.162904,198497313,0.01998814,0.02176068,0.01384493,0.02972499,0.002492665
14159,2023-01-20 11:09:24.262817,198597216,0.02097833,0.0214528,0.01315476,0.03010198,0.002073034
14193,2023-01-20 11:09:24.362878,198697251,0.01825332,0.02287333,0.01214983,0.02720885,0.001721124
14226,2023-01-20 11:09:24.462931,198797312,0.01686396,0.02057448,0.0121465,0.02889893,0.00224654
14257,2023-01-20 11:09:24.562823,198897233,0.01450222,0.01962171,0.01247183,0.03110836,0.004292828
14290,2023-01-20 11:09:24.662901,198997319,0.01292813,0.02075064,0.01420264,0.03141786,0.006681831
14323,2023-01-20 11:09:24.762893,199097305,0.01209439,0.02144635,0.01313792,0.02970874,0.006960966
14357,2023-01-20 11:09:24.862911,199197309,0.0131081,0.02217466,0.01212389,0.02743855,0.006103392
14388,2023-01-20 11:09:24.962875,199297254,0.01169381,0.02039966,0.01462343,0.02859556,0.005223816
14421,2023-01-20 11:09:25.062857,199397229,0.01153142,0.01832528,0.01643706,0.03300451,0.004405202
14452,2023-01-20 11:09:25.162936,199497307,0.01411357,0.02021171,0.01538449,0.03322133,0.004058166
14486,2023-01-20 11:09:25.262853,199597218,0.02266211,0.02215432,0.01422261,0.03181649,0.003945924
14520,2023-01-20 11:09:25.363014,199697369,0.0231133,0.02598498,0.01526716,0.03283405,0.006726059
14552,2023-01-20 11:09:25.462865,199797240,0.02846853,0.02525755,0.01390581,0.03220619,0.009902433
14585,2023-01-20 11:09:25.562807,199897218,0.02430217,0.02651811,0.01322914,0.03152131,0.009051188
14618,2023-01-20 11:09:25.662816,199997225,0.02054618,0.02510046,0.01327495,0.03118225,0.01568947
14651,2023-01-20 11:09:25.762836,200097219,0.01768787,0.02350985,0.01313917,0.03156744,0.02466406
14685,2023-01-20 11:09:25.862883,200197253,0.01505507,0.0218832,0.0132557,0.0292753,0.03103269
14716,2023-01-20 11:09:25.962984,200297348,0.0148522,0.02329677,0.01625262,0.0291901,0.03305753
14749,2023-01-20 11:09:26.062844,200397222,0.01274465,0.02147588,0.01606266,0.03466215,0.03290173
14780,2023-01-20 11:09:26.162838,200497242,0.01205799,0.01992375,0.01808985,0.0408016,0.03074416
14814,2023-01-20 11:09:26.262827,200597225,0.01255466,0.01935415,0.01775116,0.04284024,0.02711596
14848,2023-01-20 11:09:26.362883,200697255,0.01101397,0.01846568,0.01778259,0.0412387,0.02270665
14880,2023-01-20 11:09:26.462861,200797243,0.01231189,0.02103913,0.01682522,0.03964997,0.01868832
14911,2023-01-20 11:09:26.562816,200897228,0.01512618,0.02348544,0.01613535,0.03436644,0.0153574
14944,2023-01-20 11:09:26.662896,200997317,0.01503477,0.02285775,0.01654975,0.03459945,0.01286006
14977,2023-01-20 11:09:26.762806,201097224,0.01349608,0.0221021,0.01544451,0.03458302,0.01198822
15011,2023-01-20 11:09:26.862906,201197304,0.01311316,0.02268159,0.01525103,0.03266914,0.01132625
15042,2023-01-20 11:09:26.962874,201297241,0.01202144,0.02295921,0.01445169,0.028921,0.01038368
15075,2023-01-20 11:09:27.062859,201397220,0.01126085,0.02268865,0.01759283,0.02560887,0.01027554
15106,2023-01-20 11:09:27.162935,201497305,0.01214524,0.0206566,0.0162979,0.02538936,0.01175128
15140,2023-01-20 11:09:27.262937,201597318,0.01160503,0.0202064,0.01736635,0.02793892,0.0134888
15174,2023-01-20 11:09:27.362861,201697253,0.01371732,0.02018639,0.0161614,0.02962279,0.0150279
15206,2023-01-20 11:09:27.462938,201797329,0.01523719,0.02080276,0.01539203,0.03242355,0.01496772
15237,2023-01-20 11:09:27.562842,201897224,0.01311877,0.02013561,0.01612589,0.03421493,0.01272935
15270,2023-01-20 11:09:27.662849,201997224,0.01228975,0.02028906,0.01708604,0.03632744,0.0104787
15303,2023-01-20 11:09:27.762879,202097248,0.01129398,0.021295,0.01771088,0.03829091,0.01031679
15337,2023-01-20 11:09:27.862952,202197319,0.0122724,0.02443281,0.01626585,0.036203,0.01271264
15369,2023-01-20 11:09:27.963017,202297384,0.01243919,0.02292205,0.01890178,0.03637563,0.01265206
15401,2023-01-20 11:09:28.062874,202397237,0.01088744,0.02070852,0.01880023,0.03884221,0.01063047
15432,2023-01-20 11:09:28.162889,202497245,0.01058659,0.02175582,0.01724687,0.03679188,0.008715921
15466,2023-01-20 11:09:28.262856,202597214,0.01190738,0.02270915,0.01492023,0.03221156,0.007366041
15500,2023-01-20 11:09:28.362897,202697261,0.01095123,0.02302341,0.01402787,0.02981459,0.007840342
15532,2023-01-20 11:09:28.457185,202797257,0.01292116,0.02424779,0.01683471,0.03326612,0.009125857
15563,2023-01-20 11:09:28.548175,202897327,0.02544789,0.0263058,0.01688829,0.03632136,0.01710223
15596,2023-01-20 11:09:28.642909,202997231,0.02285307,0.02604573,0.01463956,0.03230633,0.02895695
15629,2023-01-20 11:09:28.742908,203097229,0.02086514,0.02583689,0.02084737,0.03625332,0.03440953
15663,2023-01-20 11:09:28.842931,203197252,0.01753655,0.02291482,0.02031038,0.03734913,0.03566699
15695,2023-01-20 11:09:28.942922,203297244,0.01510031,0.0226636,0.01749357,0.03294168,0.03467649
15727,2023-01-20 11:09:29.042902,203397222,0.01324596,0.02160013,0.0154925,0.03040515,0.03244426
15758,2023-01-20 11:09:29.143014,203497328,0.01211011,0.02323516,0.01443739,0.03077523,0.02891992
15792,2023-01-20 11:09:29.242988,203597310,0.01255087,0.02457957,0.01338148,0.0304859,0.02534883
15826,2023-01-20 11:09:29.342911,203697258,0.0130377,0.02391823,0.01297953,0.02933942,0.02220984
15858,2023-01-20 11:09:29.442878,203797245,0.01241242,0.02240993,0.01172894,0.0259078,0.02009459
15890,2023-01-20 11:09:29.542851,203897234,0.01121039,0.02187375,0.01113261,0.02631809,0.01949112
15923,2023-01-20 11:09:29.642909,203997253,0.01011839,0.0197648,0.01144783,0.02805794,0.02143894
15957,2023-01-20 11:09:29.743019,204097252,0.008822834,0.01814812,0.01159358,0.0293339,0.02374759
15991,2023-01-20 11:09:29.843161,204197361,0.0116247,0.01810705,0.01146242,0.02880928,0.02463894
16023,2023-01-20 11:09:29.942979,204297249,0.01062074,0.01772497,0.01153329,0.02904735,0.02300197
16055,2023-01-20 11:09:30.042905,204397234,0.01143234,0.01791344,0.01285402,0.02934222,0.02060552
16086,2023-01-20 11:09:30.142878,204497252,0.0101388,0.01750568,0.01399774,0.03147437,0.01809265
16120,2023-01-20 11:09:30.242827,204597220,0.01303015,0.01754964,0.01436704,0.03213407,0.01534616
16154,2023-01-20 11:09:30.342936,204697314,0.01438566,0.0212672,0.01282005,0.0294926,0.01273764
16186,2023-01-20 11:09:30.442862,204797239,0.01365435,0.01990097,0.01149977,0.02712789,0.01058317
16219,2023-01-20 11:09:30.542921,204897316,0.01202791,0.01925489,0.01204185,0.0305216,0.009046859
16252,2023-01-20 11:09:30.642823,204997232,0.01131205,0.02168793,0.01212452,0.03072911,0.008718485
16285,2023-01-20 11:09:30.742815,205097229,0.01111053,0.02278566,0.01190097,0.02809329,0.009113428
16319,2023-01-20 11:09:30.842846,205197248,0.01400014,0.02231018,0.01130986,0.02671417,0.00816977
16394,2023-01-20 11:09:30.942890,205297257,0.0162166,0.02179063,0.01384873,0.02734879,0.007085969
16426,2023-01-20 11:09:31.042867,205397217,0.01421561,0.02097915,0.01295249,0.02553882,0.006607281
16457,2023-01-20 11:09:31.143015,205497371,0.01269699,0.02197246,0.01158766,0.02451829,0.007814518
16491,2023-01-20 11:09:31.242884,205597247,0.0161261,0.02174763,0.01183002,0.0265983,0.01007924
16525,2023-01-20 11:09:31.342961,205697332,0.01385694,0.02152064,0.01234223,0.02871465,0.01446212
16556,2023-01-20 11:09:31.443112,205797494,0.01259088,0.02310529,0.01230502,0.02919286,0.01900432
16587,2023-01-20 11:09:31.542830,205897229,0.01275252,0.02292906,0.01437648,0.02948471,0.02324731
16620,2023-01-20 11:09:31.642822,205997221,0.01445675,0.02370625,0.01881984,0.03136018,0.02754042
16653,2023-01-20 11:09:31.742837,206097217,0.01399357,0.02211889,0.02051234,0.03790749,0.02872092
16687,2023-01-20 11:09:31.842979,206197346,0.01203122,0.02038112,0.01847731,0.03760696,0.02633957
16719,2023-01-20 11:09:31.942888,206297252,0.01090842,0.01993414,0.01804082,0.03680146,0.02289552
16751,2023-01-20 11:09:32.042856,206397217,0.01266343,0.02058067,0.01703665,0.03404623,0.02020674
16782,2023-01-20 11:09:32.142892,206497253,0.01205964,0.02132877,0.01710447,0.03068963,0.01882259
16816,2023-01-20 11:09:32.242873,206597236,0.01122406,0.02144635,0.01897926,0.02877582,0.01969679
16850,2023-01-20 11:09:32.342940,206697309,0.009944095,0.01979321,0.01912865,0.02902252,0.02018132
16882,2023-01-20 11:09:32.443203,206797585,0.009081797,0.01871806,0.01678003,0.02871539,0.01886323
16913,2023-01-20 11:09:32.542825,206897227,0.00826632,0.01828231,0.01616743,0.02913993,0.01652422
16946,2023-01-20 11:09:32.642850,206997264,0.00818504,0.0180029,0.01695698,0.02870096,0.01409333
16979,2023-01-20 11:09:32.742816,207097233,0.008726541,0.02038829,0.01537917,0.02811568,0.01176703
17013,2023-01-20 11:09:32.842908,207197313,0.009912844,0.02144781,0.0137279,0.0257261,0.00982347
17045,2023-01-20 11:09:32.942873,207297249,0.009436157,0.02164447,0.01283995,0.02718801,0.008492088
17077,2023-01-20 11:09:33.042869,207397228,0.008919932,0.02009107,0.01359096,0.0297044,0.008173676
17108,2023-01-20 11:09:33.142982,207497339,0.01447634,0.02276274,0.01925218,0.02954896,0.007900871
17142,2023-01-20 11:09:33.242854,207597225,0.01635597,0.0221766,0.01697662,0.02867294,0.006662571
17176,2023-01-20 11:09:33.342911,207697314,0.01556537,0.02195073,0.01561507,0.02981987,0.005664599
17208,2023-01-20 11:09:33.443113,207797534,0.01379232,0.02174105,0.01383849,0.02655554,0.004986633
17239,2023-01-20 11:09:33.542797,207897216,0.01237456,0.02002602,0.01354242,0.02841291,0.004716623
17272,2023-01-20 11:09:33.642821,207997229,0.01179487,0.02197478,0.01345151,0.02727115,0.004055592
17305,2023-01-20 11:09:33.742954,208097340,0.01067468,0.02165882,0.01259473,0.02573679,0.003981901
17339,2023-01-20 11:09:33.842991,208197361,0.009670666,0.01977586,0.01247408,0.0286356,0.007691066
17371,2023-01-20 11:09:33.942954,208297317,0.01039136,0.021025,0.0133811,0.03091388,0.01221795
17403,2023-01-20 11:09:34.042890,208397248,0.01076662,0.02179983,0.01276783,0.02913594,0.01468452
17434,2023-01-20 11:09:34.142893,208497248,0.01010516,0.0221688,0.01189028,0.0266435,0.01550539
17468,2023-01-20 11:09:34.242929,208597283,0.009363175,0.02076873,0.01149609,0.02750024,0.01567657
17502,2023-01-20 11:09:34.342957,208697313,0.008735609,0.01974449,0.01175702,0.03012192,0.01501118
17534,2023-01-20 11:09:34.443171,208797538,0.008471614,0.01918793,0.01219461,0.03157901,0.01395388
17565,2023-01-20 11:09:34.542840,208897231,0.009255763,0.02245754,0.01211428,0.03088588,0.01297785
17599,2023-01-20 11:09:34.642846,208997243,0.008870243,0.02227902,0.0108986,0.02765176,0.01238327
17632,2023-01-20 11:09:34.742837,209097215,0.008745346,0.02220526,0.0110053,0.02689528,0.01165132
17666,2023-01-20 11:09:34.842891,209197256,0.007948291,0.01988201,0.01174473,0.02979991,0.01110954
17698,2023-01-20 11:09:34.942876,209297237,0.008412929,0.02088969,0.01223461,0.03119954,0.01129059
17730,2023-01-20 11:09:35.042958,209397316,0.008819927,0.02183695,0.01106611,0.02816879,0.01225297
17761,2023-01-20 11:09:35.143013,209497372,0.009613986,0.02249949,0.01057591,0.02630123,0.01476844
17795,2023-01-20 11:09:35.242848,209597221,0.008873372,0.02067278,0.01174489,0.02868935,0.01781557
17829,2023-01-20 11:09:35.342943,209697346,0.008446305,0.01870434,0.01352093,0.03301177,0.02023336
17861,2023-01-20 11:09:35.443099,209797511,0.008368721,0.01877994,0.01337072,0.03448693,0.02161105
17894,2023-01-20 11:09:35.542854,209897249,0.007771336,0.01814784,0.01294877,0.03438351,0.02096691
17927,2023-01-20 11:09:35.642869,209997251,0.007825497,0.01849824,0.0127472,0.0329253,0.01886483
17960,2023-01-20 11:09:35.742960,210097333,0.00839573,0.02107112,0.01232424,0.03130498,0.01658074
17994,2023-01-20 11:09:35.842885,210197260,0.008515367,0.02144471,0.01105895,0.02826056,0.01554059
18026,2023-01-20 11:09:35.942850,210297240,0.008101976,0.02079681,0.0111208,0.02847431,0.01602502
18058,2023-01-20 11:09:36.042825,210397214,0.007554781,0.01960353,0.0129885,0.03035805,0.01694304
18089,2023-01-20 11:09:36.142880,210497246,0.007920853,0.01958587,0.01231485,0.030153,0.01845927
18123,2023-01-20 11:09:36.242872,210597225,0.008850299,0.02088065,0.01235575,0.03056824,0.01977644
18157,2023-01-20 11:09:36.343014,210697367,0.008661351,0.02076869,0.01369047,0.02864785,0.02081582
18189,2023-01-20 11:09:36.439113,210797344,0.009388602,0.02148735,0.01312502,0.02729118,0.02106556
18220,2023-01-20 11:09:36.530003,210897245,0.009408249,0.02240231,0.01267858,0.02547629,0.01959667
18253,2023-01-20 11:09:36.623037,210997218,0.008649677,0.02129717,0.01170473,0.02342947,0.0174285
18286,2023-01-20 11:09:36.723046,211097224,0.009068278,0.02159624,0.01078249,0.02309261,0.0151352
18320,2023-01-20 11:09:36.823152,211197324,0.01220384,0.01991616,0.01214631,0.02403939,0.0127365
18352,2023-01-20 11:09:36.923160,211297318,0.01127844,0.0207921,0.01147533,0.02309759,0.0104426
18384,2023-01-20 11:09:37.023164,211397315,0.0118534,0.02013118,0.01121912,0.02319806,0.008590424
18415,2023-01-20 11:09:37.123147,211497314,0.01157416,0.01964322,0.01052875,0.02359384,0.007041432
18449,2023-01-20 11:09:37.223025,211597212,0.01074527,0.02051377,0.01007525,0.02353506,0.005889265
18483,2023-01-20 11:09:37.323097,211697317,0.009775312,0.01947339,0.01012686,0.02534617,0.005456768
18515,2023-01-20 11:09:37.425647,211797347,0.009337902,0.02095092,0.01026117,0.0264261,0.005880704
18546,2023-01-20 11:09:37.536537,211897234,0.009308672,0.02146921,0.009932171,0.02421209,0.007234287
18579,2023-01-20 11:09:37.638935,211997219,0.008367338,0.01972167,0.011506,0.02636313,0.009619679
18612,2023-01-20 11:09:37.729975,212097340,0.008572268,0.01938107,0.01263663,0.028777,0.01153084
18646,2023-01-20 11:09:37.822982,212197328,0.008652043,0.02073427,0.01227977,0.0299113,0.01193272
18678,2023-01-20 11:09:37.922915,212297243,0.008794693,0.02165496,0.0126243,0.02711149,0.01133255
18710,2023-01-20 11:09:38.022905,212397222,0.008686014,0.02108793,0.01191128,0.02672878,0.00981547
18741,2023-01-20 11:09:38.122988,212497316,0.008061679,0.01949937,0.01274196,0.02950508,0.008070182
18775,2023-01-20 11:09:38.222888,212597229,0.008506786,0.02110854,0.01188759,0.02745246,0.006939369
18809,2023-01-20 11:09:38.323006,212697363,0.008264652,0.02069058,0.01167163,0.02785599,0.006636123
18841,2023-01-20 11:09:38.422868,212797241,0.008880262,0.02002339,0.01133406,0.02828272,0.006568121
18872,2023-01-20 11:09:38.522829,212897218,0.008931662,0.02117485,0.01159301,0.02586591,0.006302066
18905,2023-01-20 11:09:38.622827,212997225,0.008689973,0.02052607,0.01200938,0.02888389,0.005764621
18938,2023-01-20 11:09:38.722845,213097231,0.009020254,0.02175014,0.01125519,0.02669143,0.004995709
18972,2023-01-20 11:09:38.822873,213197246,0.009414109,0.02211162,0.01243661,0.02905978,0.004131805
19004,2023-01-20 11:09:38.922947,213297309,0.009289112,0.02272073,0.01290135,0.03040432,0.004179536
19036,2023-01-20 11:09:39.022957,213397311,0.009984849,0.02401966,0.0119431,0.02726627,0.0070212
19067,2023-01-20 11:09:39.122878,213497236,0.008851643,0.02134153,0.0130977,0.0297136,0.011582
19101,2023-01-20 11:09:39.222857,213597225,0.008982643,0.02059272,0.01401484,0.03384753,0.01515415
19135,2023-01-20 11:09:39.322921,213697312,0.01091722,0.02221804,0.0135904,0.03368364,0.01804971
19167,2023-01-20 11:09:39.422844,213797253,0.01013871,0.02227683,0.01279444,0.03292614,0.02013042
19198,2023-01-20 11:09:39.522836,213897241,0.0106801,0.02420619,0.01195902,0.03050089,0.02081546
19231,2023-01-20 11:09:39.622913,213997312,0.01014545,0.02456489,0.010487,0.02722017,0.02100331
19266,2023-01-20 11:09:39.722842,214097229,0.01028836,0.02552812,0.01027869,0.02491387,0.02118986
19302,2023-01-20 11:09:39.822879,214197253,0.009252853,0.0235632,0.01008099,0.02515264,0.02224446
19334,2023-01-20 11:09:39.922959,214297322,0.008961936,0.02102311,0.01181632,0.02957118,0.02357234
19366,2023-01-20 11:09:40.022893,214397248,0.008241778,0.0195679,0.01328933,0.03299038,0.02491137
19397,2023-01-20 11:09:40.122974,214497333,0.008001576,0.01827808,0.01585346,0.03525314,0.02515299
19431,2023-01-20 11:09:40.222879,214597242,0.007488409,0.01793711,0.01604841,0.03872787,0.02367185
19465,2023-01-20 11:09:40.323000,214697365,0.007046604,0.01733006,0.01946008,0.04087809,0.02157264
19497,2023-01-20 11:09:40.422953,214797325,0.008132058,0.01906126,0.01813719,0.03929397,0.0191792
19530,2023-01-20 11:09:40.522853,214897245,0.00940938,0.01975991,0.01674063,0.03446881,0.0165527
19563,2023-01-20 11:09:40.622851,214997255,0.01025903,0.01949041,0.01685839,0.03427014,0.01400276
19596,2023-01-20 11:09:40.722847,215097234,0.01002608,0.02158595,0.01683113,0.03676575,0.01171446
19630,2023-01-20 11:09:40.822944,215197315,0.00965415,0.02127279,0.01447065,0.0324148,0.01006142
19662,2023-01-20 11:09:40.923005,215297365,0.008810967,0.01968573,0.01471432,0.03504043,0.009558707
19694,2023-01-20 11:09:41.022893,215397244,0.008361892,0.01997859,0.01420947,0.03528925,0.01017217
19725,2023-01-20 11:09:41.122966,215497319,0.008178256,0.02031955,0.01269208,0.03140453,0.01147606
19759,2023-01-20 11:09:41.222866,215597227,0.009099822,0.01991544,0.01343086,0.03149229,0.01326533
19793,2023-01-20 11:09:41.322862,215697255,0.008282521,0.01781395,0.01444225,0.03678779,0.01462741
19825,2023-01-20 11:09:41.422895,215797311,0.007891611,0.01735422,0.01521687,0.03914975,0.01446961
19856,2023-01-20 11:09:41.522826,215897234,0.008569205,0.01900142,0.01460842,0.03738954,0.01400918
19889,2023-01-20 11:09:41.622909,215997309,0.009243941,0.021234,0.01291593,0.03328195,0.01377261
19922,2023-01-20 11:09:41.722836,216097228,0.009071607,0.02131445,0.01182015,0.03096125,0.01363436
19956,2023-01-20 11:09:41.822869,216197256,0.008792398,0.01918814,0.01266558,0.03387612,0.01397846
19988,2023-01-20 11:09:41.922866,216297257,0.008136343,0.01822357,0.0133786,0.03679423,0.01398734
20020,2023-01-20 11:09:42.022824,216397214,0.008041441,0.01926526,0.01342217,0.03741017,0.01332417
20051,2023-01-20 11:09:42.122940,216497313,0.008153475,0.02064521,0.0128613,0.03328642,0.01192135
20085,2023-01-20 11:09:42.222950,216597312,0.009511643,0.02082202,0.01209617,0.03152575,0.009933803
20119,2023-01-20 11:09:42.322936,216697306,0.008832137,0.01965827,0.01280874,0.03451301,0.008395837
20151,2023-01-20 11:09:42.422877,216797257,0.008920899,0.02058347,0.01151256,0.03081062,0.007970144
20182,2023-01-20 11:09:42.522830,216897224,0.008015592,0.01885217,0.01244525,0.03428539,0.008460161
20215,2023-01-20 11:09:42.622818,216997221,0.009422746,0.02204384,0.01161235,0.03125725,0.00955263
20248,2023-01-20 11:09:42.722859,217097253,0.01024815,0.02075318,0.01212022,0.03337555,0.01020303
20282,2023-01-20 11:09:42.822934,217197317,0.01073632,0.02042513,0.01144757,0.0315724,0.01038552
20314,2023-01-20 11:09:42.923012,217297378,0.01029442,0.02183592,0.01240831,0.03336236,0.009522806
20346,2023-01-20 11:09:43.022889,217397242,0.01006162,0.0216366,0.01209545,0.03246148,0.008112266
20377,2023-01-20 11:09:43.122959,217497313,0.009629617,0.02123568,0.0124318,0.03402954,0.006657109
20411,2023-01-20 11:09:43.222870,217597228,0.009430846,0.0215725,0.01136233,0.03109444,0.005446801
20445,2023-01-20 11:09:43.322970,217697342,0.008442447,0.01954255,0.01300092,0.03398453,0.004469359
20476,2023-01-20 11:09:43.422933,217797317,0.01096483,0.02231202,0.01274063,0.03167142,0.004195739
20507,2023-01-20 11:09:43.522934,217897328,0.01008672,0.02194475,0.01390129,0.03221979,0.005426574
20540,2023-01-20 11:09:43.622833,217997232,0.01016255,0.0230026,0.01340168,0.03052666,0.007103119
20573,2023-01-20 11:09:43.722846,218097234,0.009040189,0.02050472,0.01591829,0.02967517,0.0086239
20607,2023-01-20 11:09:43.822863,218197245,0.009234321,0.02160936,0.02047341,0.02834058,0.01068525
20639,2023-01-20 11:09:43.922923,218297316,0.008298043,0.0199025,0.02284303,0.02711711,0.01250075
20671,2023-01-20 11:09:44.022826,218397222,0.008127539,0.02066599,0.02090468,0.02569982,0.01235214
20702,2023-01-20 11:09:44.122873,218497246,0.007875309,0.02025136,0.01854382,0.02740505,0.01061071
20736,2023-01-20 11:09:44.222959,218597317,0.008620083,0.02119947,0.01647284,0.02732907,0.008856755
20770,2023-01-20 11:09:44.322941,218697309,0.009505957,0.02146758,0.01425342,0.02486469,0.00830662
20802,2023-01-20 11:09:44.422863,218797248,0.009437837,0.02078616,0.01476046,0.0257156,0.008533049
20833,2023-01-20 11:09:44.522802,218897225,0.009297283,0.01930774,0.01485533,0.02742002,0.008553127
20866,2023-01-20 11:09:44.622778,218997221,0.009311076,0.01989393,0.01528001,0.02690138,0.008304543
20899,2023-01-20 11:09:44.722844,219097246,0.01032246,0.02017297,0.01395975,0.0253094,0.007453201
20934,2023-01-20 11:09:44.823000,219197368,0.009782585,0.02042838,0.01284453,0.02442706,0.006422969
20966,2023-01-20 11:09:44.922899,219297257,0.009611175,0.01978564,0.01268825,0.02803817,0.005566738
20998,2023-01-20 11:09:45.022885,219397236,0.009491081,0.02158904,0.01207465,0.02894826,0.004848713
21029,2023-01-20 11:09:45.122898,219497248,0.01065178,0.02196615,0.01057931,0.02594674,0.004353375
21063,2023-01-20 11:09:45.222869,219597221,0.009475406,0.02053877,0.01078118,0.02786245,0.004315948
21097,2023-01-20 11:09:45.322897,219697262,0.00970511,0.01988014,0.01108757,0.02929042,0.004485372
21129,2023-01-20 11:09:45.422893,219797266,0.009575953,0.02136131,0.01045174,0.02797348,0.005008609
21162,2023-01-20 11:09:45.522964,219897328,0.009546287,0.02154779,0.009552093,0.02557323,0.005897935
21195,2023-01-20 11:09:45.620786,219997227,0.008685105,0.02055222,0.01078012,0.02846049,0.006188376
21228,2023-01-20 11:09:45.711668,220097219,0.008670269,0.02068192,0.01130334,0.0298024,0.005624376
21262,2023-01-20 11:09:45.802851,220197258,0.009466966,0.02211791,0.01044267,0.0282588,0.004955414
21294,2023-01-20 11:09:45.902862,220297307,0.009425825,0.02312531,0.01014589,0.02727685,0.004096549
21326,2023-01-20 11:09:46.002769,220397250,0.008600794,0.02087164,0.01090757,0.02984065,0.003425527
21357,2023-01-20 11:09:46.102891,220497338,0.009327318,0.02351757,0.01121628,0.0293592,0.002857751
21391,2023-01-20 11:09:46.202824,220597238,0.008643689,0.0221468,0.01028804,0.02707652,0.002433575
21425,2023-01-20 11:09:46.302825,220697253,0.00883567,0.02092846,0.01132742,0.02991027,0.002328668
21457,2023-01-20 11:09:46.402808,220797250,0.008905622,0.02245211,0.01240484,0.02981311,0.003798586
21488,2023-01-20 11:09:46.502785,220897238,0.008766316,0.02256758,0.01249359,0.02684709,0.005984239
21521,2023-01-20 11:09:46.602782,220997245,0.009776912,0.02196386,0.01208836,0.0276145,0.008083011
21554,2023-01-20 11:09:46.702856,221097311,0.009751602,0.01998317,0.0120879,0.030107,0.009853655
21588,2023-01-20 11:09:46.802925,221197373,0.009103173,0.01904905,0.01314428,0.03410681,0.01136676
21620,2023-01-20 11:09:46.902852,221297321,0.008809571,0.0196705,0.01324876,0.03449383,0.01151797
21652,2023-01-20 11:09:47.002809,221397299,0.008983737,0.02158936,0.0124426,0.03277627,0.01087293
21683,2023-01-20 11:09:47.102806,221497302,0.009430303,0.02290183,0.0120268,0.02920764,0.01051706
21717,2023-01-20 11:09:47.202734,221597237,0.008934527,0.02189302,0.01139982,0.02636284,0.01073656
21751,2023-01-20 11:09:47.302727,221697256,0.008530312,0.02093469,0.01155175,0.0281168,0.01127264
21783,2023-01-20 11:09:47.402799,221797354,0.007634232,0.01889164,0.01214788,0.03146814,0.01211474
21814,2023-01-20 11:09:47.502625,221897217,0.007470871,0.01740794,0.0150352,0.03445374,0.01310969
21896,2023-01-20 11:09:47.602598,221997227,0.008788933,0.01850256,0.01509583,0.035482,0.01348369
21929,2023-01-20 11:09:47.702615,222097225,0.008699303,0.01986355,0.01413887,0.03210525,0.01289343
21963,2023-01-20 11:09:47.802716,222197306,0.008343584,0.02032037,0.01289394,0.02838731,0.01157268
21995,2023-01-20 11:09:47.902680,222297237,0.008574929,0.01855886,0.01469901,0.03010135,0.0105512
22027,2023-01-20 11:09:48.002711,222397236,0.008428023,0.01772707,0.01605847,0.03587096,0.01034332
22058,2023-01-20 11:09:48.102758,222497323,0.009513686,0.02027611,0.01800337,0.03364364,0.009898835
22092,2023-01-20 11:09:48.202624,222597228,0.01060459,0.02174615,0.01684967,0.03061987,0.009416955
22126,2023-01-20 11:09:48.302695,222697306,0.01096953,0.01959545,0.01971708,0.03530149,0.009319405
22158,2023-01-20 11:09:48.402632,222797251,0.01016577,0.02034615,0.0187492,0.03334017,0.009761388
