LineNo,UTC_Approx,TimeUS,ThI,ABst,ThO,ThH,DAlt,Alt,BAlt,DSAlt,SAlt,TAlt,DCRt,CRt
672,2023-01-20 11:08:47.421614,161676338,-2.712011E-06,-1.872877E-09,0,0.3700503,0.4925524,0.4925524,0.64,NaN,0,0.01310179,0,0
1025,2023-01-20 11:08:47.516596,161776319,-2.712011E-06,-1.873104E-09,0,0.3700503,0.4961751,0.4961751,0.65,NaN,0,0.01678547,0,0
1141,2023-01-20 11:08:47.631128,161893642,-2.712011E-06,-1.873104E-09,0,0.3700503,0.4985459,0.4985459,0.66,NaN,0,0.02049902,0,0
1404,2023-01-20 11:08:47.739060,161996031,-2.712011E-06,-1.882881E-09,0,0.3700503,0.4984185,0.4984185,0.65,NaN,0,0.02122608,0,0
1823,2023-01-20 11:08:47.842622,162096566,-2.712011E-06,-1.89516E-09,0,0.3700503,0.5004557,0.5004557,0.65,NaN,0,0.02460608,0,0
1868,2023-01-20 11:08:47.942380,162196566,-2.712011E-06,-1.905846E-09,0,0.3700503,0.5039336,0.5039336,0.67,NaN,0,0.02851126,0,0
1915,2023-01-20 11:08:48.042230,162296554,-2.712011E-06,-1.90721E-09,0,0.3700503,0.5066692,0.5066692,0.65,NaN,0,0.0321624,0,0
1961,2023-01-20 11:08:48.142216,162396536,-2.712011E-06,-1.910394E-09,0,0.3700503,0.5088332,0.5088332,0.64,NaN,0,0.03560814,0,0
2014,2023-01-20 11:08:48.242241,162496544,-2.712011E-06,-1.909029E-09,0,0.3700503,0.510897,0.510897,0.61,NaN,0,0.03895363,0,0
2055,2023-01-20 11:08:48.342304,162596574,-2.712011E-06,-1.909484E-09,0,0.3700503,0.512727,0.512727,0.61,NaN,0,0.04157713,0,0
2111,2023-01-20 11:08:48.438455,162696528,-2.712011E-06,-1.910621E-09,0,0.3700503,0.5142857,0.5142857,0.62,NaN,0,0.04453966,0,0
2172,2023-01-20 11:08:48.529440,162796557,-2.712011E-06,-1.911985E-09,0,0.3700503,0.5157583,0.5157583,0.6,NaN,0,0.04650047,0,0
2232,2023-01-20 11:08:48.622472,162896599,-2.712011E-06,-1.90812E-09,0,0.3700503,0.5168285,0.5168285,0.6,NaN,0,0.04842517,0,0
2286,2023-01-20 11:08:48.722418,162996525,-2.712011E-06,-1.901981E-09,0,0.3700503,0.5172745,0.5172745,0.6,NaN,0,0.04966465,0,0
2341,2023-01-20 11:08:48.822467,163096559,-2.712011E-06,-1.9038E-09,0,0.3700503,0.5174465,0.5174465,0.61,NaN,0,0.05008081,0,0
2395,2023-01-20 11:08:48.922469,163196560,-2.712011E-06,-1.897433E-09,0,0.3700503,0.517074,0.517074,0.59,NaN,0,0.04983041,0,0
2437,2023-01-20 11:08:49.022451,163296545,-2.712011E-06,-1.894477E-09,0,0.3700503,0.5159099,0.5159099,0.6,NaN,0,0.04903242,0,0
2481,2023-01-20 11:08:49.122443,163396553,-2.712011E-06,-1.892886E-09,0,0.3700503,0.5124584,0.5124584,0.62,NaN,0,0.0462524,0,0
2523,2023-01-20 11:08:49.224901,163496549,-2.712011E-06,-1.892204E-09,0,0.3700503,0.5100386,0.5100386,0.63,NaN,0,0.04456499,0,0
2563,2023-01-20 11:08:49.335936,163596548,-2.712011E-06,-1.896069E-09,0,0.3700503,0.5080797,0.5080797,0.62,NaN,0,0.04346058,0,0
2604,2023-01-20 11:08:49.442285,163696557,-2.712011E-06,-1.896069E-09,0,0.3700503,0.5062889,0.5062889,0.61,NaN,0,0.0424023,0,0
2644,2023-01-20 11:08:49.542264,163796601,-2.712011E-06,-1.887429E-09,0,0.3700503,0.504741,0.504741,0.61,NaN,0,0.04183087,0,0
2684,2023-01-20 11:08:49.638381,163896540,-2.712011E-06,-1.887429E-09,0,0.3700503,0.5022631,0.5022631,0.59,NaN,0,0.04020748,0,0
2722,2023-01-20 11:08:49.729435,163996570,-2.712011E-06,-1.884473E-09,0,0.3700503,0.4992517,0.4992517,0.55,NaN,0,0.03798953,0,0
2765,2023-01-20 11:08:49.822449,164096545,-2.712011E-06,-1.885837E-09,0,0.3700503,0.4970453,0.4970453,0.57,NaN,0,0.03749207,0,0
2803,2023-01-20 11:08:49.922419,164196539,-2.712011E-06,-1.882881E-09,0,0.3700503,0.4956267,0.4956267,0.53,NaN,0,0.03631762,0,0
2845,2023-01-20 11:08:50.022417,164296547,-2.712011E-06,-1.884473E-09,0,0.3700503,0.4940476,0.4940476,0.5,NaN,0,0.03595927,0,0
2884,2023-01-20 11:08:50.122454,164396546,-2.712011E-06,-1.882654E-09,0,0.3700503,0.4916456,0.4916456,0.52,NaN,0,0.03386238,0,0
2927,2023-01-20 11:08:50.222495,164496567,-2.712011E-06,-1.878334E-09,0,0.3700503,0.4890541,0.4890541,0.55,NaN,0,0.03139296,0,0
2965,2023-01-20 11:08:50.322435,164596548,-2.712011E-06,-1.877424E-09,0,0.3700503,0.4860092,0.4860092,0.55,NaN,0,0.02883634,0,0
3005,2023-01-20 11:08:50.422385,164696540,-2.712011E-06,-1.88038E-09,0,0.3700503,0.4818705,0.4818705,0.56,NaN,0,0.02500287,0,0
3047,2023-01-20 11:08:50.522331,164796533,-2.712011E-06,-1.875151E-09,0,0.3700503,0.4743477,0.4743477,0.55,NaN,0,0.01796827,-1,-1
3087,2023-01-20 11:08:50.622311,164896537,-2.712011E-06,-1.87606E-09,0,0.3700503,0.4673579,0.4673579,0.49,NaN,0,0.01116166,-1,-1
3125,2023-01-20 11:08:50.722374,164996542,-2.712011E-06,-1.859689E-09,0,0.3700503,0.4584121,0.4584121,0.49,NaN,0,0.002765149,-1,-1
3166,2023-01-20 11:08:50.822392,165096530,-2.712011E-06,-1.833769E-09,0,0.3700503,0.4494173,0.4494173,0.49,NaN,0,-0.005680352,-2,-2
3204,2023-01-20 11:08:50.922392,165196594,-2.712011E-06,-1.836042E-09,0,0.3700503,0.4376843,0.4376843,0.44,NaN,0,-0.01649782,-2,-2
3246,2023-01-20 11:08:51.022297,165296546,-2.712011E-06,-1.845137E-09,0,0.3700503,0.425053,0.425053,0.47,NaN,0,-0.02790844,-2,-2
3284,2023-01-20 11:08:51.122298,165396532,-2.712011E-06,-1.855142E-09,0,0.3700503,0.407158,0.407158,0.53,NaN,0,-0.04476586,-3,-3
3327,2023-01-20 11:08:51.222374,165496607,-2.712011E-06,-1.847411E-09,0,0.3700503,0.3911358,0.3911358,0.36,NaN,0,-0.05968931,-3,-3
3365,2023-01-20 11:08:51.322285,165596562,-2.712011E-06,-1.841499E-09,0,0.3700503,0.371242,0.371242,0.34,NaN,0,-0.07860667,-3,-3
3405,2023-01-20 11:08:51.422251,165696566,-2.712011E-06,-1.85355E-09,0,0.3700503,0.3522867,0.3522867,0.38,NaN,0,-0.09664637,-4,-4
3445,2023-01-20 11:08:51.522230,165796561,-2.712011E-06,-1.842864E-09,0,0.3700503,0.3297184,0.3297184,0.44,NaN,0,-0.1181771,-5,-5
3486,2023-01-20 11:08:51.622216,165896558,-2.712011E-06,-1.84059E-09,0,0.3700503,0.3096932,0.3096932,0.45,NaN,0,-0.1378972,-5,-5
3523,2023-01-20 11:08:51.722214,165996549,-2.712011E-06,-1.823082E-09,0,0.3700503,0.2876307,0.2876307,0.45,NaN,0,-0.1597765,-6,-6
3566,2023-01-20 11:08:51.822244,166096575,-2.712011E-06,-1.832177E-09,0,0.3700503,0.2682185,0.2682185,0.34,NaN,0,-0.1790057,-6,-6
3604,2023-01-20 11:08:51.922237,166196571,-2.712011E-06,-1.848548E-09,0,0.3700503,0.2457033,0.2457033,0.4,NaN,0,-0.2007884,-6,-6
3646,2023-01-20 11:08:52.022218,166296553,-2.712011E-06,-1.829449E-09,0,0.3700503,0.2264393,0.2264393,0.46,NaN,0,-0.2198693,-7,-7
3682,2023-01-20 11:08:52.122236,166396563,-2.712011E-06,-1.84059E-09,0,0.3700503,0.2075785,0.2075785,0.46,NaN,0,-0.2379367,-7,-7
3717,2023-01-20 11:08:52.222270,166496592,-2.712011E-06,-1.820581E-09,0,0.3700503,0.1913698,0.1913698,0.47,NaN,0,-0.2537181,-8,-8
3747,2023-01-20 11:08:52.322226,166596551,-2.712011E-06,-1.826265E-09,0,0.3700503,0.1742457,0.1742457,0.47,NaN,0,-0.2708422,-8,-8
3780,2023-01-20 11:08:52.422252,166696585,-2.712011E-06,-1.822173E-09,0,0.3700503,0.16108,0.16108,0.5,NaN,0,-0.2838858,-8,-8
3812,2023-01-20 11:08:52.522244,166796602,-2.712011E-06,-1.828994E-09,0,0.3700503,0.1500735,0.1500735,0.51,NaN,0,-0.2944041,-8,-8
3845,2023-01-20 11:08:52.622172,166896543,-2.712011E-06,-1.837634E-09,0,0.3700503,0.1413273,0.1413273,0.5,NaN,0,-0.3031502,-8,-8
3875,2023-01-20 11:08:52.722209,166996547,-2.712011E-06,-1.810122E-09,0,0.3700503,0.1330041,0.1330041,0.54,NaN,0,-0.3115955,-9,-9
3910,2023-01-20 11:08:52.822231,167096543,-2.712011E-06,-1.803983E-09,0,0.3700503,0.1263778,0.1263778,0.49,NaN,0,-0.3182218,-8,-8
3940,2023-01-20 11:08:52.922228,167196538,-2.712011E-06,-1.818535E-09,0,0.3700503,0.119705,0.119705,0.5,NaN,0,-0.3247725,-9,-9
3975,2023-01-20 11:08:53.022251,167296567,-2.712011E-06,-1.819899E-09,0,0.3700503,0.1134569,0.1134569,0.58,NaN,0,-0.3304103,-9,-9
4005,2023-01-20 11:08:53.122191,167396538,-2.712011E-06,-1.823992E-09,0,0.3700503,0.1058144,0.1058144,0.54,NaN,0,-0.3374425,-9,-9
4040,2023-01-20 11:08:53.222227,167496596,0.01624689,1.086108E-05,0.002662892,0.3700503,0.09953185,0.09953185,0.51,NaN,0,-0.3434198,-9,-9
4070,2023-01-20 11:08:53.322242,167596601,0.066246,4.434586E-05,0.03319595,0.3700503,0.09240618,0.09240618,0.47,NaN,0,-0.3508506,-10,-10
4103,2023-01-20 11:08:53.422227,167696587,0.1162452,7.825345E-05,0.07757053,0.3700503,0.08544167,0.08544167,0.47,NaN,0,-0.3578151,-9,-9
4135,2023-01-20 11:08:53.522202,167796603,0.1662448,0.0001103878,0.1259609,0.3700503,0.07631559,0.07631559,0.49,NaN,0,-0.3669412,-9,-9
4168,2023-01-20 11:08:53.622199,167896624,0.2162443,0.0001370907,0.1755139,0.3700503,0.06817728,0.06817728,0.57,NaN,0,-0.3756899,-10,-10
4198,2023-01-20 11:08:53.722208,167996601,0.2662441,0.0001607239,0.2253997,0.3700503,0.05815314,0.05815314,0.4,NaN,0,-0.3852257,-11,-11
4233,2023-01-20 11:08:53.822248,168096620,0.3162441,0.0001695752,0.275381,0.3700503,0.04863601,0.04863601,0.4,NaN,0,-0.3946208,-9,-9
4263,2023-01-20 11:08:53.922236,168196624,0.366244,0.0001218617,0.3253635,0.3700503,0.03793558,0.03793558,0.37,NaN,0,-0.404894,-9,-9
4299,2023-01-20 11:08:54.022250,168296654,0.416244,5.826354E-05,0.375294,0.3700503,0.0334431,0.0334431,0,NaN,0,-0.4093865,0,0
4330,2023-01-20 11:08:54.122192,168396609,0.3477056,0.000110507,0.379247,0.3700503,0.04040392,0.0419462,-0.26,NaN,0,-0.4008834,11,18
4365,2023-01-20 11:08:54.222163,168496585,0.2991457,0.0001633167,0.3333784,0.3700503,0.05562374,0.06607916,0.48,NaN,0,-0.3772997,16,35
4395,2023-01-20 11:08:54.322246,168596643,0.2877551,8.997321E-05,0.3035013,0.3700503,0.0740758,0.1034482,0.91,NaN,0,-0.3409072,16,42
4428,2023-01-20 11:08:54.422215,168696601,0.3025036,2.014637E-05,0.30175,0.3700503,0.09416021,0.1523974,0.9,NaN,0,-0.2930567,15,44
4460,2023-01-20 11:08:54.522185,168796609,0.3189027,2.706051E-05,0.3059288,0.3700503,0.1167411,0.206521,1.17,NaN,0,-0.2393603,14,41
4493,2023-01-20 11:08:54.622183,168896632,0.325914,8.574128E-05,0.3257674,0.3700503,0.1417003,0.2593525,1.28,NaN,0,-0.1875665,14,35
4523,2023-01-20 11:08:54.722168,168996601,0.2916193,0.0002395213,0.3107167,0.3700503,0.1694525,0.3146009,1.28,NaN,0,-0.1329284,14,38
4558,2023-01-20 11:08:54.822193,169096611,0.3039345,0.0005707145,0.2994129,0.3700503,0.2005224,0.3741107,1.52,NaN,0,-0.07396787,15,35
4588,2023-01-20 11:08:54.922240,169196646,0.3224719,0.00106445,0.3113481,0.3700503,0.2343365,0.4351127,1.6,NaN,0,-0.01345411,14,33
4623,2023-01-20 11:08:55.022210,169296606,0.3218279,0.001355767,0.3184956,0.3700503,0.2706311,0.4927987,1.63,NaN,0,0.04386559,15,31
4653,2023-01-20 11:08:55.122222,169396608,0.3386223,0.001884282,0.3292812,0.3700503,0.3101093,0.5471115,1.66,NaN,0,0.09787324,17,27
4688,2023-01-20 11:08:55.222231,169496610,0.3364004,0.002243549,0.3370518,0.3700503,0.3534489,0.6216663,1.74,NaN,0,0.1726111,18,26
4718,2023-01-20 11:08:55.322228,169596613,0.3567637,0.002840966,0.3474173,0.3700503,0.4008274,0.7170166,1.82,NaN,0,0.2681445,17,23
4751,2023-01-20 11:08:55.422223,169696618,0.3484908,0.002836823,0.3576741,0.3700503,0.4526273,0.8167188,1.97,NaN,0,0.3680908,18,25
4785,2023-01-20 11:08:55.522190,169796613,0.3421541,0.002108604,0.3464305,0.3700503,0.5099146,0.924589,2.06,NaN,0,0.4762053,18,28
4818,2023-01-20 11:08:55.622184,169896622,0.3624171,0.00189814,0.352306,0.3700503,0.5730091,1.034392,2.01,NaN,0,0.5863138,19,27
4848,2023-01-20 11:08:55.722266,169996675,0.363462,0.001730561,0.3634216,0.3700503,0.6419042,1.141064,1.98,NaN,0,0.6940229,21,27
4883,2023-01-20 11:08:55.822222,170096609,0.3305809,0.001396716,0.3512058,0.3700503,0.7154072,1.241959,1.98,NaN,0,0.7953457,22,31
4913,2023-01-20 11:08:55.922244,170196634,0.3148298,0.001066804,0.3289095,0.3700503,0.7912362,1.34156,2.02,NaN,0,0.8964111,21,34
4948,2023-01-20 11:08:56.022244,170296635,0.3320891,0.0009756386,0.3262817,0.3700503,0.8689284,1.434323,2.1,NaN,0,0.9900283,21,31
4978,2023-01-20 11:08:56.122215,170396599,0.3311803,0.0009964705,0.3327568,0.3700503,0.9473526,1.51829,2.25,NaN,0,1.074545,21,29
5013,2023-01-20 11:08:56.222239,170496618,0.3457325,0.0008172095,0.3362101,0.3700503,1.026343,1.59703,2.26,NaN,0,1.154078,23,29
5043,2023-01-20 11:08:56.322250,170596631,0.3614593,0.0006503761,0.3529931,0.3700503,1.109206,1.673065,2.25,NaN,0,1.230968,29,29
5076,2023-01-20 11:08:56.422225,170696615,0.3541496,0.0005384982,0.3576719,0.3700503,1.197981,1.745525,2.3,NaN,0,1.304282,36,33
5108,2023-01-20 11:08:56.522252,170796674,0.3488509,0.0005040765,0.3559075,0.3700503,1.2915,1.817606,2.37,NaN,0,1.377889,42,37
5141,2023-01-20 11:08:56.622176,170896616,0.3449334,0.0007735491,0.349365,0.3700503,1.388311,1.892804,2.47,NaN,0,1.454369,47,43
5171,2023-01-20 11:08:56.722217,170996622,0.3614491,0.0008408725,0.3535174,0.3700503,1.486999,1.970904,2.54,NaN,0,1.534117,51,45
5206,2023-01-20 11:08:56.822242,171096623,0.3562849,0.0009857118,0.3569328,0.3700503,1.587301,2.051185,2.62,NaN,0,1.615985,54,48
5236,2023-01-20 11:08:56.922235,171196624,0.3553169,0.0007282495,0.3563269,0.3700503,1.688682,2.135525,2.68,NaN,0,1.701851,57,52
5271,2023-01-20 11:08:57.022214,171296607,0.3403563,0.0004322827,0.3510079,0.3700503,1.790636,2.220673,2.79,NaN,0,1.788158,58,53
5302,2023-01-20 11:08:57.122209,171396594,0.3340938,0.0003780127,0.3392513,0.3700503,1.890019,2.30823,2.84,NaN,0,1.87718,55,56
5337,2023-01-20 11:08:57.222210,171496589,0.3768749,0.000620842,0.354042,0.3700503,1.986354,2.391499,2.94,NaN,0,1.961975,55,51
5367,2023-01-20 11:08:57.322268,171596644,0.4031668,0.0009913445,0.3862018,0.3700503,2.084038,2.468808,3.06,NaN,0,2.041176,61,50
5400,2023-01-20 11:08:57.422220,171696603,0.4030609,0.001383066,0.3965451,0.3700503,2.185436,2.546895,3.18,NaN,0,2.121277,66,54
5432,2023-01-20 11:08:57.522174,171796593,0.395227,0.001181722,0.3999873,0.3700503,2.290181,2.628629,3.33,NaN,0,2.205087,72,58
5465,2023-01-20 11:08:57.622167,171896607,0.3739736,0.0008447766,0.3878005,0.3700503,2.39774,2.717378,3.4,NaN,0,2.295727,76,64
5495,2023-01-20 11:08:57.722193,171996600,0.3587267,0.0006184578,0.3729284,0.3700503,2.506081,2.813892,3.53,NaN,0,2.393402,77,72
5530,2023-01-20 11:08:57.822293,172096675,0.3440754,0.0004194081,0.3603228,0.3700503,2.614312,2.917511,3.73,NaN,0,2.498791,77,77
5560,2023-01-20 11:08:57.922240,172196627,0.329364,0.0003834963,0.3386511,0.3700503,2.722343,3.028345,3.86,NaN,0,2.61054,77,82
5597,2023-01-20 11:08:58.022240,172296630,0.3327764,0.0006046891,0.3341254,0.3700503,2.829819,3.14478,3.93,NaN,0,2.727341,75,84
5627,2023-01-20 11:08:58.122270,172396657,0.2992921,0.001040101,0.322596,0.3700503,2.934875,3.262291,4.18,NaN,0,2.846256,70,85
5662,2023-01-20 11:08:58.222239,172496624,0.2765919,0.001427859,0.2946999,0.3700503,3.035262,3.381008,4.55,NaN,0,2.965584,62,83
5692,2023-01-20 11:08:58.322237,172596623,0.2844036,0.001444519,0.2830095,0.3700503,3.128977,3.502178,4.52,NaN,0,3.087913,52,75
5725,2023-01-20 11:08:58.422215,172696609,0.2825271,0.001551092,0.2831353,0.3700503,3.216064,3.616266,4.58,NaN,0,3.202183,44,67
5757,2023-01-20 11:08:58.522198,172796627,0.294954,0.001539737,0.2904356,0.3700503,3.298108,3.720791,4.95,NaN,0,3.306587,37,57
5790,2023-01-20 11:08:58.622168,172896616,0.3194263,0.001588136,0.301475,0.3700503,3.377096,3.818153,5.14,NaN,0,3.403826,34,50
5820,2023-01-20 11:08:58.722191,172996602,0.3506302,0.001335591,0.3301338,0.3700503,3.456549,3.908398,5.28,NaN,0,3.494133,35,39
5855,2023-01-20 11:08:58.822234,173096621,0.3213798,0.0009135008,0.3356792,0.3700503,3.537572,3.994628,5.48,NaN,0,3.580851,36,38
5885,2023-01-20 11:08:58.922226,173196629,0.3067228,0.0006017983,0.3234823,0.3700503,3.620937,4.083656,5.54,NaN,0,3.669696,37,39
5920,2023-01-20 11:08:59.020186,173296623,0.2913961,0.0001952946,0.304315,0.3700503,3.703948,4.175925,5.69,NaN,0,3.761049,34,39
5952,2023-01-20 11:08:59.111125,173396669,0.3084887,1.749396E-05,0.2988075,0.3700503,3.782255,4.265665,5.59,NaN,0,3.849142,27,35
5987,2023-01-20 11:08:59.202183,173496627,0.3108411,0.0003300905,0.3081193,0.3700503,3.856051,4.350305,5.68,NaN,0,3.932072,23,31
6017,2023-01-20 11:08:59.302172,173596613,0.3193326,0.001017392,0.3108953,0.3700503,3.92853,4.437046,5.76,NaN,0,4.016372,21,28
6050,2023-01-20 11:08:59.402467,173696658,0.3245018,0.001527607,0.3242368,0.3700503,4.002291,4.51929,5.83,NaN,0,4.096847,22,26
6081,2023-01-20 11:08:59.513529,173796608,0.3139927,0.002356231,0.3186393,0.3700503,4.076857,4.6037,6,NaN,0,4.178754,22,27
6114,2023-01-20 11:08:59.620166,173896612,0.3111037,0.003698498,0.3152622,0.3700503,4.151594,4.687098,6.12,NaN,0,4.260321,20,25
6144,2023-01-20 11:08:59.711062,173996603,0.3101856,0.00476703,0.3179869,0.3700503,4.22597,4.770238,6.12,NaN,0,4.341996,19,23
6180,2023-01-20 11:08:59.802198,174096639,0.3019808,0.005828768,0.3146521,0.3700503,4.300253,4.85133,6.12,NaN,0,4.422843,19,26
6210,2023-01-20 11:08:59.902133,174196604,0.2948256,0.005254537,0.3043775,0.3700503,4.373779,4.933011,6.07,NaN,0,4.505196,16,25
6245,2023-01-20 11:09:00.002126,174296627,0.3064002,0.004635602,0.3052528,0.3700503,4.446361,5.009361,6.1,NaN,0,4.584049,16,23
6275,2023-01-20 11:09:00.102098,174396673,0.3082991,0.003762096,0.3121438,0.3700503,4.519794,5.086939,6.11,NaN,0,4.662725,17,22
6310,2023-01-20 11:09:00.202024,174496670,0.2944209,0.003530949,0.3071356,0.3700503,4.594061,5.159204,6.21,NaN,0,4.737981,17,23
6340,2023-01-20 11:09:00.302020,174596614,0.3071804,0.003290772,0.3016702,0.3700503,4.667585,5.232347,6.23,NaN,0,4.812466,16,21
6373,2023-01-20 11:09:00.402100,174696645,0.3262233,0.003719807,0.3195534,0.3700503,4.7415,5.299388,6.31,NaN,0,4.882621,19,20
6407,2023-01-20 11:09:00.502031,174796631,0.332333,0.003957331,0.3290189,0.3700503,4.817541,5.364337,6.36,NaN,0,4.949707,22,19
6440,2023-01-20 11:09:00.602000,174896652,0.3397813,0.005025029,0.3400236,0.3700503,4.897348,5.427885,6.43,NaN,0,5.016061,28,22
6470,2023-01-20 11:09:00.701998,174996618,0.3350066,0.005019307,0.3415382,0.3700503,4.981457,5.496855,6.53,NaN,0,5.08784,34,27
6506,2023-01-20 11:09:00.802053,175096642,0.3253252,0.005315006,0.33707,0.3700503,5.069571,5.569756,6.69,NaN,0,5.164524,39,35
6536,2023-01-20 11:09:00.902073,175196686,0.3076169,0.004565537,0.3241525,0.3700503,5.160068,5.652176,6.88,NaN,0,5.251277,41,39
6571,2023-01-20 11:09:01.002010,175296644,0.3017949,0.003530145,0.317413,0.3700503,5.250297,5.738132,7.11,NaN,0,5.342666,41,42
6601,2023-01-20 11:09:01.102057,175396616,0.3091218,0.003490299,0.310525,0.3700503,5.339311,5.83111,7.07,NaN,0,5.440038,39,42
6636,2023-01-20 11:09:01.202176,175496662,0.3255122,0.004514724,0.3185906,0.3700503,5.427818,5.922678,7.07,NaN,0,5.536733,39,42
6666,2023-01-20 11:09:01.302049,175596603,0.3124914,0.005116433,0.3240507,0.3700503,5.516697,6.016877,7.4,NaN,0,5.635754,38,40
6699,2023-01-20 11:09:01.402014,175696636,0.29982,0.00541234,0.3124177,0.3700503,5.603959,6.109435,7.34,NaN,0,5.733134,35,41
6731,2023-01-20 11:09:01.501956,175796604,0.3372768,0.006900281,0.3212991,0.3700503,5.688764,6.19852,7.25,NaN,0,5.826613,33,36
6764,2023-01-20 11:09:01.602000,175896675,0.3315494,0.007543981,0.341313,0.3700503,5.773639,6.279175,7.31,NaN,0,5.911541,34,32
6794,2023-01-20 11:09:01.701922,175996592,0.3420188,0.007884532,0.3396589,0.3700503,5.858002,6.360806,7.43,NaN,0,5.997261,34,32
6830,2023-01-20 11:09:01.801969,176096633,0.3400982,0.007526755,0.3470046,0.3700503,5.943305,6.4387,7.65,NaN,0,6.078452,36,33
6860,2023-01-20 11:09:01.901947,176196607,0.3350151,0.006492496,0.3467979,0.3700503,6.029898,6.519676,7.83,NaN,0,6.162418,38,34
6895,2023-01-20 11:09:02.001977,176296633,0.3198394,0.005736142,0.3366702,0.3700503,6.11709,6.603077,7.81,NaN,0,6.248383,37,35
6925,2023-01-20 11:09:02.102019,176396663,0.3306754,0.005458117,0.3312992,0.3700503,6.20252,6.687071,7.85,NaN,0,6.334574,35,37
6960,2023-01-20 11:09:02.202035,176496667,0.3314318,0.004931957,0.3353563,0.3700503,6.286592,6.768324,8.13,NaN,0,6.417414,35,35
6990,2023-01-20 11:09:02.301998,176596626,0.3497733,0.004794389,0.34238,0.3700503,6.370335,6.850676,8.12,NaN,0,6.501718,36,33
7023,2023-01-20 11:09:02.402028,176696654,0.3585196,0.004538685,0.3618301,0.3700503,6.456628,6.932565,8.06,NaN,0,6.585743,40,36
7055,2023-01-20 11:09:02.501943,176796618,0.3411001,0.004066467,0.3498412,0.3700503,6.546107,7.019842,8.21,NaN,0,6.675035,43,42
7088,2023-01-20 11:09:02.601909,176896631,0.34734,0.00391382,0.3479711,0.3700503,6.638751,7.110396,8.17,NaN,0,6.766444,47,45
7118,2023-01-20 11:09:02.701937,176996614,0.363426,0.003265887,0.357493,0.3700503,6.735367,7.21018,8.35,NaN,0,6.867692,51,47
7153,2023-01-20 11:09:02.802015,177096648,0.35435,0.002044678,0.3651881,0.3700503,6.835555,7.30672,8.31,NaN,0,6.965331,53,48
7183,2023-01-20 11:09:02.902064,177196702,0.352053,0.001425236,0.3612618,0.3700503,6.937654,7.408265,8.42,NaN,0,7.067303,55,52
7218,2023-01-20 11:09:03.002019,177296661,0.3258159,0.0004241467,0.3441119,0.3700503,7.041304,7.509659,8.5,NaN,0,7.16827,57,57
7248,2023-01-20 11:09:03.101961,177396615,0.3017563,0.000146538,0.3179092,0.3700503,7.144516,7.619066,8.77,NaN,0,7.278593,54,62
7283,2023-01-20 11:09:03.202005,177496670,0.3342455,0.0002622902,0.3202808,0.3700503,7.245813,7.727452,8.88,NaN,0,7.38649,52,60
7313,2023-01-20 11:09:03.301949,177596618,0.3241694,0.0002468228,0.3297318,0.3700503,7.346902,7.839235,8.99,NaN,0,7.498273,52,59
7346,2023-01-20 11:09:03.401959,177696633,0.2914456,0.0001746416,0.3107079,0.3700503,7.448782,7.949198,9.11,NaN,0,7.60726,52,63
7378,2023-01-20 11:09:03.501953,177796626,0.2892996,2.932549E-05,0.2956585,0.3700503,7.551794,8.07022,9.08,NaN,0,7.726573,51,66
7411,2023-01-20 11:09:03.601959,177896631,0.3067578,4.470348E-07,0.298701,0.3700503,7.65637,8.186355,9.09,NaN,0,7.840327,52,65
7442,2023-01-20 11:09:03.701947,177996606,0.3128489,3.623962E-05,0.3082452,0.3700503,7.762455,8.302779,9.25,NaN,0,7.95492,52,63
7477,2023-01-20 11:09:03.801990,178096637,0.3288432,0.0003068149,0.3126782,0.3700503,7.869878,8.411753,9.38,NaN,0,8.06188,53,61
7507,2023-01-20 11:09:03.901951,178196611,0.3431656,0.0005913377,0.3345822,0.3700503,7.979532,8.522466,9.55,NaN,0,8.17125,56,57
7542,2023-01-20 11:09:04.001984,178296656,0.335559,0.0005452931,0.3353265,0.3700503,8.090826,8.626037,9.68,NaN,0,8.272929,58,58
7572,2023-01-20 11:09:04.101926,178396607,0.3233476,0.0004273653,0.3300248,0.3700503,8.20303,8.734639,9.98,NaN,0,8.38025,59,59
7608,2023-01-20 11:09:04.201993,178496681,0.3295453,0.0002711713,0.3282037,0.3700503,8.316051,8.843085,10.12,NaN,0,8.487049,60,60
7638,2023-01-20 11:09:04.301952,178596617,0.3322756,0.0002292693,0.3318991,0.3700503,8.430097,8.957626,10.06,NaN,0,8.600002,61,60
7671,2023-01-20 11:09:04.402014,178696656,0.3331562,0.0003705025,0.3313311,0.3700503,8.544754,9.069328,10.14,NaN,0,8.710117,62,62
7703,2023-01-20 11:09:04.502008,178796666,0.3472477,0.0004907846,0.3396675,0.3700503,8.660028,9.181803,10.25,NaN,0,8.820517,64,62
7736,2023-01-20 11:09:04.601976,178896650,0.3484515,0.0004783273,0.3467987,0.3700503,8.77739,9.290334,10.41,NaN,0,8.927339,67,62
7766,2023-01-20 11:09:04.701971,178996620,0.3372905,0.0004345775,0.3462938,0.3700503,8.896326,9.405982,10.6,NaN,0,9.041279,68,65
7801,2023-01-20 11:09:04.802026,179096652,0.3144424,0.0005277097,0.335036,0.3700503,9.01577,9.521551,10.73,NaN,0,9.15526,68,68
7831,2023-01-20 11:09:04.901960,179196622,0.2970082,0.001393229,0.3126791,0.3700503,9.132703,9.644283,10.78,NaN,0,9.276527,63,69
7866,2023-01-20 11:09:05.001967,179296665,0.2918325,0.002581537,0.2990097,0.3700503,9.243311,9.7619,10.73,NaN,0,9.392619,54,64
7896,2023-01-20 11:09:05.101944,179396619,0.2871297,0.002868772,0.2950824,0.3700503,9.346873,9.874368,10.97,NaN,0,9.504415,47,60
7931,2023-01-20 11:09:05.202030,179496682,0.3021261,0.001120329,0.2982238,0.3700503,9.443453,9.975471,11.22,NaN,0,9.60442,40,52
7961,2023-01-20 11:09:05.301970,179596608,0.2958087,0.0003715754,0.2992776,0.3700503,9.535804,10.07922,11.32,NaN,0,9.707253,36,47
7995,2023-01-20 11:09:05.402032,179696657,0.2872104,0.0003867745,0.2949264,0.3700503,9.624647,10.17494,11.33,NaN,0,9.802056,31,42
8029,2023-01-20 11:09:05.501956,179796637,0.2682213,0.0004715919,0.2830238,0.3700503,9.70846,10.26545,11.43,NaN,0,9.892383,24,37
8062,2023-01-20 11:09:05.601929,179896664,0.2629383,0.0004048347,0.2695044,0.3700503,9.784261,10.34622,11.45,NaN,0,9.973219,14,29
8092,2023-01-20 11:09:05.702012,179996686,0.2570244,0.0003074408,0.2612307,0.3700503,9.849701,10.41686,11.55,NaN,0,10.04374,2,16
8127,2023-01-20 11:09:05.802020,180096636,0.2829113,0.0003734827,0.2684965,0.3700503,9.903529,10.47172,11.76,NaN,0,10.09865,-8,3
8157,2023-01-20 11:09:05.901955,180196611,0.2885269,0.0004240572,0.2831747,0.3700503,9.947633,10.51499,11.87,NaN,0,10.14266,-16,-9
8192,2023-01-20 11:09:06.001954,180296649,0.2827215,0.0005260408,0.2843727,0.3700503,9.983893,10.54745,11.72,NaN,0,10.17505,-23,-18
8222,2023-01-20 11:09:06.101962,180396648,0.2839046,0.0007569194,0.2857124,0.3700503,10.01384,10.57406,11.74,NaN,0,10.20222,-28,-25
8257,2023-01-20 11:09:06.201975,180496652,0.2996651,0.0009506941,0.2924575,0.3700503,10.03879,10.59095,11.65,NaN,0,10.21966,-31,-30
8287,2023-01-20 11:09:06.301928,180596607,0.2969514,0.001560837,0.2952881,0.3700503,10.06017,10.59876,11.73,NaN,0,10.22661,-34,-35
8320,2023-01-20 11:09:06.401945,180696627,0.3054051,0.00278762,0.3026523,0.3700503,10.07772,10.60042,11.78,NaN,0,10.22839,-36,-39
8352,2023-01-20 11:09:06.501958,180796632,0.3111246,0.003687948,0.3096472,0.3700503,10.09208,10.60127,11.81,NaN,0,10.22973,-37,-42
8385,2023-01-20 11:09:06.601983,180896649,0.3125747,0.004645348,0.3145699,0.3700503,10.10383,10.59831,11.88,NaN,0,10.2272,-38,-43
8415,2023-01-20 11:09:06.701947,180996617,0.3116709,0.004942745,0.3168568,0.3700503,10.11344,10.60019,11.87,NaN,0,10.23042,-39,-44
8450,2023-01-20 11:09:06.801993,181096667,0.2987676,0.005205512,0.3092694,0.3700503,10.12131,10.6006,11.88,NaN,0,10.23241,-40,-42
8480,2023-01-20 11:09:06.901974,181196635,0.3166884,0.006013006,0.3137148,0.3700503,10.12775,10.60428,11.78,NaN,0,10.23824,-41,-45
8515,2023-01-20 11:09:07.001988,181296637,0.3332033,0.006871909,0.3261866,0.3700503,10.13303,10.60351,11.77,NaN,0,10.24021,-42,-46
8545,2023-01-20 11:09:07.101977,181396623,0.3515129,0.008080781,0.345646,0.3700503,10.13883,10.60019,11.48,NaN,0,10.24,-38,-45
8580,2023-01-20 11:09:07.202064,181496708,0.3739286,0.008413732,0.3642179,0.3700503,10.14829,10.59275,11.58,NaN,0,10.23635,-32,-44
8610,2023-01-20 11:09:07.301970,181596612,0.3812599,0.007003933,0.38319,0.3700503,10.16367,10.58789,11.51,NaN,0,10.2357,-23,-40
8644,2023-01-20 11:09:07.402015,181696656,0.3772436,0.006257743,0.3817671,0.3700503,10.1851,10.58618,11.57,NaN,0,10.23765,-15,-32
8676,2023-01-20 11:09:07.502013,181796666,0.3720329,0.004991293,0.3824008,0.3700503,10.21244,10.59629,11.69,NaN,0,10.25203,-8,-24
8709,2023-01-20 11:09:07.601973,181896638,0.3691261,0.003584504,0.3759256,0.3700503,10.24543,10.61522,11.77,NaN,0,10.27468,-1,-14
8739,2023-01-20 11:09:07.701980,181996624,0.3562668,0.00245589,0.3679976,0.3700503,10.2829,10.64705,11.94,NaN,0,10.30969,3,-3
8774,2023-01-20 11:09:07.802053,182096677,0.3633395,0.001790583,0.3623305,0.3700503,10.32423,10.6877,11.94,NaN,0,10.35345,6,0
8804,2023-01-20 11:09:07.901977,182196613,0.3538908,0.001217723,0.360416,0.3700503,10.36913,10.74021,11.84,NaN,0,10.40828,9,8
8839,2023-01-20 11:09:08.002000,182296648,0.3292793,0.0009866953,0.3466564,0.3700503,10.41636,10.79494,11.81,NaN,0,10.46551,9,12
8869,2023-01-20 11:09:08.101978,182396644,0.3404807,0.001329809,0.3355833,0.3700503,10.46375,10.84923,11.89,NaN,0,10.52188,9,14
8904,2023-01-20 11:09:08.201957,182496641,0.3721948,0.001651913,0.3532873,0.3700503,10.5131,10.90194,12.18,NaN,0,10.57727,13,16
8934,2023-01-20 11:09:08.301950,182596610,0.3704902,0.001200289,0.3695674,0.3700503,10.56876,10.95792,12.28,NaN,0,10.63698,20,18
8967,2023-01-20 11:09:08.402057,182696696,0.3580164,0.0008688569,0.3643167,0.3700503,10.63138,11.0208,12.24,NaN,0,10.70346,26,27
8999,2023-01-20 11:09:08.501947,182796617,0.3639856,0.001003236,0.3617578,0.3700503,10.70061,11.09155,12.22,NaN,0,10.77849,33,32
9032,2023-01-20 11:09:08.601956,182896656,0.374692,0.001258045,0.3695452,0.3700503,10.77662,11.16713,12.32,NaN,0,10.85778,40,38
9062,2023-01-20 11:09:08.701959,182996627,0.3535961,0.001359344,0.3659819,0.3700503,10.85885,11.25052,12.43,NaN,0,10.94514,45,45
9097,2023-01-20 11:09:08.802017,183096653,0.3493123,0.001383454,0.3547662,0.3700503,10.94536,11.33873,12.47,NaN,0,11.03683,48,50
9129,2023-01-20 11:09:08.901995,183196644,0.3565556,0.001505911,0.3538216,0.3700503,11.03392,11.43279,12.55,NaN,0,11.13498,49,53
9164,2023-01-20 11:09:09.001825,183296665,0.3697367,0.001994669,0.3647052,0.3700503,11.12419,11.52598,12.42,NaN,0,11.23171,51,52
9194,2023-01-20 11:09:09.092857,183396597,0.3566305,0.002290219,0.3604063,0.3700503,11.21709,11.62175,12.6,NaN,0,11.33077,53,56
9226,2023-01-20 11:09:09.184009,183496661,0.3790277,0.002752095,0.3691365,0.3700503,11.31309,11.71563,12.78,NaN,0,11.42868,57,56
9260,2023-01-20 11:09:09.282412,183596638,0.3661314,0.002710164,0.3733913,0.3700503,11.4122,11.81052,12.85,NaN,0,11.52839,60,59
9291,2023-01-20 11:09:09.382436,183696675,0.3581295,0.002415419,0.3648061,0.3700503,11.51368,11.9077,12.96,NaN,0,11.63009,63,64
9325,2023-01-20 11:09:09.482401,183796638,0.3718991,0.00209251,0.3664049,0.3700503,11.61742,12.00566,13.05,NaN,0,11.73343,66,65
9356,2023-01-20 11:09:09.582416,183896649,0.3721293,0.001794994,0.3726141,0.3700503,11.72366,12.10584,13.18,NaN,0,11.83897,69,65
9389,2023-01-20 11:09:09.682398,183996614,0.3799385,0.001533687,0.3784586,0.3700503,11.83257,12.21224,13.32,NaN,0,11.95117,72,69
9423,2023-01-20 11:09:09.782452,184096648,0.3793883,0.001386911,0.3783746,0.3700503,11.94434,12.32067,13.54,NaN,0,12.06546,75,72
9455,2023-01-20 11:09:09.882414,184196626,0.3835361,0.001246095,0.3821491,0.3700503,12.05875,12.4361,13.64,NaN,0,12.18742,77,73
9488,2023-01-20 11:09:09.982452,184296688,0.3856857,0.00114423,0.3862119,0.3700503,12.17574,12.55395,13.81,NaN,0,12.31101,80,77
9520,2023-01-20 11:09:10.082428,184396672,0.3717731,0.001314819,0.381054,0.3700503,12.29563,12.67887,13.91,NaN,0,12.44234,83,82
9552,2023-01-20 11:09:10.182416,184496664,0.3839709,0.001404405,0.3835135,0.3700503,12.41842,12.80712,14.04,NaN,0,12.577,85,85
9585,2023-01-20 11:09:10.282387,184596636,0.3708388,0.001255751,0.3741812,0.3700503,12.54364,12.94177,14.18,NaN,0,12.71794,86,89
9616,2023-01-20 11:09:10.382415,184696665,0.3664433,0.001287431,0.3716854,0.3700503,12.67109,13.07753,14.33,NaN,0,12.85949,87,90
9650,2023-01-20 11:09:10.482281,184796622,0.3789641,0.001317292,0.3747126,0.3700503,12.80061,13.21697,14.36,NaN,0,13.00455,88,92
9683,2023-01-20 11:09:10.582287,184896739,0.3783168,0.001278967,0.3767581,0.3700503,12.93181,13.35441,14.55,NaN,0,13.14736,89,93
9715,2023-01-20 11:09:10.682204,184996621,0.359579,0.001183212,0.3704953,0.3700503,13.06359,13.49623,14.9,NaN,0,13.29449,88,92
9748,2023-01-20 11:09:10.782360,185096711,0.3602865,0.001232862,0.3634283,0.3700503,13.19529,13.64,15.01,NaN,0,13.44284,87,94
9780,2023-01-20 11:09:10.882330,185196688,0.3504072,0.001379848,0.3565067,0.3700503,13.32724,13.7887,15.18,NaN,0,13.59605,86,96
9813,2023-01-20 11:09:10.982306,185296686,0.3500992,0.00165379,0.3546897,0.3700503,13.45973,13.93556,15.41,NaN,0,13.74749,85,95
9846,2023-01-20 11:09:11.082220,185396610,0.3552838,0.002018809,0.3579922,0.3700503,13.59271,14.08534,15.48,NaN,0,13.90185,83,92
9878,2023-01-20 11:09:11.182302,185496700,0.3596138,0.002318412,0.3582347,0.3700503,13.72595,14.23162,15.49,NaN,0,14.05295,82,92
9911,2023-01-20 11:09:11.282194,185596604,0.3833213,0.002384424,0.3698528,0.3700503,13.85948,14.37544,15.72,NaN,0,14.20177,81,87
9942,2023-01-20 11:09:11.382290,185696714,0.3602422,0.002349705,0.3681868,0.3700503,13.99296,14.51475,15.97,NaN,0,14.34585,81,86
9975,2023-01-20 11:09:11.482183,185796607,0.3586248,0.002692997,0.3606712,0.3700503,14.12639,14.65942,15.98,NaN,0,14.49522,80,86
10006,2023-01-20 11:09:11.582256,185896676,0.3533758,0.002511621,0.3600003,0.3700503,14.26022,14.79998,16.14,NaN,0,14.64102,80,87
10038,2023-01-20 11:09:11.682235,185996638,0.3636215,0.002235591,0.355841,0.3700503,14.39442,14.94547,16.21,NaN,0,14.7911,79,87
10071,2023-01-20 11:09:11.782316,186096699,0.363513,0.001962781,0.358669,0.3700503,14.52891,15.08603,16.44,NaN,0,14.93666,78,83
10103,2023-01-20 11:09:11.882233,186196617,0.351374,0.001871258,0.3589947,0.3700503,14.66358,15.22915,16.68,NaN,0,15.08399,78,84
10136,2023-01-20 11:09:11.982297,186296686,0.3574993,0.001930177,0.3590383,0.3700503,14.79836,15.37029,16.77,NaN,0,15.22946,77,84
10168,2023-01-20 11:09:12.082206,186396621,0.3716038,0.00197199,0.3699625,0.3700503,14.93354,15.51337,16.99,NaN,0,15.3767,77,81
10200,2023-01-20 11:09:12.182328,186496773,0.3586932,0.001945049,0.3660491,0.3700503,15.06922,15.6521,17.12,NaN,0,15.51964,77,81
10233,2023-01-20 11:09:12.282185,186596608,0.3713369,0.002037555,0.3653621,0.3700503,15.20512,15.79731,17.2,NaN,0,15.66906,76,79
10265,2023-01-20 11:09:12.382303,186696693,0.3498075,0.001861572,0.3641854,0.3700503,15.34101,15.93772,17.47,NaN,0,15.81288,76,80
10299,2023-01-20 11:09:12.482274,186796677,0.3479106,0.001735687,0.3541177,0.3700503,15.47651,16.08527,17.65,NaN,0,15.96379,74,80
10330,2023-01-20 11:09:12.582247,186896674,0.3385495,0.001754344,0.3458444,0.3700503,15.61085,16.23047,17.78,NaN,0,16.11278,71,81
10362,2023-01-20 11:09:12.682207,186996613,0.3339577,0.001472712,0.3441469,0.3700503,15.74322,16.37994,17.99,NaN,0,16.26517,67,77
10395,2023-01-20 11:09:12.782290,187096664,0.3175479,0.001348406,0.3328331,0.3700503,15.87293,16.52267,18.18,NaN,0,16.41139,62,75
10427,2023-01-20 11:09:12.882225,187196599,0.2777176,0.001136839,0.3042782,0.3700503,15.99691,16.67056,18.25,NaN,0,16.56263,52,69
10460,2023-01-20 11:09:12.982230,187296611,0.2502956,0.001051098,0.2757487,0.3700503,16.11026,16.80707,18.4,NaN,0,16.70256,36,61
10492,2023-01-20 11:09:13.082215,187396603,0.2410769,0.001091063,0.2519283,0.3700503,16.20803,16.9365,18.56,NaN,0,16.83541,15,46
10524,2023-01-20 11:09:13.182209,187496604,0.2603742,0.001272172,0.2540787,0.3700503,16.2884,17.04313,18.73,NaN,0,16.94533,-2,27
10557,2023-01-20 11:09:13.282213,187596599,0.2592188,0.001195669,0.2600586,0.3700503,16.35418,17.13551,18.95,NaN,0,17.04217,-18,8
10588,2023-01-20 11:09:13.382298,187696672,0.2549832,0.001151949,0.2583114,0.3700503,16.408,17.20757,19.25,NaN,0,17.11801,-31,-6
10622,2023-01-20 11:09:13.482199,187796595,0.2653613,0.001223385,0.2598955,0.3700503,16.45204,17.27096,19.37,NaN,0,17.18525,-42,-20
10653,2023-01-20 11:09:13.582194,187896619,0.2796242,0.001350671,0.2699021,0.3700503,16.48808,17.31861,19.56,NaN,0,17.23699,-50,-33
10685,2023-01-20 11:09:13.682249,187996659,0.2829409,0.001228482,0.2788426,0.3700503,16.51758,17.36211,19.83,NaN,0,17.28379,-57,-44
10718,2023-01-20 11:09:13.782238,188096624,0.2909417,0.001106828,0.2862681,0.3700503,16.54172,17.39482,19.97,NaN,0,17.31973,-63,-54
10750,2023-01-20 11:09:13.882255,188196633,0.295514,0.0006918013,0.2910004,0.3700503,16.56147,17.42742,19.82,NaN,0,17.3552,-68,-62
10783,2023-01-20 11:09:13.982249,188296623,0.3009177,0.0006102622,0.2962834,0.3700503,16.57764,17.45082,19.99,NaN,0,17.38085,-72,-68
10815,2023-01-20 11:09:14.082241,188396623,0.2998686,0.0004967153,0.3001575,0.3700503,16.59086,17.47376,19.87,NaN,0,17.40599,-76,-74
10847,2023-01-20 11:09:14.182245,188496637,0.3064816,0.00042665,0.3041141,0.3700503,16.60168,17.48844,19.89,NaN,0,17.42195,-78,-77
10880,2023-01-20 11:09:14.282225,188596612,0.3114771,0.0003227293,0.3085429,0.3700503,16.61055,17.50245,19.91,NaN,0,17.43688,-81,-80
10913,2023-01-20 11:09:14.382247,188696625,0.314313,0.0003586411,0.3114806,0.3700503,16.61779,17.50905,19.76,NaN,0,17.44403,-82,-83
10947,2023-01-20 11:09:14.482220,188796620,0.3238976,0.000356853,0.315425,0.3700503,16.62372,17.50626,19.8,NaN,0,17.44111,-82,-87
10978,2023-01-20 11:09:14.582184,188896613,0.3264395,0.0004915297,0.3216477,0.3700503,16.62858,17.49895,19.64,NaN,0,17.43399,-82,-87
11010,2023-01-20 11:09:14.682263,188996672,0.3285925,0.0005839765,0.3322588,0.3700503,16.63255,17.48695,19.62,NaN,0,17.42157,-81,-89
11043,2023-01-20 11:09:14.782247,189096625,0.3232343,0.0007197559,0.3256357,0.3700503,16.6358,17.4732,19.38,NaN,0,17.40799,-80,-86
11075,2023-01-20 11:09:14.882254,189196644,0.3185418,0.0007210076,0.3231858,0.3700503,16.63846,17.46034,18.98,NaN,0,17.39513,-79,-82
11108,2023-01-20 11:09:14.982259,189296669,0.3236108,0.001001745,0.3247502,0.3700503,16.64064,17.44125,19.37,NaN,0,17.3758,-78,-83
11140,2023-01-20 11:09:15.082208,189396613,0.3410378,0.001087159,0.3379668,0.3700503,16.64242,17.42454,19.44,NaN,0,17.35873,-76,-83
11172,2023-01-20 11:09:15.182229,189496624,0.3357502,0.001244456,0.3389566,0.3700503,16.64388,17.40872,19.54,NaN,0,17.34272,-75,-83
11205,2023-01-20 11:09:15.282227,189596605,0.3225594,0.001445442,0.3319031,0.3700503,16.64507,17.40028,19.62,NaN,0,17.33428,-74,-77
11239,2023-01-20 11:09:15.382254,189696613,0.3292006,0.001737356,0.325679,0.3700503,16.61617,17.39479,19.7,NaN,0,17.32879,-77,-78
11273,2023-01-20 11:09:15.482226,189796621,0.3279167,0.002225131,0.3293856,0.3700503,16.61618,17.3955,19.41,NaN,0,17.32969,-77,-77
11306,2023-01-20 11:09:15.582209,189896651,0.3395669,0.002545238,0.3354124,0.3700503,16.61624,17.39237,19.4,NaN,0,17.32656,-77,-78
11338,2023-01-20 11:09:15.682180,189996594,0.334769,0.002639174,0.3403798,0.3700503,16.61645,17.39081,19.32,NaN,0,17.32518,-77,-76
11371,2023-01-20 11:09:15.782224,190096593,0.3343275,0.003068477,0.3347826,0.3700503,16.61691,17.38729,19.46,NaN,0,17.32227,-76,-77
11403,2023-01-20 11:09:15.882242,190196603,0.3621435,0.003780723,0.3458686,0.3700503,16.61773,17.38398,19.26,NaN,0,17.3195,-75,-78
11436,2023-01-20 11:09:15.982253,190296614,0.3456909,0.004077971,0.3545996,0.3700503,16.61902,17.3757,19.29,NaN,0,17.31154,-74,-76
11468,2023-01-20 11:09:16.082241,190396605,0.339864,0.004309773,0.3465054,0.3700503,16.62088,17.37397,19.32,NaN,0,17.30999,-72,-74
11500,2023-01-20 11:09:16.182288,190496655,0.3384752,0.004779816,0.3435895,0.3700503,16.62342,17.37141,19.14,NaN,0,17.30767,-71,-72
11533,2023-01-20 11:09:16.282228,190596595,0.3560557,0.005534083,0.3522255,0.3700503,16.62676,17.37101,19.12,NaN,0,17.3074,-70,-71
11564,2023-01-20 11:09:16.382236,190696601,0.3370686,0.005729198,0.3518533,0.3700503,16.63101,17.3679,19.19,NaN,0,17.3049,-68,-67
11598,2023-01-20 11:09:16.482225,190796604,0.3323036,0.006049871,0.3415115,0.3700503,16.63627,17.37188,19.31,NaN,0,17.30936,-67,-64
11629,2023-01-20 11:09:16.582198,190896595,0.324498,0.006580979,0.3391446,0.3700503,16.64268,17.37691,19.1,NaN,0,17.31501,-66,-60
11661,2023-01-20 11:09:16.682207,190996595,0.3175556,0.00734511,0.328714,0.3700503,16.65035,17.38704,19.15,NaN,0,17.32586,-64,-57
11694,2023-01-20 11:09:16.782225,191096599,0.3262278,0.007791132,0.3284826,0.3700503,16.6594,17.39514,19.26,NaN,0,17.33494,-63,-55
11726,2023-01-20 11:09:16.882263,191196630,0.3223931,0.007990897,0.3301277,0.3700503,16.66993,17.40481,19.31,NaN,0,17.34595,-61,-54
11759,2023-01-20 11:09:16.982222,191296584,0.3234612,0.008429706,0.3322943,0.3700503,16.68208,17.41474,19.59,NaN,0,17.35729,-59,-54
11791,2023-01-20 11:09:17.082213,191396577,0.3234529,0.009000927,0.3305193,0.3700503,16.69594,17.42966,19.43,NaN,0,17.37263,-57,-50
11823,2023-01-20 11:09:17.182224,191496591,0.338156,0.01079419,0.3401163,0.3700503,16.71163,17.44443,19.26,NaN,0,17.38912,-55,-52
11856,2023-01-20 11:09:17.282207,191596570,0.3325192,0.01256818,0.3440539,0.3700503,16.72922,17.4581,19.18,NaN,0,17.40352,-53,-51
11887,2023-01-20 11:09:17.382228,191696584,0.3318299,0.01434529,0.3476276,0.3700503,16.74881,17.46939,19.2,NaN,0,17.41682,-50,-48
11921,2023-01-20 11:09:17.482270,191796653,0.3204703,0.01455715,0.3397626,0.3700503,16.77051,17.48665,18.89,NaN,0,17.43622,-47,-45
11952,2023-01-20 11:09:17.582199,191896615,0.3347826,0.01639378,0.3417888,0.3700503,16.7944,17.5021,19.01,NaN,0,17.45484,-44,-41
11984,2023-01-20 11:09:17.682209,191996603,0.3374837,0.01709142,0.348664,0.3700503,16.82059,17.51697,19.17,NaN,0,17.47301,-40,-38
12017,2023-01-20 11:09:17.782229,192096590,0.3196211,0.01734886,0.3456738,0.3700503,16.84915,17.53346,19.18,NaN,0,17.49432,-36,-35
12049,2023-01-20 11:09:17.882230,192196588,0.3523538,0.02181873,0.3505316,0.3700503,16.88018,17.55288,19.19,NaN,0,17.51746,-33,-35
12082,2023-01-20 11:09:17.982254,192296616,0.3742148,0.02685848,0.3820251,0.3700503,16.91374,17.57028,19.25,NaN,0,17.54078,-28,-34
12115,2023-01-20 11:09:18.082222,192396601,0.419505,0.03396475,0.4151086,0.3700503,16.94992,17.58349,19.31,NaN,0,17.55906,-23,-37
12147,2023-01-20 11:09:18.182267,192496666,0.4037208,0.03233829,0.4380533,0.3700503,16.98877,17.5966,19.5,NaN,0,17.57833,-17,-35
12180,2023-01-20 11:09:18.274830,192596605,0.4337983,0.03734258,0.4470507,0.3700503,17.03033,17.61621,19.49,NaN,0,17.60362,-12,-33
12211,2023-01-20 11:09:18.365856,192696601,0.4370488,0.03757221,0.470979,0.3700503,17.0746,17.6396,19.58,NaN,0,17.63488,-7,-28
12245,2023-01-20 11:09:18.462454,192796607,0.4492267,0.03760958,0.4809835,0.3700503,17.12156,17.66955,19.86,NaN,0,17.67227,-2,-27
12276,2023-01-20 11:09:18.562376,192896599,0.4464304,0.03783858,0.4783796,0.3700503,17.17116,17.70861,20.04,NaN,0,17.71976,0,-18
12309,2023-01-20 11:09:18.662330,192996580,0.4523132,0.04197225,0.4908843,0.3700503,17.22332,17.75575,20.04,NaN,0,17.77514,4,-14
12342,2023-01-20 11:09:18.762392,193096641,0.4246989,0.03803098,0.4799801,0.3700503,17.27794,17.81215,19.97,NaN,0,17.84082,6,-7
12374,2023-01-20 11:09:18.862365,193196649,0.4357868,0.04124001,0.4724475,0.3700503,17.33494,17.87746,20.23,NaN,0,17.91614,8,1
12407,2023-01-20 11:09:18.962254,193296593,0.4165766,0.03990817,0.4656945,0.3700503,17.39423,17.95113,20.34,NaN,0,18.00073,9,6
12439,2023-01-20 11:09:19.062230,193396576,0.4110683,0.03900966,0.4527086,0.3700503,17.45573,18.03333,20.56,NaN,0,18.09343,9,12
12471,2023-01-20 11:09:19.162269,193496592,0.4091075,0.03971958,0.4481615,0.3700503,17.51936,18.12266,20.83,NaN,0,18.19435,9,16
12504,2023-01-20 11:09:19.262324,193596577,0.3943931,0.03933901,0.4485834,0.3700503,17.58506,18.21732,21.1,NaN,0,18.30189,8,17
12536,2023-01-20 11:09:19.362437,193696593,0.3632379,0.03652826,0.4228193,0.3700503,17.65276,18.32042,20.83,NaN,0,18.41812,6,21
12571,2023-01-20 11:09:19.462444,193796658,0.3752559,0.0375421,0.4097758,0.3700503,17.72238,18.42652,20.66,NaN,0,18.53874,5,22
12602,2023-01-20 11:09:19.562224,193896591,0.3727938,0.03492707,0.4113631,0.3700503,17.79387,18.52801,20.75,NaN,0,18.6558,3,23
12635,2023-01-20 11:09:19.662191,193996595,0.3737002,0.03280139,0.4079023,0.3700503,17.86715,18.62298,20.65,NaN,0,18.76762,3,21
12669,2023-01-20 11:09:19.762227,194096596,0.3855907,0.03017089,0.4135344,0.3700503,17.94212,18.71052,21.13,NaN,0,18.87298,3,14
12701,2023-01-20 11:09:19.862221,194196584,0.3778313,0.02667436,0.4113284,0.3700503,18.01867,18.79334,21.4,NaN,0,18.97594,4,18
12734,2023-01-20 11:09:19.962241,194296614,0.3693607,0.02323061,0.4022181,0.3700503,18.09671,18.87751,21.62,NaN,0,19.08049,5,14
12767,2023-01-20 11:09:20.062269,194396639,0.3725371,0.02163899,0.397975,0.3700503,18.17612,18.96229,21.59,NaN,0,19.18712,5,15
12798,2023-01-20 11:09:20.162285,194496642,0.3798063,0.02090836,0.3970578,0.3700503,18.25679,19.04724,21.47,NaN,0,19.29484,6,14
12831,2023-01-20 11:09:20.262242,194596601,0.4133267,0.02237958,0.4124232,0.3700503,18.33863,19.1272,21.59,NaN,0,19.39757,7,6
12863,2023-01-20 11:09:20.362225,194696594,0.3758593,0.0184167,0.4202524,0.3700503,18.42151,19.20296,21.85,NaN,0,19.4964,9,12
12897,2023-01-20 11:09:20.462218,194796605,0.3135343,0.0130209,0.3624794,0.3700503,18.50532,19.28631,21.63,NaN,0,19.60325,9,21
12930,2023-01-20 11:09:20.562184,194896594,0.335778,0.01324853,0.3433693,0.3700503,18.58996,19.37504,21.67,NaN,0,19.71523,10,23
12963,2023-01-20 11:09:20.662191,194996596,0.358211,0.01496613,0.3572232,0.3700503,18.67529,19.45701,21.94,NaN,0,19.82064,11,20
12996,2023-01-20 11:09:20.762244,195096627,0.341564,0.01355413,0.3662361,0.3700503,18.76122,19.53474,21.82,NaN,0,19.91527,12,18
13028,2023-01-20 11:09:20.862243,195196620,0.36885,0.01322117,0.3672096,0.3700503,18.84762,19.60744,21.8,NaN,0,19.98644,13,18
13061,2023-01-20 11:09:20.962244,195296623,0.3409869,0.009976923,0.3636142,0.3700503,18.93437,19.67642,21.88,NaN,0,20.05396,15,18
13094,2023-01-20 11:09:21.062211,195396590,0.3438638,0.008274525,0.3549927,0.3700503,19.02136,19.74308,21.7,NaN,0,20.11916,17,20
13125,2023-01-20 11:09:21.162246,195496623,0.3582413,0.007248312,0.3543573,0.3700503,19.10851,19.80742,21.71,NaN,0,20.1824,20,21
13159,2023-01-20 11:09:21.262214,195596590,0.322701,0.006432116,0.341688,0.3700503,19.19578,19.86996,21.31,NaN,0,20.24378,22,27
13191,2023-01-20 11:09:21.362196,195696572,0.3274105,0.006746739,0.3336774,0.3700503,19.28316,19.93086,21.36,NaN,0,20.30395,25,30
13225,2023-01-20 11:09:21.462274,195796679,0.3357986,0.007377833,0.3387801,0.3700503,19.37066,19.98654,21.43,NaN,0,20.35847,28,29
13256,2023-01-20 11:09:21.562152,195896603,0.346532,0.007983625,0.3481559,0.3700503,19.45825,20.03942,21.54,NaN,0,20.41007,32,30
13289,2023-01-20 11:09:21.662132,195996569,0.34595,0.008300006,0.3473742,0.3700503,19.54595,20.09281,21.45,NaN,0,20.46175,35,31
13322,2023-01-20 11:09:21.762195,196096581,0.3753411,0.008945078,0.3696729,0.3700503,19.63375,20.14445,21.37,NaN,0,20.51143,39,31
13354,2023-01-20 11:09:21.862208,196196577,0.351577,0.008097798,0.3689089,0.3700503,19.72164,20.19552,21.54,NaN,0,20.56025,42,32
13387,2023-01-20 11:09:21.962209,196296582,0.3569699,0.008120894,0.3603364,0.3700503,19.80961,20.25229,21.77,NaN,0,20.6147,45,37
13420,2023-01-20 11:09:22.062270,196396657,0.3601783,0.008586973,0.3660592,0.3700503,19.89768,20.31204,21.59,NaN,0,20.67249,48,39
13451,2023-01-20 11:09:22.162208,196496616,0.3560355,0.009099305,0.3684154,0.3700503,19.98582,20.37331,21.77,NaN,0,20.73206,51,41
13485,2023-01-20 11:09:22.262178,196596582,0.3769169,0.01092508,0.3773593,0.3700503,20.07405,20.44094,21.94,NaN,0,20.79816,53,44
13517,2023-01-20 11:09:22.362210,196696594,0.3892617,0.0131827,0.393472,0.3700503,20.16235,20.51283,22.01,NaN,0,20.86876,55,43
13551,2023-01-20 11:09:22.462218,196796610,0.38392,0.01407349,0.3975083,0.3700503,20.25073,20.58629,21.95,NaN,0,20.94076,56,43
13582,2023-01-20 11:09:22.562178,196896595,0.3857786,0.01523468,0.3981743,0.3700503,20.33917,20.66267,22.01,NaN,0,21.0158,57,50
13615,2023-01-20 11:09:22.662175,196996586,0.3767582,0.01479051,0.395419,0.3700503,20.42768,20.73907,22.12,NaN,0,21.09056,59,50
13648,2023-01-20 11:09:22.762249,197096636,0.3877876,0.01552993,0.3970782,0.3700503,20.51626,20.81669,22.31,NaN,0,21.16683,60,51
13680,2023-01-20 11:09:22.862216,197196592,0.3625091,0.01485074,0.3942164,0.3700503,20.6049,20.89726,22.19,NaN,0,21.24593,60,58
13713,2023-01-20 11:09:22.962233,197296606,0.3470889,0.01447797,0.3716073,0.3700503,20.6936,20.98292,22.3,NaN,0,21.33014,61,62
13746,2023-01-20 11:09:23.062227,197396597,0.4031486,0.01908582,0.3868117,0.3700503,20.78236,21.06857,22.51,NaN,0,21.41383,61,57
13777,2023-01-20 11:09:23.162240,197496607,0.4284188,0.02202263,0.4282893,0.3700503,20.87118,21.14976,22.87,NaN,0,21.4927,62,52
13811,2023-01-20 11:09:23.262219,197596591,0.4118682,0.02032664,0.438473,0.3700503,20.96004,21.23182,23.03,NaN,0,21.57244,62,50
13843,2023-01-20 11:09:23.362262,197696643,0.3929604,0.01781321,0.4244756,0.3700503,21.04896,21.32021,22.99,NaN,0,21.65784,63,55
13877,2023-01-20 11:09:23.462223,197796615,0.3822151,0.01657158,0.4078552,0.3700503,21.13792,21.41563,23.1,NaN,0,21.75039,62,60
13908,2023-01-20 11:09:23.562188,197896593,0.3554516,0.01502508,0.3894519,0.3700503,21.22694,21.51772,22.96,NaN,0,21.84949,61,64
13941,2023-01-20 11:09:23.662173,197996569,0.368965,0.01708314,0.3783677,0.3700503,21.316,21.61987,23.08,NaN,0,21.94877,59,64
13974,2023-01-20 11:09:23.762214,198096587,0.3808411,0.01954728,0.3953603,0.3700503,21.4051,21.7188,23.36,NaN,0,22.04477,58,64
14006,2023-01-20 11:09:23.862206,198196574,0.3783631,0.01992437,0.3983562,0.3700503,21.49425,21.8215,23.3,NaN,0,22.14442,57,61
14039,2023-01-20 11:09:23.962213,198296587,0.3495665,0.01793823,0.3820517,0.3700503,21.58343,21.92723,23.54,NaN,0,22.24715,55,64
14072,2023-01-20 11:09:24.062240,198396629,0.365658,0.01857075,0.3790394,0.3700503,21.67265,22.03565,23.73,NaN,0,22.35307,53,63
14103,2023-01-20 11:09:24.162200,198496609,0.3740572,0.01972613,0.3906207,0.3700503,21.76191,22.14376,23.89,NaN,0,22.4585,51,59
14137,2023-01-20 11:09:24.262175,198596574,0.3811635,0.02120531,0.3998741,0.3700503,21.85121,22.24862,23.95,NaN,0,22.56068,50,57
14169,2023-01-20 11:09:24.362222,198696595,0.3474306,0.01933995,0.3888063,0.3700503,21.94054,22.35351,24.01,NaN,0,22.66276,48,55
14203,2023-01-20 11:09:24.462227,198796608,0.3613095,0.02056682,0.3879997,0.3700503,22.0299,22.45604,24.23,NaN,0,22.76279,47,53
14235,2023-01-20 11:09:24.562182,198896592,0.3633496,0.0209046,0.3849779,0.3700503,22.11929,22.55726,23.99,NaN,0,22.86144,46,52
14268,2023-01-20 11:09:24.662226,198996644,0.3572186,0.021808,0.3836012,0.3700503,22.20872,22.66013,24.09,NaN,0,22.96163,45,52
14301,2023-01-20 11:09:24.762198,199096610,0.3574422,0.02095541,0.3803021,0.3700503,22.29818,22.76243,23.92,NaN,0,23.06087,43,50
14333,2023-01-20 11:09:24.862185,199196583,0.3277552,0.01818901,0.3678915,0.3700503,22.38766,22.85995,23.91,NaN,0,23.15534,42,54
14366,2023-01-20 11:09:24.962223,199296602,0.3322905,0.01728064,0.351244,0.3700503,22.47716,22.95571,23.9,NaN,0,23.24787,42,52
14399,2023-01-20 11:09:25.062214,199396586,0.3369646,0.01684499,0.35537,0.3700503,22.5667,23.04612,23.91,NaN,0,23.33461,42,51
14430,2023-01-20 11:09:25.162225,199496596,0.336623,0.01515296,0.3455318,0.3700503,22.65626,23.13211,23.87,NaN,0,23.41707,42,53
14464,2023-01-20 11:09:25.262210,199596575,0.3433928,0.01477128,0.352425,0.3700503,22.74584,23.21427,23.98,NaN,0,23.49557,43,52
14496,2023-01-20 11:09:25.362292,199696647,0.3614293,0.01449144,0.363987,0.3700503,22.83544,23.29216,23.8,NaN,0,23.56979,44,48
14530,2023-01-20 11:09:25.462210,199796585,0.3169516,0.01153713,0.3483984,0.3700503,22.92508,23.36503,23.94,NaN,0,23.63893,46,48
14563,2023-01-20 11:09:25.562165,199896576,0.3652639,0.01345897,0.3486853,0.3700503,23.01472,23.43712,24.41,NaN,0,23.70755,47,51
14596,2023-01-20 11:09:25.662167,199996576,0.322296,0.01195097,0.3492901,0.3700503,23.10439,23.51234,24.26,NaN,0,23.77929,49,51
14629,2023-01-20 11:09:25.762193,200096576,0.3075169,0.01098576,0.3340654,0.3700503,23.19409,23.59155,24.38,NaN,0,23.85508,50,55
14661,2023-01-20 11:09:25.862208,200196578,0.3105294,0.01112902,0.3185376,0.3700503,23.28379,23.67499,24.01,NaN,0,23.93498,51,57
14694,2023-01-20 11:09:25.962276,200296640,0.3429665,0.0125567,0.3381658,0.3700503,23.37352,23.75329,24.15,NaN,0,24.00993,52,51
14727,2023-01-20 11:09:26.062200,200396578,0.3329858,0.01174015,0.346868,0.3700503,23.46326,23.82417,24.29,NaN,0,24.07745,54,52
14758,2023-01-20 11:09:26.162186,200496590,0.3486844,0.01218298,0.3528773,0.3700503,23.55302,23.8923,24.57,NaN,0,24.14186,56,50
14792,2023-01-20 11:09:26.262196,200596594,0.3813664,0.01311707,0.3818177,0.3700503,23.6428,23.95957,24.49,NaN,0,24.20558,58,45
14824,2023-01-20 11:09:26.362222,200696595,0.3738975,0.01249561,0.3850123,0.3700503,23.73259,24.02558,24.6,NaN,0,24.26854,60,48
14858,2023-01-20 11:09:26.462218,200796600,0.3845897,0.01335597,0.3942924,0.3700503,23.8224,24.0911,24.94,NaN,0,24.33083,63,47
14889,2023-01-20 11:09:26.562182,200896594,0.3705053,0.01305425,0.390641,0.3700503,23.91221,24.16092,24.96,NaN,0,24.39741,65,53
14922,2023-01-20 11:09:26.662230,200996651,0.4084988,0.01538762,0.4088486,0.3700503,24.00205,24.23072,25.34,NaN,0,24.46429,67,50
14955,2023-01-20 11:09:26.762177,201096595,0.3955606,0.01571456,0.4117203,0.3700503,24.0919,24.30456,25.2,NaN,0,24.53525,68,54
14987,2023-01-20 11:09:26.862194,201196592,0.412876,0.01622006,0.4192831,0.3700503,24.18176,24.38025,25.44,NaN,0,24.60765,70,57
15020,2023-01-20 11:09:26.962231,201296598,0.411446,0.01567775,0.4286689,0.3700503,24.27163,24.45695,25.43,NaN,0,24.68093,71,57
15053,2023-01-20 11:09:27.062237,201396598,0.4079927,0.01461065,0.4252141,0.3700503,24.36151,24.53801,25.23,NaN,0,24.75857,72,58
15084,2023-01-20 11:09:27.162238,201496608,0.3833072,0.01308662,0.410594,0.3700503,24.4514,24.62169,25.08,NaN,0,24.83908,73,67
15118,2023-01-20 11:09:27.262258,201596639,0.3664022,0.01201212,0.3880806,0.3700503,24.54132,24.70526,25.24,NaN,0,24.91941,73,72
15150,2023-01-20 11:09:27.362211,201696603,0.3460383,0.0117251,0.3722593,0.3700503,24.63123,24.79186,25.5,NaN,0,25.00314,74,78
15184,2023-01-20 11:09:27.462234,201796625,0.3365464,0.01212206,0.3593932,0.3700503,24.72114,24.88644,25.4,NaN,0,25.09492,73,81
15215,2023-01-20 11:09:27.562203,201896585,0.3485277,0.01370847,0.3570985,0.3700503,24.81109,24.98395,25.5,NaN,0,25.1895,72,81
15248,2023-01-20 11:09:27.662227,201996602,0.3456711,0.01484001,0.3665115,0.3700503,24.90104,25.07926,25.82,NaN,0,25.28188,72,80
15281,2023-01-20 11:09:27.762230,202096599,0.3287484,0.01449504,0.3550518,0.3700503,24.99098,25.1761,25.72,NaN,0,25.37585,71,86
15313,2023-01-20 11:09:27.862220,202196587,0.3138123,0.01380381,0.3381285,0.3700503,25.08094,25.27192,25.9,NaN,0,25.46868,71,84
15346,2023-01-20 11:09:27.962285,202296652,0.3509343,0.01592213,0.3495388,0.3700503,25.17092,25.36647,25.95,NaN,0,25.55993,70,78
15379,2023-01-20 11:09:28.062233,202396596,0.3415774,0.01518151,0.3565739,0.3700503,25.2609,25.45942,25.82,NaN,0,25.64989,70,75
15410,2023-01-20 11:09:28.162230,202496587,0.3111916,0.01320741,0.3471627,0.3700503,25.35088,25.5496,25.74,NaN,0,25.73702,70,77
15444,2023-01-20 11:09:28.262222,202596580,0.2729106,0.01074448,0.3128248,0.3700503,25.44086,25.63972,25.68,NaN,0,25.82434,70,86
15476,2023-01-20 11:09:28.362222,202696586,0.3007144,0.01163,0.3083697,0.3700503,25.53086,25.72819,25.76,NaN,0,25.9103,70,83
15510,2023-01-20 11:09:28.456596,202796609,0.3231598,0.01337904,0.3135056,0.3700503,25.62088,25.81265,26.48,NaN,0,25.9922,70,78
15541,2023-01-20 11:09:28.547542,202896630,0.2737598,0.01184669,0.3179656,0.3700503,25.71089,25.89938,26.22,NaN,0,26.07648,71,83
15574,2023-01-20 11:09:28.642255,202996577,0.2718504,0.01106024,0.2847952,0.3700503,25.80091,25.99263,25.58,NaN,0,26.16699,70,84
15607,2023-01-20 11:09:28.742255,203096576,0.3375198,0.01505286,0.3220617,0.3700503,25.89092,26.07564,26.52,NaN,0,26.24719,71,76
15639,2023-01-20 11:09:28.842273,203196594,0.3501972,0.01683635,0.3450378,0.3700503,25.98094,26.15238,26.79,NaN,0,26.32113,73,67
15673,2023-01-20 11:09:28.942280,203296602,0.3719112,0.01756263,0.363572,0.3700503,26.07099,26.22771,26.76,NaN,0,26.39347,74,64
15705,2023-01-20 11:09:29.042274,203396595,0.327582,0.01492521,0.3571324,0.3700503,26.16104,26.30138,26.75,NaN,0,26.46432,76,67
15736,2023-01-20 11:09:29.142303,203496618,0.3363667,0.01461747,0.3493376,0.3700503,26.25109,26.37811,26.75,NaN,0,26.53819,77,69
15770,2023-01-20 11:09:29.242326,203596647,0.3384928,0.01440576,0.3517008,0.3700503,26.34114,26.45614,26.69,NaN,0,26.61335,78,72
15802,2023-01-20 11:09:29.342250,203696596,0.3588662,0.0154117,0.3596679,0.3700503,26.43119,26.53275,26.79,NaN,0,26.68721,80,72
15836,2023-01-20 11:09:29.442236,203796603,0.348743,0.0149639,0.3711744,0.3700503,26.52123,26.6064,26.75,NaN,0,26.75805,81,72
15867,2023-01-20 11:09:29.542209,203896591,0.3421134,0.0139221,0.3602946,0.3700503,26.61128,26.68048,26.79,NaN,0,26.82902,83,74
15901,2023-01-20 11:09:29.642269,203996613,0.3460041,0.01367149,0.3607856,0.3700503,26.70136,26.75864,26.89,NaN,0,26.90468,84,76
15935,2023-01-20 11:09:29.742378,204096612,0.3639707,0.01478127,0.3654364,0.3700503,26.79144,26.84051,26.88,NaN,0,26.9841,85,78
15967,2023-01-20 11:09:29.842450,204196650,0.3815628,0.01634848,0.3866947,0.3700503,26.88152,26.92024,27.19,NaN,0,27.06109,86,75
16001,2023-01-20 11:09:29.942331,204296601,0.3777557,0.01567686,0.396281,0.3700503,26.97161,26.99896,27.25,NaN,0,27.13713,87,76
16033,2023-01-20 11:09:30.042257,204396586,0.3706383,0.01495117,0.3904337,0.3700503,27.06169,27.08059,27.38,NaN,0,27.21619,88,78
16064,2023-01-20 11:09:30.142222,204496596,0.3688715,0.01445866,0.3842129,0.3700503,27.15178,27.16596,27.31,NaN,0,27.29888,88,80
16098,2023-01-20 11:09:30.242188,204596581,0.3709739,0.014909,0.3877135,0.3700503,27.24186,27.25046,27.43,NaN,0,27.38057,89,82
16130,2023-01-20 11:09:30.342207,204696585,0.3683361,0.01541588,0.3827383,0.3700503,27.33194,27.33675,27.57,NaN,0,27.46448,89,83
16164,2023-01-20 11:09:30.442204,204796581,0.3733636,0.01605463,0.3887692,0.3700503,27.42203,27.41566,27.55,NaN,0,27.5407,90,84
16197,2023-01-20 11:09:30.542233,204896628,0.3788838,0.01654759,0.3883085,0.3700503,27.51211,27.48934,27.83,NaN,0,27.61182,92,87
16230,2023-01-20 11:09:30.642184,204996592,0.3884965,0.01712951,0.4014485,0.3700503,27.60221,27.56342,28,NaN,0,27.68291,94,83
16263,2023-01-20 11:09:30.742182,205096596,0.3806109,0.01635146,0.4059623,0.3700503,27.69232,27.63966,28.27,NaN,0,27.75628,95,85
16295,2023-01-20 11:09:30.842193,205196595,0.4071178,0.01701045,0.410673,0.3700503,27.78244,27.72506,28.21,NaN,0,27.83917,95,84
16372,2023-01-20 11:09:30.942249,205296616,0.3904942,0.01628706,0.4124548,0.3700503,27.87256,27.81772,28.39,NaN,0,27.92957,95,86
16404,2023-01-20 11:09:31.042236,205396586,0.3823305,0.01697606,0.4053694,0.3700503,27.96268,27.91227,28.34,NaN,0,28.02151,95,89
16435,2023-01-20 11:09:31.142313,205496669,0.3870436,0.0177663,0.4017228,0.3700503,28.0528,28.00692,28.39,NaN,0,28.11334,94,92
16469,2023-01-20 11:09:31.242233,205596596,0.3760985,0.01667017,0.4013776,0.3700503,28.14291,28.10766,28.45,NaN,0,28.21165,93,94
16501,2023-01-20 11:09:31.342237,205696607,0.3740768,0.01671803,0.3971463,0.3700503,28.23303,28.21239,28.54,NaN,0,28.31393,92,92
16534,2023-01-20 11:09:31.442216,205796598,0.3471398,0.0159741,0.3826737,0.3700503,28.32315,28.31679,28.5,NaN,0,28.4159,90,98
16565,2023-01-20 11:09:31.542182,205896581,0.3183304,0.01482061,0.345482,0.3700503,28.41327,28.42616,28.97,NaN,0,28.52227,88,101
16598,2023-01-20 11:09:31.642179,205996579,0.3684153,0.01926917,0.3546927,0.3700503,28.50339,28.53786,28.84,NaN,0,28.63104,86,96
16631,2023-01-20 11:09:31.742203,206096583,0.3967834,0.0216881,0.3950954,0.3700503,28.59351,28.64075,29.31,NaN,0,28.731,85,87
16663,2023-01-20 11:09:31.842273,206196640,0.3759166,0.02087042,0.4051689,0.3700503,28.68362,28.73788,29.36,NaN,0,28.8252,84,86
16697,2023-01-20 11:09:31.942241,206296605,0.3546262,0.01834336,0.3958232,0.3700503,28.77374,28.83366,29.26,NaN,0,28.9183,84,85
16729,2023-01-20 11:09:32.042233,206396595,0.333309,0.01671153,0.3716664,0.3700503,28.86386,28.92717,29.55,NaN,0,29.00943,83,90
16760,2023-01-20 11:09:32.142251,206496611,0.3273323,0.01782659,0.350975,0.3700503,28.95398,29.02498,29.5,NaN,0,29.10516,83,93
16794,2023-01-20 11:09:32.242244,206596607,0.382254,0.02463365,0.3715857,0.3700503,29.0441,29.12325,29.48,NaN,0,29.20093,82,87
16826,2023-01-20 11:09:32.342229,206696598,0.4005834,0.02761003,0.4090977,0.3700503,29.13422,29.21285,29.66,NaN,0,29.28808,82,79
16860,2023-01-20 11:09:32.442273,206796654,0.4017172,0.02671972,0.4214717,0.3700503,29.22433,29.30077,29.94,NaN,0,29.37356,82,75
16891,2023-01-20 11:09:32.542186,206896588,0.3814661,0.02256343,0.4158102,0.3700503,29.31445,29.39076,30.09,NaN,0,29.46045,82,76
16924,2023-01-20 11:09:32.642178,206996592,0.3689101,0.0196999,0.400983,0.3700503,29.40457,29.48586,30.24,NaN,0,29.55262,82,80
16957,2023-01-20 11:09:32.742183,207096600,0.3755382,0.01947042,0.3933205,0.3700503,29.49469,29.58698,30.24,NaN,0,29.65038,80,83
16989,2023-01-20 11:09:32.842204,207196610,0.3705072,0.01881036,0.3957872,0.3700503,29.58481,29.69053,30.53,NaN,0,29.75551,79,79
17023,2023-01-20 11:09:32.942231,207296607,0.3599671,0.0183315,0.3872142,0.3700503,29.67493,29.79677,30.55,NaN,0,29.86432,77,83
17055,2023-01-20 11:09:33.042239,207396598,0.3635325,0.0186094,0.3769267,0.3700503,29.76504,29.90551,30.7,NaN,0,29.97562,76,86
17086,2023-01-20 11:09:33.142292,207496650,0.3928768,0.02203932,0.388848,0.3700503,29.85516,30.01277,30.89,NaN,0,30.08545,74,79
17120,2023-01-20 11:09:33.242230,207596601,0.3997791,0.02224991,0.4109948,0.3700503,29.94528,30.11235,30.75,NaN,0,30.18753,73,74
17152,2023-01-20 11:09:33.342207,207696610,0.3778033,0.01972371,0.410742,0.3700503,30.0354,30.20691,31.04,NaN,0,30.28471,73,70
17186,2023-01-20 11:09:33.442225,207796646,0.3954191,0.01968047,0.4041399,0.3700503,30.12552,30.30246,30.98,NaN,0,30.38283,72,70
17217,2023-01-20 11:09:33.542169,207896588,0.3869476,0.01931027,0.4138317,0.3700503,30.21564,30.39495,31.04,NaN,0,30.47782,72,70
17250,2023-01-20 11:09:33.642187,207996596,0.3795731,0.01855695,0.4032301,0.3700503,30.30576,30.48845,31.11,NaN,0,30.57388,71,72
17283,2023-01-20 11:09:33.742263,208096649,0.3683757,0.01737177,0.3968701,0.3700503,30.39587,30.58261,31.26,NaN,0,30.6703,71,75
