LineNo,UTC_Approx,TimeUS,I,VDop,HAcc,VAcc,SAcc,YAcc,VV,SMS,Delta,Und
522,2023-01-20 11:08:47.400000,161653586,0,1.16,3.08,5.11,0.87,0,1,161582,200,-36.19
1117,2023-01-20 11:08:47.600000,161864113,0,1.16,3.09,5.11,0.82,0,1,161782,200,-36.19
1569,2023-01-20 11:08:47.800000,162053841,0,1.16,3.09,5.12,0.9,0,1,161982,200,-36.191
1903,2023-01-20 11:08:48.000000,162254326,0,1.16,3.09,5.12,1.02,0,1,162182,200,-36.19
2000,2023-01-20 11:08:48.200000,162454317,0,1.16,3.1,5.13,0.93,0,1,162382,200,-36.19
2095,2023-01-20 11:08:48.400000,162654251,0,1.16,3.1,5.14,0.92,0,1,162582,200,-36.19
2219,2023-01-20 11:08:48.600000,162874131,0,1.16,3.11,5.14,0.96,0,1,162782,200,-36.19
2327,2023-01-20 11:08:48.800000,163074092,0,1.16,3.11,5.15,0.64,0,1,162982,200,-36.19
2429,2023-01-20 11:08:49.000000,163274090,0,1.16,3.12,5.15,0.88,0,1,163182,200,-36.191
2516,2023-01-20 11:08:49.200000,163474123,0,1.16,3.12,5.16,0.94,0,1,163382,200,-36.19
2593,2023-01-20 11:08:49.400000,163654245,0,1.16,3.12,5.16,0.98,0,1,163582,200,-36.19
2674,2023-01-20 11:08:49.600000,163854375,0,1.16,3.13,5.17,0.97,0,1,163782,200,-36.19
2754,2023-01-20 11:08:49.800000,164074091,0,1.16,3.13,5.17,0.64,0,1,163982,200,-36.19
2838,2023-01-20 11:08:50.000000,164274138,0,1.16,3.14,5.18,0.69,0,1,164182,200,-36.19
2919,2023-01-20 11:08:50.200000,164474063,0,1.16,3.14,5.19,0.81,0,1,164382,200,-36.19
2997,2023-01-20 11:08:50.400000,164674144,0,1.16,3.14,5.19,0.84,0,1,164582,200,-36.19
3079,2023-01-20 11:08:50.600000,164874239,0,1.16,3.15,5.2,0.87,0,1,164782,200,-36.19
3157,2023-01-20 11:08:50.800000,165074123,0,1.16,3.15,5.21,0.89,0,1,164982,200,-36.19
3239,2023-01-20 11:08:51.000000,165274252,0,1.16,3.15,5.21,0.87,0,1,165182,200,-36.19
3319,2023-01-20 11:08:51.200000,165474223,0,1.16,3.16,5.22,0.87,0,1,165382,200,-36.19
3398,2023-01-20 11:08:51.400000,165674311,0,1.16,3.16,5.22,0.85,0,1,165582,200,-36.19
3478,2023-01-20 11:08:51.600000,165874344,0,1.16,3.16,5.23,0.83,0,1,165782,200,-36.19
3556,2023-01-20 11:08:51.800000,166074330,0,1.16,3.16,5.23,0.84,0,1,165982,200,-36.19
3639,2023-01-20 11:08:52.000000,166274336,0,1.16,3.17,5.23,0.83,0,1,166182,200,-36.19
3711,2023-01-20 11:08:52.200000,166474322,0,1.16,3.17,5.24,0.8,0,1,166382,200,-36.19
3774,2023-01-20 11:08:52.400000,166674327,0,1.16,3.17,5.24,0.84,0,1,166582,200,-36.19
3839,2023-01-20 11:08:52.600000,166874378,0,1.16,3.17,5.25,0.82,0,1,166782,200,-36.19
3902,2023-01-20 11:08:52.800000,167074312,0,1.16,3.18,5.25,0.89,0,1,166982,200,-36.19
3969,2023-01-20 11:08:53.000000,167274309,0,1.16,3.18,5.25,0.87,0,1,167182,200,-36.19
4034,2023-01-20 11:08:53.200000,167474371,0,1.16,3.18,5.26,0.87,0,1,167382,200,-36.19
4097,2023-01-20 11:08:53.400000,167674351,0,1.16,3.18,5.26,0.84,0,1,167582,200,-36.19
4162,2023-01-20 11:08:53.600000,167874432,0,1.16,3.19,5.27,0.83,0,1,167782,200,-36.19
4225,2023-01-20 11:08:53.800000,168074368,0,1.16,3.19,5.27,0.92,0,1,167982,200,-36.19
4293,2023-01-20 11:08:54.000000,168274401,0,1.16,3.19,5.28,0.95,0,1,168182,200,-36.19
4359,2023-01-20 11:08:54.200000,168474427,0,1.16,3.19,5.28,0.91,0,1,168382,200,-36.19
4422,2023-01-20 11:08:54.400000,168674378,0,1.16,3.19,5.28,0.84,0,1,168582,200,-36.19
4487,2023-01-20 11:08:54.600000,168874453,0,1.16,3.19,5.28,0.85,0,1,168782,200,-36.19
4550,2023-01-20 11:08:54.800000,169074420,0,1.16,3.2,5.28,0.78,0,1,168982,200,-36.19
4617,2023-01-20 11:08:55.000000,169274398,0,1.16,3.2,5.28,0.86,0,1,169182,200,-36.19
4682,2023-01-20 11:08:55.200000,169474378,0,1.16,3.19,5.28,0.83,0,1,169382,200,-36.19
4745,2023-01-20 11:08:55.400000,169674389,0,1.16,3.19,5.28,0.81,0,1,169582,200,-36.19
4812,2023-01-20 11:08:55.600000,169874444,0,1.16,3.19,5.28,0.83,0,1,169782,200,-36.19
4875,2023-01-20 11:08:55.800000,170074386,0,1.16,3.2,5.29,0.83,0,1,169982,200,-36.19
4942,2023-01-20 11:08:56.000000,170274392,0,1.16,3.2,5.29,0.81,0,1,170182,200,-36.19
5007,2023-01-20 11:08:56.200000,170474379,0,1.16,3.2,5.3,0.82,0,1,170382,200,-36.19
5069,2023-01-20 11:08:56.400000,170674383,0,1.16,3.2,5.3,0.83,0,1,170623,241,-36.19
5134,2023-01-20 11:08:56.600000,170874447,0,1.16,3.2,5.3,0.76,0,1,170823,200,-36.19
5197,2023-01-20 11:08:56.800000,171074379,0,1.16,3.2,5.3,0.82,0,1,171023,200,-36.19
5264,2023-01-20 11:08:57.000000,171274395,0,1.16,3.2,5.31,0.83,0,1,171223,200,-36.19
5330,2023-01-20 11:08:57.200000,171474379,0,1.16,3.2,5.31,0.78,0,1,171423,200,-36.19
5393,2023-01-20 11:08:57.400000,171674375,0,1.16,3.21,5.32,0.74,0,1,171623,200,-36.19
5458,2023-01-20 11:08:57.600000,171874447,0,1.16,3.21,5.32,0.8,0,1,171823,200,-36.19
5521,2023-01-20 11:08:57.800000,172074381,0,1.16,3.21,5.33,0.83,0,1,172023,200,-36.19
5590,2023-01-20 11:08:58.000000,172274391,0,1.16,3.21,5.33,0.83,0,1,172223,200,-36.19
5655,2023-01-20 11:08:58.200000,172474385,0,1.16,3.21,5.33,0.86,0,1,172423,200,-36.19
5718,2023-01-20 11:08:58.400000,172674386,0,1.16,3.21,5.33,0.85,0,1,172623,200,-36.19
5783,2023-01-20 11:08:58.600000,172874456,0,1.16,3.21,5.34,0.84,0,1,172823,200,-36.19
5846,2023-01-20 11:08:58.800000,173074383,0,1.16,3.21,5.34,0.8,0,1,173023,200,-36.19
5913,2023-01-20 11:08:59.000000,173274415,0,1.16,3.21,5.34,0.68,0,1,173223,200,-36.19
5980,2023-01-20 11:08:59.200000,173494444,0,1.16,3.21,5.34,0.76,0,1,173423,200,-36.19
6043,2023-01-20 11:08:59.400000,173694438,0,1.16,3.22,5.34,0.75,0,1,173623,200,-36.19
6108,2023-01-20 11:08:59.600000,173874428,0,1.16,3.22,5.34,0.79,0,1,173823,200,-36.19
6171,2023-01-20 11:08:59.800000,174094440,0,1.16,3.22,5.34,0.92,0,1,174023,200,-36.19
6239,2023-01-20 11:09:00.000000,174294500,0,1.16,3.22,5.33,0.86,0,1,174223,200,-36.19
6304,2023-01-20 11:09:00.200000,174494647,0,1.16,3.22,5.33,0.89,0,1,174423,200,-36.189
6367,2023-01-20 11:09:00.400000,174694544,0,1.16,3.22,5.32,0.9,0,1,174623,200,-36.19
6434,2023-01-20 11:09:00.600000,174894653,0,1.16,3.21,5.32,0.89,0,1,174823,200,-36.19
6498,2023-01-20 11:09:00.800000,175094588,0,1.16,3.21,5.32,0.9,0,1,175023,200,-36.19
6565,2023-01-20 11:09:01.000000,175294636,0,1.16,3.21,5.31,0.89,0,1,175223,200,-36.19
6630,2023-01-20 11:09:01.200000,175494485,0,1.16,3.21,5.31,0.85,0,1,175423,200,-36.19
6693,2023-01-20 11:09:01.400000,175694621,0,1.16,3.21,5.3,0.85,0,1,175623,200,-36.19
6758,2023-01-20 11:09:01.600000,175894675,0,1.16,3.21,5.3,0.85,0,1,175823,200,-36.19
6822,2023-01-20 11:09:01.800000,176094664,0,1.16,3.2,5.29,0.85,0,1,176023,200,-36.19
6889,2023-01-20 11:09:02.000000,176294656,0,1.16,3.2,5.29,0.86,0,1,176223,200,-36.19
6954,2023-01-20 11:09:02.200000,176494632,0,1.16,3.2,5.28,0.83,0,1,176423,200,-36.19
7017,2023-01-20 11:09:02.400000,176694625,0,1.16,3.2,5.27,0.84,0,1,176623,200,-36.19
7082,2023-01-20 11:09:02.600000,176894723,0,1.16,3.2,5.27,0.81,0,1,176823,200,-36.19
7145,2023-01-20 11:09:02.800000,177094633,0,1.16,3.19,5.26,0.84,0,1,177023,200,-36.19
7212,2023-01-20 11:09:03.000000,177294642,0,1.16,3.19,5.26,0.82,0,1,177223,200,-36.19
7277,2023-01-20 11:09:03.200000,177494665,0,1.16,3.19,5.25,0.85,0,1,177423,200,-36.19
7340,2023-01-20 11:09:03.400000,177694674,0,1.16,3.19,5.24,0.84,0,1,177623,200,-36.19
7405,2023-01-20 11:09:03.600000,177894672,0,1.16,3.19,5.24,0.85,0,1,177823,200,-36.19
7469,2023-01-20 11:09:03.800000,178094647,0,1.16,3.19,5.23,0.84,0,1,178023,200,-36.19
7536,2023-01-20 11:09:04.000000,178294672,0,1.16,3.18,5.23,0.82,0,1,178223,200,-36.19
7602,2023-01-20 11:09:04.200000,178494689,0,1.16,3.18,5.22,0.82,0,1,178423,200,-36.19
7665,2023-01-20 11:09:04.400000,178694642,0,1.16,3.18,5.22,0.81,0,1,178623,200,-36.19
7730,2023-01-20 11:09:04.600000,178894674,0,1.16,3.18,5.21,0.83,0,1,178823,200,-36.19
7793,2023-01-20 11:09:04.800000,179094625,0,1.16,3.18,5.21,0.83,0,1,179023,200,-36.19
7860,2023-01-20 11:09:05.000000,179294698,0,1.16,3.17,5.2,0.82,0,1,179223,200,-36.19
7925,2023-01-20 11:09:05.200000,179494652,0,1.16,3.17,5.19,0.83,0,1,179423,200,-36.189
7989,2023-01-20 11:09:05.400000,179694624,0,1.16,3.17,5.18,0.82,0,1,179623,200,-36.19
8056,2023-01-20 11:09:05.600000,179894736,0,1.16,3.16,5.17,0.82,0,1,179823,200,-36.19
8119,2023-01-20 11:09:05.800000,180094615,0,1.16,3.16,5.16,0.84,0,1,180023,200,-36.19
8186,2023-01-20 11:09:06.000000,180294695,0,1.16,3.16,5.16,0.84,0,1,180223,200,-36.19
8251,2023-01-20 11:09:06.200000,180494677,0,1.16,3.15,5.15,0.85,0,1,180423,200,-36.189
8314,2023-01-20 11:09:06.400000,180694682,0,1.16,3.15,5.15,0.9,0,1,180623,200,-36.19
8379,2023-01-20 11:09:06.600000,180894666,0,1.16,3.15,5.15,0.95,0,1,180823,200,-36.19
8442,2023-01-20 11:09:06.800000,181094674,0,1.16,3.15,5.15,1.01,0,1,181023,200,-36.19
8509,2023-01-20 11:09:07.000000,181294649,0,1.16,3.15,5.15,0.92,0,1,181223,200,-36.189
8574,2023-01-20 11:09:07.200000,181494644,0,1.16,3.15,5.14,0.82,0,1,181423,200,-36.19
8638,2023-01-20 11:09:07.400000,181694641,0,1.16,3.15,5.13,0.73,0,1,181623,200,-36.19
8703,2023-01-20 11:09:07.600000,181894665,0,1.16,3.15,5.13,0.69,0,1,181823,200,-36.19
8766,2023-01-20 11:09:07.800000,182094624,0,1.16,3.15,5.12,0.84,0,1,182023,200,-36.19
8833,2023-01-20 11:09:08.000000,182294648,0,1.16,3.15,5.11,0.74,0,1,182223,200,-36.19
8897,2023-01-20 11:09:08.200000,182494684,0,1.16,3.14,5.11,0.67,0,1,182423,200,-36.19
8961,2023-01-20 11:09:08.400000,182694638,0,1.16,3.14,5.11,0.7,0,1,182623,200,-36.19
9026,2023-01-20 11:09:08.600000,182894701,0,1.16,3.14,5.1,0.77,0,1,182823,200,-36.19
9089,2023-01-20 11:09:08.800000,183094636,0,1.16,3.14,5.1,0.81,0,1,183023,200,-36.189
9158,2023-01-20 11:09:09.000000,183294662,0,1.16,3.14,5.09,0.85,0,1,183223,200,-36.19
9252,2023-01-20 11:09:09.200000,183514215,0,1.16,3.13,5.09,0.69,0,1,183423,200,-36.19
9317,2023-01-20 11:09:09.400000,183714241,0,1.16,3.13,5.09,0.67,0,1,183623,200,-36.19
9380,2023-01-20 11:09:09.600000,183914232,0,1.16,3.13,5.08,0.74,0,1,183823,200,-36.19
9447,2023-01-20 11:09:09.800000,184114193,0,1.16,3.13,5.08,0.73,0,1,184023,200,-36.189
9512,2023-01-20 11:09:10.000000,184314240,0,1.16,3.12,5.08,0.71,0,1,184223,200,-36.19
9577,2023-01-20 11:09:10.200000,184514249,0,1.16,3.12,5.08,0.73,0,1,184423,200,-36.19
9642,2023-01-20 11:09:10.400000,184714250,0,1.16,3.11,5.07,0.74,0,1,184623,200,-36.19
9707,2023-01-20 11:09:10.600000,184914472,0,1.16,3.11,5.07,0.78,0,1,184823,200,-36.189
9772,2023-01-20 11:09:10.800000,185114339,0,1.16,3.11,5.07,0.78,0,1,185023,200,-36.19
9838,2023-01-20 11:09:11.000000,185314384,0,1.16,3.1,5.06,0.75,0,1,185223,200,-36.19
9903,2023-01-20 11:09:11.200000,185514399,0,1.16,3.1,5.06,0.76,0,1,185423,200,-36.19
9968,2023-01-20 11:09:11.400000,185714427,0,1.16,3.09,5.06,0.75,0,1,185623,200,-36.19
10031,2023-01-20 11:09:11.600000,185914419,0,1.16,3.09,5.05,0.76,0,1,185823,200,-36.19
10096,2023-01-20 11:09:11.800000,186114379,0,1.16,3.08,5.05,0.79,0,1,186023,200,-36.19
10161,2023-01-20 11:09:12.000000,186314390,0,1.16,3.08,5.05,0.77,0,1,186223,200,-36.189
10225,2023-01-20 11:09:12.200000,186514450,0,1.16,3.08,5.05,0.8,0,1,186423,200,-36.19
10291,2023-01-20 11:09:12.400000,186714384,0,1.16,3.07,5.04,0.82,0,1,186623,200,-36.189
10354,2023-01-20 11:09:12.600000,186914431,0,1.16,3.07,5.04,0.81,0,1,186823,200,-36.189
10419,2023-01-20 11:09:12.800000,187114369,0,1.16,3.07,5.04,0.8,0,1,187023,200,-36.19
10484,2023-01-20 11:09:13.000000,187314382,0,1.16,3.07,5.04,0.79,0,1,187223,200,-36.19
10549,2023-01-20 11:09:13.200000,187514396,0,1.16,3.06,5.04,0.73,0,1,187423,200,-36.19
10614,2023-01-20 11:09:13.400000,187714372,0,1.16,3.06,5.04,0.63,0,1,187623,200,-36.19
10677,2023-01-20 11:09:13.600000,187914430,0,1.16,3.06,5.03,0.6,0,1,187823,200,-36.19
10742,2023-01-20 11:09:13.800000,188114382,0,1.16,3.05,5.03,0.56,0,1,188023,200,-36.189
10807,2023-01-20 11:09:14.000000,188314373,0,1.16,3.05,5.03,0.66,0,1,188223,200,-36.189
10872,2023-01-20 11:09:14.200000,188514394,0,1.16,3.05,5.03,0.79,0,1,188423,200,-36.189
10939,2023-01-20 11:09:14.400000,188714376,0,1.16,3.05,5.03,0.92,0,1,188623,200,-36.19
11002,2023-01-20 11:09:14.600000,188914434,0,1.16,3.04,5.04,0.94,0,1,188823,200,-36.189
11067,2023-01-20 11:09:14.800000,189114373,0,1.16,3.04,5.04,0.93,0,1,189023,200,-36.19
11132,2023-01-20 11:09:15.000000,189314414,0,1.16,3.04,5.04,0.93,0,1,189223,200,-36.19
11197,2023-01-20 11:09:15.200000,189514393,0,1.16,3.04,5.04,0.93,0,1,189423,200,-36.19
11265,2023-01-20 11:09:15.400000,189714356,0,1.16,3.03,5.05,0.9,0,1,189623,200,-36.19
11330,2023-01-20 11:09:15.600000,189914450,0,1.16,3.03,5.04,0.81,0,1,189823,200,-36.19
11395,2023-01-20 11:09:15.800000,190114361,0,1.16,3.03,5.04,0.87,0,1,190023,200,-36.19
11460,2023-01-20 11:09:16.000000,190314361,0,1.16,3.02,5.04,0.83,0,1,190223,200,-36.19
11525,2023-01-20 11:09:16.200000,190514368,0,1.16,3.02,5.04,0.83,0,1,190423,200,-36.19
11590,2023-01-20 11:09:16.400000,190714365,0,1.16,3.02,5.04,0.79,0,1,190666,243,-36.189
11653,2023-01-20 11:09:16.600000,190914400,0,1.16,3.01,5.03,0.82,0,1,190866,200,-36.189
11718,2023-01-20 11:09:16.800000,191114371,0,1.16,3.01,5.03,0.82,0,1,191066,200,-36.19
11783,2023-01-20 11:09:17.000000,191314361,0,1.16,3.01,5.03,0.82,0,1,191266,200,-36.19
11847,2023-01-20 11:09:17.200000,191514368,0,1.16,3.01,5.03,0.89,0,1,191466,200,-36.19
11913,2023-01-20 11:09:17.400000,191714355,0,1.16,3.01,5.03,0.84,0,1,191666,200,-36.189
11976,2023-01-20 11:09:17.600000,191914422,0,1.16,3,5.03,0.8,0,1,191866,200,-36.19
12041,2023-01-20 11:09:17.800000,192114355,0,1.16,3,5.02,0.84,0,1,192066,200,-36.19
12107,2023-01-20 11:09:18.000000,192314363,0,1.16,3,5.02,0.85,0,1,192266,200,-36.19
12171,2023-01-20 11:09:18.200000,192514402,0,1.16,3,5.01,0.84,0,1,192466,200,-36.19
12237,2023-01-20 11:09:18.400000,192734109,0,1.16,3,5.01,0.84,0,1,192666,200,-36.19
12300,2023-01-20 11:09:18.600000,192934250,0,1.16,3,5,0.83,0,1,192866,200,-36.19
12366,2023-01-20 11:09:18.800000,193134249,0,1.16,3.01,5,0.83,0,1,193066,200,-36.19
12431,2023-01-20 11:09:19.000000,193334360,0,1.16,3.01,4.99,0.82,0,1,193266,200,-36.19
12496,2023-01-20 11:09:19.200000,193534314,0,1.16,3.01,4.99,0.81,0,1,193466,200,-36.19
12563,2023-01-20 11:09:19.400000,193734119,0,1.16,3.01,4.99,0.74,0,1,193666,200,-36.19
12626,2023-01-20 11:09:19.600000,193934425,0,1.16,3.02,4.99,0.75,0,1,193866,200,-36.19
12693,2023-01-20 11:09:19.800000,194134356,0,1.16,3.02,4.99,0.69,0,1,194066,200,-36.19
12759,2023-01-20 11:09:20.000000,194334377,0,1.16,3.03,4.99,0.69,0,1,194266,200,-36.19
12824,2023-01-20 11:09:20.200000,194534353,0,1.16,3.03,5,0.69,0,1,194466,200,-36.19
12890,2023-01-20 11:09:20.400000,194734373,0,1.16,3.04,5,0.7,0,1,194666,200,-36.19
12955,2023-01-20 11:09:20.600000,194934418,0,1.24,3.05,5.01,0.72,0,1,194866,200,-36.19
13021,2023-01-20 11:09:20.800000,195134375,0,1.24,3.05,5.01,0.7,0,1,195066,200,-36.189
13087,2023-01-20 11:09:21.000000,195334380,0,1.24,3.06,5.02,0.69,0,1,195266,200,-36.19
13152,2023-01-20 11:09:21.200000,195534376,0,1.1,3.07,5.01,0.62,0,1,195466,200,-36.19
13218,2023-01-20 11:09:21.400000,195734376,0,1.1,3.07,5.01,0.65,0,1,195666,200,-36.19
13281,2023-01-20 11:09:21.600000,195934468,0,1.1,3.08,5.01,0.7,0,1,195866,200,-36.19
13347,2023-01-20 11:09:21.800000,196134367,0,1.1,3.09,5.01,0.7,0,1,196066,200,-36.19
13413,2023-01-20 11:09:22.000000,196334374,0,1.1,3.1,5.01,0.7,0,1,196266,200,-36.19
13478,2023-01-20 11:09:22.200000,196534416,0,1.1,3.1,5.01,0.71,0,1,196466,200,-36.189
13544,2023-01-20 11:09:22.400000,196734377,0,1.1,3.11,5.01,0.72,0,1,196666,200,-36.189
13607,2023-01-20 11:09:22.600000,196934426,0,1.1,3.12,5.01,0.71,0,1,196866,200,-36.19
13673,2023-01-20 11:09:22.800000,197134378,0,1.1,3.12,5.01,0.65,0,1,197066,200,-36.19
13739,2023-01-20 11:09:23.000000,197334372,0,1.1,3.13,5,0.63,0,1,197266,200,-36.19
13804,2023-01-20 11:09:23.200000,197534366,0,1.1,3.13,4.99,0.63,0,1,197466,200,-36.19
13870,2023-01-20 11:09:23.400000,197734384,0,1.1,3.13,4.98,0.63,0,1,197666,200,-36.19
13933,2023-01-20 11:09:23.600000,197934410,0,1.1,3.14,4.97,0.61,0,1,197866,200,-36.19
13999,2023-01-20 11:09:23.800000,198134364,0,1.1,3.14,4.96,0.64,0,1,198066,200,-36.19
14065,2023-01-20 11:09:24.000000,198334377,0,1.1,3.14,4.96,0.77,0,1,198266,200,-36.19
14130,2023-01-20 11:09:24.200000,198534416,0,1.1,3.15,4.97,0.75,0,1,198466,200,-36.19
14195,2023-01-20 11:09:24.400000,198734363,0,1.1,3.15,4.97,0.64,0,1,198666,200,-36.19
14259,2023-01-20 11:09:24.600000,198934421,0,1.1,3.16,4.97,0.75,0,1,198866,200,-36.19
14325,2023-01-20 11:09:24.800000,199134410,0,1.1,3.16,4.98,0.74,0,1,199066,200,-36.19
14391,2023-01-20 11:09:25.000000,199334372,0,1.1,3.17,4.98,0.72,0,1,199266,200,-36.19
14455,2023-01-20 11:09:25.200000,199534371,0,1.1,3.17,4.97,0.7,0,1,199466,200,-36.19
14522,2023-01-20 11:09:25.400000,199734352,0,1.1,3.17,4.97,0.66,0,1,199666,200,-36.19
14587,2023-01-20 11:09:25.600000,199934425,0,1.1,3.18,4.97,0.75,0,1,199866,200,-36.19
14653,2023-01-20 11:09:25.800000,200134373,0,1.1,3.18,4.97,0.75,0,1,200066,200,-36.19
14719,2023-01-20 11:09:26.000000,200334362,0,1.1,3.18,4.97,0.75,0,1,200266,200,-36.19
14783,2023-01-20 11:09:26.200000,200534414,0,1.1,3.18,4.97,0.73,0,1,200466,200,-36.19
14850,2023-01-20 11:09:26.400000,200734363,0,1.1,3.18,4.96,0.67,0,1,200666,200,-36.19
14913,2023-01-20 11:09:26.600000,200934423,0,1.1,3.18,4.95,0.62,0,1,200866,200,-36.19
14979,2023-01-20 11:09:26.800000,201134417,0,1.1,3.19,4.95,0.65,0,1,201066,200,-36.19
15045,2023-01-20 11:09:27.000000,201334355,0,1.1,3.19,4.94,0.65,0,1,201266,200,-36.19
15109,2023-01-20 11:09:27.200000,201534374,0,1.1,3.19,4.94,0.63,0,1,201466,200,-36.19
15176,2023-01-20 11:09:27.400000,201734396,0,1.1,3.19,4.93,0.64,0,1,201666,200,-36.19
15239,2023-01-20 11:09:27.600000,201934379,0,1.1,3.19,4.93,0.66,0,1,201866,200,-36.19
15305,2023-01-20 11:09:27.800000,202134367,0,1.1,3.19,4.92,0.66,0,1,202066,200,-36.19
15371,2023-01-20 11:09:28.000000,202334367,0,1.1,3.19,4.92,0.65,0,1,202266,200,-36.19
15435,2023-01-20 11:09:28.200000,202534354,0,1.1,3.19,4.91,0.64,0,1,202466,200,-36.19
15502,2023-01-20 11:09:28.400000,202734366,0,1.1,3.19,4.91,0.64,0,1,202666,200,-36.19
15566,2023-01-20 11:09:28.600000,202954323,0,1.1,3.2,4.91,0.66,0,1,202866,200,-36.19
15632,2023-01-20 11:09:28.800000,203154320,0,1.1,3.2,4.91,0.76,0,1,203066,200,-36.19
15698,2023-01-20 11:09:29.000000,203354323,0,1.1,3.2,4.91,0.77,0,1,203266,200,-36.19
15763,2023-01-20 11:09:29.200000,203554311,0,1.1,3.2,4.91,0.73,0,1,203466,200,-36.19
15829,2023-01-20 11:09:29.400000,203754361,0,1.1,3.2,4.91,0.75,0,1,203666,200,-36.19
15893,2023-01-20 11:09:29.600000,203954391,0,1.1,3.2,4.91,0.68,0,1,203866,200,-36.19
15960,2023-01-20 11:09:29.800000,204154170,0,1.1,3.21,4.91,0.67,0,1,204066,200,-36.19
16026,2023-01-20 11:09:30.000000,204354310,0,1.1,3.21,4.91,0.68,0,1,204266,200,-36.19
16091,2023-01-20 11:09:30.200000,204554400,0,1.1,3.21,4.91,0.66,0,1,204466,200,-36.19
16157,2023-01-20 11:09:30.400000,204754369,0,1.1,3.21,4.9,0.65,0,1,204666,200,-36.19
16222,2023-01-20 11:09:30.600000,204954406,0,1.1,3.21,4.9,0.65,0,1,204866,200,-36.19
16288,2023-01-20 11:09:30.800000,205154417,0,1.1,3.22,4.9,0.63,0,1,205066,200,-36.19
16397,2023-01-20 11:09:31.000000,205354347,0,1.1,3.22,4.9,0.67,0,1,205266,200,-36.19
16462,2023-01-20 11:09:31.200000,205554360,0,1.1,3.22,4.9,0.66,0,1,205466,200,-36.19
16528,2023-01-20 11:09:31.400000,205754375,0,1.1,3.22,4.9,0.68,0,1,205666,200,-36.19
16591,2023-01-20 11:09:31.600000,205954408,0,1.1,3.22,4.89,0.68,0,1,205866,200,-36.19
16657,2023-01-20 11:09:31.800000,206154368,0,1.1,3.22,4.89,0.66,0,1,206066,200,-36.19
16723,2023-01-20 11:09:32.000000,206354362,0,1.1,3.22,4.89,0.66,0,1,206266,200,-36.19
16787,2023-01-20 11:09:32.200000,206554360,0,1.01,3.22,4.89,0.69,0,1,206466,200,-36.19
16854,2023-01-20 11:09:32.400000,206754373,0,1.01,3.22,4.88,0.68,0,1,206666,200,-36.19
16918,2023-01-20 11:09:32.600000,206954413,0,1.01,3.21,4.88,0.68,0,1,206866,200,-36.19
16983,2023-01-20 11:09:32.800000,207154418,0,1.01,3.21,4.87,0.69,0,1,207066,200,-36.19
17049,2023-01-20 11:09:33.000000,207354359,0,1.01,3.21,4.87,0.7,0,1,207266,200,-36.191
17113,2023-01-20 11:09:33.200000,207554357,0,1.01,3.2,4.86,0.66,0,1,207466,200,-36.19
17180,2023-01-20 11:09:33.400000,207754422,0,1.01,3.2,4.86,0.68,0,1,207666,200,-36.19
17244,2023-01-20 11:09:33.600000,207954418,0,1.01,3.2,4.85,0.67,0,1,207866,200,-36.19
17309,2023-01-20 11:09:33.800000,208154373,0,1.01,3.19,4.85,0.69,0,1,208066,200,-36.19
17375,2023-01-20 11:09:34.000000,208354359,0,1.01,3.19,4.84,0.69,0,1,208266,200,-36.19
17439,2023-01-20 11:09:34.200000,208554354,0,1.01,3.19,4.84,0.68,0,1,208466,200,-36.19
17506,2023-01-20 11:09:34.400000,208754357,0,1.01,3.19,4.83,0.7,0,1,208666,200,-36.19
17570,2023-01-20 11:09:34.600000,208954405,0,1.01,3.18,4.83,0.71,0,1,208866,200,-36.19
17636,2023-01-20 11:09:34.800000,209154367,0,1.01,3.18,4.83,0.71,0,1,209066,200,-36.19
17702,2023-01-20 11:09:35.000000,209354358,0,1.01,3.18,4.82,0.7,0,1,209266,200,-36.19
17766,2023-01-20 11:09:35.200000,209554360,0,1.01,3.18,4.82,0.7,0,1,209466,200,-36.19
17833,2023-01-20 11:09:35.400000,209754420,0,1.01,3.17,4.81,0.69,0,1,209666,200,-36.19
17899,2023-01-20 11:09:35.600000,209954385,0,1.01,3.17,4.81,0.69,0,1,209866,200,-36.19
17964,2023-01-20 11:09:35.800000,210154368,0,1.01,3.17,4.81,0.7,0,1,210066,200,-36.19
18030,2023-01-20 11:09:36.000000,210354399,0,1.01,3.16,4.8,0.68,0,1,210266,200,-36.191
18094,2023-01-20 11:09:36.200000,210554353,0,1.01,3.16,4.8,0.69,0,1,210466,200,-36.19
18161,2023-01-20 11:09:36.400000,210754353,0,1.01,3.16,4.79,0.69,0,1,210706,240,-36.19
18225,2023-01-20 11:09:36.600000,210974182,0,1.01,3.16,4.79,0.71,0,1,210906,200,-36.19
18290,2023-01-20 11:09:36.800000,211174175,0,1.01,3.16,4.78,0.71,0,1,211106,200,-36.19
18356,2023-01-20 11:09:37.000000,211374147,0,1.01,3.15,4.78,0.69,0,1,211306,200,-36.19
18421,2023-01-20 11:09:37.200000,211574180,0,1.01,3.15,4.78,0.69,0,1,211506,200,-36.19
18487,2023-01-20 11:09:37.400000,211774245,0,1.01,3.15,4.77,0.7,0,1,211706,200,-36.19
18550,2023-01-20 11:09:37.600000,211954400,0,1.01,3.15,4.77,0.71,0,1,211906,200,-36.19
18616,2023-01-20 11:09:37.800000,212174350,0,1.01,3.15,4.77,0.73,0,1,212106,200,-36.19
18682,2023-01-20 11:09:38.000000,212374314,0,1.01,3.15,4.77,0.73,0,1,212306,200,-36.19
18747,2023-01-20 11:09:38.200000,212574337,0,1.01,3.15,4.77,0.72,0,1,212506,200,-36.191
18813,2023-01-20 11:09:38.400000,212774370,0,1.01,3.15,4.77,0.71,0,1,212706,200,-36.19
18877,2023-01-20 11:09:38.600000,212974401,0,1.01,3.15,4.76,0.71,0,1,212906,200,-36.19
18942,2023-01-20 11:09:38.800000,213174376,0,1.01,3.15,4.76,0.7,0,1,213106,200,-36.19
19008,2023-01-20 11:09:39.000000,213374353,0,1.01,3.14,4.76,0.7,0,1,213306,200,-36.19
19073,2023-01-20 11:09:39.200000,213574362,0,1.01,3.14,4.75,0.7,0,1,213506,200,-36.19
19139,2023-01-20 11:09:39.400000,213774410,0,1.01,3.14,4.75,0.72,0,1,213706,200,-36.19
19203,2023-01-20 11:09:39.600000,213974402,0,1.01,3.14,4.75,0.73,0,1,213906,200,-36.191
19272,2023-01-20 11:09:39.800000,214174377,0,1.01,3.14,4.75,0.72,0,1,214106,200,-36.19
19338,2023-01-20 11:09:40.000000,214374354,0,1.01,3.14,4.75,0.71,0,1,214306,200,-36.191
19401,2023-01-20 11:09:40.200000,214574362,0,1.01,3.14,4.74,0.72,0,1,214506,200,-36.19
19468,2023-01-20 11:09:40.400000,214774367,0,1.01,3.14,4.74,0.78,0,1,214706,200,-36.19
19534,2023-01-20 11:09:40.600000,214974408,0,1.01,3.13,4.74,0.75,0,1,214906,200,-36.191
19599,2023-01-20 11:09:40.800000,215174374,0,1.01,3.13,4.73,0.72,0,1,215106,200,-36.19
19665,2023-01-20 11:09:41.000000,215374351,0,1.01,3.12,4.72,0.67,0,1,215306,200,-36.19
19729,2023-01-20 11:09:41.200000,215574354,0,1.01,3.12,4.72,0.71,0,1,215506,200,-36.19
19796,2023-01-20 11:09:41.400000,215774418,0,1.01,3.12,4.71,0.71,0,1,215706,200,-36.191
19860,2023-01-20 11:09:41.600000,215974402,0,1.01,3.11,4.7,0.65,0,1,215906,200,-36.19
19925,2023-01-20 11:09:41.800000,216174386,0,1.01,3.11,4.69,0.63,0,1,216106,200,-36.19
19991,2023-01-20 11:09:42.000000,216374394,0,1.01,3.1,4.68,0.63,0,1,216306,200,-36.19
20055,2023-01-20 11:09:42.200000,216574360,0,1.01,3.1,4.67,0.64,0,1,216506,200,-36.19
20122,2023-01-20 11:09:42.400000,216774377,0,1.01,3.1,4.67,0.66,0,1,216706,200,-36.19
20186,2023-01-20 11:09:42.600000,216974405,0,1.01,3.1,4.66,0.66,0,1,216906,200,-36.19
20251,2023-01-20 11:09:42.800000,217174387,0,1.01,3.09,4.66,0.67,0,1,217106,200,-36.19
20317,2023-01-20 11:09:43.000000,217374353,0,1.01,3.09,4.65,0.65,0,1,217306,200,-36.191
20381,2023-01-20 11:09:43.200000,217574355,0,1.01,3.09,4.65,0.66,0,1,217506,200,-36.19
20448,2023-01-20 11:09:43.400000,217774382,0,1.01,3.09,4.64,0.66,0,1,217706,200,-36.19
20512,2023-01-20 11:09:43.600000,217974402,0,1.01,3.09,4.64,0.69,0,1,217906,200,-36.19
20577,2023-01-20 11:09:43.800000,218174380,0,1.01,3.09,4.64,0.69,0,1,218106,200,-36.191
20643,2023-01-20 11:09:44.000000,218374401,0,1.01,3.08,4.63,0.68,0,1,218306,200,-36.19
20707,2023-01-20 11:09:44.200000,218574356,0,1.01,3.08,4.63,0.68,0,1,218506,200,-36.191
20774,2023-01-20 11:09:44.400000,218774376,0,1.01,3.08,4.63,0.72,0,1,218706,200,-36.191
20838,2023-01-20 11:09:44.600000,218974452,0,1.01,3.08,4.63,0.74,0,1,218906,200,-36.19
20903,2023-01-20 11:09:44.800000,219174370,0,1.01,3.08,4.63,0.75,0,1,219106,200,-36.191
20970,2023-01-20 11:09:45.000000,219374351,0,1.01,3.08,4.63,0.72,0,1,219306,200,-36.191
21034,2023-01-20 11:09:45.200000,219574349,0,1.01,3.08,4.63,0.73,0,1,219506,200,-36.19
21101,2023-01-20 11:09:45.400000,219774375,0,1.01,3.08,4.63,0.74,0,1,219706,200,-36.19
21167,2023-01-20 11:09:45.600000,219974357,0,1.01,3.09,4.63,0.71,0,1,219906,200,-36.191
21233,2023-01-20 11:09:45.800000,220194406,0,1.01,3.09,4.63,0.73,0,1,220106,200,-36.19
21299,2023-01-20 11:09:46.000000,220394482,0,1.01,3.09,4.63,0.71,0,1,220306,200,-36.19
21364,2023-01-20 11:09:46.200000,220594414,0,1.01,3.09,4.63,0.71,0,1,220506,200,-36.19
21430,2023-01-20 11:09:46.400000,220794442,0,1.01,3.09,4.63,0.71,0,1,220706,200,-36.19
21494,2023-01-20 11:09:46.600000,220994463,0,1.01,3.09,4.63,0.7,0,1,220906,200,-36.19
21559,2023-01-20 11:09:46.800000,221194447,0,1.01,3.09,4.63,0.67,0,1,221106,200,-36.191
21625,2023-01-20 11:09:47.000000,221394490,0,1.01,3.09,4.63,0.7,0,1,221306,200,-36.191
21690,2023-01-20 11:09:47.200000,221594502,0,1.01,3.09,4.63,0.69,0,1,221506,200,-36.19
21756,2023-01-20 11:09:47.400000,221794554,0,1.01,3.09,4.62,0.67,0,1,221706,200,-36.191
21869,2023-01-20 11:09:47.600000,221994629,0,1.01,3.09,4.62,0.72,0,1,221906,200,-36.19
21934,2023-01-20 11:09:47.800000,222194591,0,1.01,3.09,4.62,0.7,0,1,222106,200,-36.19
22000,2023-01-20 11:09:48.000000,222394524,0,1.01,3.09,4.62,0.71,0,1,222306,200,-36.19
22064,2023-01-20 11:09:48.200000,222594604,0,1.01,3.09,4.62,0.73,0,1,222506,200,-36.191
22131,2023-01-20 11:09:48.400000,222794618,0,1.01,3.09,4.62,0.74,0,1,222706,200,-36.191
22195,2023-01-20 11:09:48.600000,222994690,0,1.01,3.09,4.63,0.72,0,1,222906,200,-36.19
22260,2023-01-20 11:09:48.800000,223194608,0,1.01,3.09,4.63,0.72,0,1,223106,200,-36.191
22326,2023-01-20 11:09:49.000000,223394606,0,1.01,3.09,4.63,0.69,0,1,223306,200,-36.19
22390,2023-01-20 11:09:49.200000,223594602,0,1.01,3.09,4.63,0.7,0,1,223506,200,-36.191
22457,2023-01-20 11:09:49.400000,223794617,0,1.01,3.09,4.63,0.7,0,1,223706,200,-36.19
22521,2023-01-20 11:09:49.600000,223994647,0,1.01,3.09,4.63,0.71,0,1,223906,200,-36.19
22587,2023-01-20 11:09:49.800000,224194617,0,1.01,3.09,4.63,0.71,0,1,224106,200,-36.19
22654,2023-01-20 11:09:50.000000,224394600,0,1.01,3.09,4.63,0.73,0,1,224306,200,-36.19
22718,2023-01-20 11:09:50.200000,224594607,0,1.01,3.09,4.63,0.72,0,1,224506,200,-36.19
22785,2023-01-20 11:09:50.400000,224794632,0,1.01,3.09,4.63,0.71,0,1,224706,200,-36.19
22851,2023-01-20 11:09:50.600000,224994711,0,1.01,3.09,4.63,0.76,0,1,224906,200,-36.191
22916,2023-01-20 11:09:50.800000,225194621,0,1.01,3.1,4.63,0.72,0,1,225106,200,-36.19
22982,2023-01-20 11:09:51.000000,225394610,0,1.01,3.09,4.63,0.74,0,1,225306,200,-36.191
23046,2023-01-20 11:09:51.200000,225594640,0,1.01,3.09,4.63,0.72,0,1,225506,200,-36.19
23113,2023-01-20 11:09:51.400000,225794637,0,1.01,3.1,4.63,0.75,0,1,225706,200,-36.19
23177,2023-01-20 11:09:51.600000,225994638,0,1.01,3.1,4.64,0.75,0,1,225906,200,-36.19
23242,2023-01-20 11:09:51.800000,226194594,0,1.01,3.1,4.64,0.74,0,1,226106,200,-36.19
23308,2023-01-20 11:09:52.000000,226394614,0,1.01,3.1,4.64,0.72,0,1,226306,200,-36.19
23372,2023-01-20 11:09:52.200000,226594611,0,1.01,3.1,4.64,0.72,0,1,226506,200,-36.191
23439,2023-01-20 11:09:52.400000,226794638,0,1.01,3.1,4.64,0.73,0,1,226706,200,-36.191
23503,2023-01-20 11:09:52.600000,226994659,0,1.01,3.1,4.64,0.74,0,1,226906,200,-36.191
23568,2023-01-20 11:09:52.800000,227194586,0,1.01,3.1,4.64,0.73,0,1,227106,200,-36.191
23634,2023-01-20 11:09:53.000000,227394624,0,1.01,3.1,4.65,0.75,0,1,227306,200,-36.19
23698,2023-01-20 11:09:53.200000,227594633,0,1.01,3.1,4.65,0.72,0,1,227506,200,-36.191
23765,2023-01-20 11:09:53.400000,227794609,0,1.01,3.1,4.65,0.72,0,1,227706,200,-36.19
23829,2023-01-20 11:09:53.600000,227994640,0,1.01,3.1,4.65,0.71,0,1,227906,200,-36.19
23894,2023-01-20 11:09:53.800000,228194648,0,1.01,3.1,4.65,0.72,0,1,228106,200,-36.19
23960,2023-01-20 11:09:54.000000,228394603,0,1.01,3.1,4.65,0.71,0,1,228306,200,-36.191
24023,2023-01-20 11:09:54.200000,228594593,0,1.01,3.1,4.64,0.71,0,1,228506,200,-36.19
24090,2023-01-20 11:09:54.400000,228794614,0,1.01,3.1,4.64,0.71,0,1,228706,200,-36.19
24154,2023-01-20 11:09:54.600000,228994638,0,1.01,3.1,4.64,0.7,0,1,228906,200,-36.19
24219,2023-01-20 11:09:54.800000,229194591,0,1.01,3.1,4.65,0.7,0,1,229106,200,-36.191
24285,2023-01-20 11:09:55.000000,229394592,0,1.01,3.1,4.65,0.71,0,1,229306,200,-36.19
24350,2023-01-20 11:09:55.200000,229594657,0,1.01,3.1,4.65,0.72,0,1,229506,200,-36.19
24417,2023-01-20 11:09:55.400000,229794602,0,1.01,3.1,4.65,0.73,0,1,229706,200,-36.191
24483,2023-01-20 11:09:55.600000,229994657,0,1.01,3.11,4.65,0.73,0,1,229906,200,-36.19
24548,2023-01-20 11:09:55.800000,230194702,0,1.01,3.11,4.65,0.73,0,1,230106,200,-36.191
24641,2023-01-20 11:09:56.000000,230414201,0,1.01,3.11,4.65,0.73,0,1,230306,200,-36.19
24706,2023-01-20 11:09:56.200000,230614145,0,1.01,3.11,4.66,0.75,0,1,230506,200,-36.191
24772,2023-01-20 11:09:56.400000,230814192,0,1.01,3.11,4.66,0.72,0,1,230747,241,-36.19
24836,2023-01-20 11:09:56.600000,231014335,0,1.01,3.11,4.66,0.7,0,1,230947,200,-36.19
24903,2023-01-20 11:09:56.800000,231214216,0,1.01,3.11,4.66,0.71,0,1,231147,200,-36.191
24967,2023-01-20 11:09:57.000000,231414243,0,1.01,3.11,4.66,0.7,0,1,231347,200,-36.191
25032,2023-01-20 11:09:57.200000,231614383,0,1.01,3.11,4.66,0.71,0,1,231547,200,-36.19
25098,2023-01-20 11:09:57.400000,231814382,0,1.01,3.11,4.66,0.71,0,1,231747,200,-36.19
25162,2023-01-20 11:09:57.600000,232014401,0,1.01,3.11,4.66,0.73,0,1,231947,200,-36.19
25229,2023-01-20 11:09:57.800000,232214371,0,1.01,3.11,4.66,0.72,0,1,232147,200,-36.19
25293,2023-01-20 11:09:58.000000,232414360,0,1.01,3.11,4.66,0.71,0,1,232347,200,-36.191
25358,2023-01-20 11:09:58.200000,232614367,0,1.01,3.11,4.66,0.72,0,1,232547,200,-36.191
25424,2023-01-20 11:09:58.400000,232814352,0,1.01,3.11,4.66,0.7,0,1,232747,200,-36.191
25488,2023-01-20 11:09:58.600000,233014425,0,1.01,3.11,4.66,0.72,0,1,232947,200,-36.19
25555,2023-01-20 11:09:58.800000,233214373,0,1.01,3.11,4.66,0.72,0,1,233147,200,-36.191
25619,2023-01-20 11:09:59.000000,233414376,0,1.01,3.11,4.66,0.7,0,1,233347,200,-36.191
25684,2023-01-20 11:09:59.200000,233614415,0,1.01,3.12,4.67,0.75,0,1,233547,200,-36.191
25750,2023-01-20 11:09:59.400000,233814377,0,1.01,3.12,4.67,0.74,0,1,233747,200,-36.19
25814,2023-01-20 11:09:59.600000,234014408,0,1.01,3.12,4.67,0.73,0,1,233947,200,-36.191
25882,2023-01-20 11:09:59.800000,234214409,0,1.01,3.12,4.67,0.71,0,1,234147,200,-36.191
25946,2023-01-20 11:10:00.000000,234414380,0,1.01,3.12,4.67,0.72,0,1,234347,200,-36.19
26012,2023-01-20 11:10:00.200000,234614359,0,1.01,3.12,4.67,0.74,0,1,234547,200,-36.191
26078,2023-01-20 11:10:00.400000,234814384,0,1.01,3.12,4.67,0.75,0,1,234747,200,-36.191
26144,2023-01-20 11:10:00.600000,235014411,0,1.01,3.12,4.67,0.75,0,1,234947,200,-36.19
26211,2023-01-20 11:10:00.800000,235214362,0,1.01,3.12,4.67,0.73,0,1,235147,200,-36.191
26274,2023-01-20 11:10:01.000000,235414366,0,1.01,3.12,4.67,0.72,0,1,235347,200,-36.191
26339,2023-01-20 11:10:01.200000,235614364,0,1.01,3.12,4.67,0.74,0,1,235547,200,-36.19
26405,2023-01-20 11:10:01.400000,235814384,0,1.01,3.12,4.68,0.75,0,1,235747,200,-36.191
26468,2023-01-20 11:10:01.600000,236014414,0,1.01,3.12,4.69,0.75,0,1,235947,200,-36.191
26535,2023-01-20 11:10:01.800000,236214399,0,1.01,3.12,4.69,0.78,0,1,236147,200,-36.19
26598,2023-01-20 11:10:02.000000,236414361,0,1.01,3.13,4.69,0.77,0,1,236347,200,-36.191
26663,2023-01-20 11:10:02.200000,236614374,0,1.01,3.13,4.7,0.94,0,1,236547,200,-36.191
26729,2023-01-20 11:10:02.400000,236814422,0,1.01,3.13,4.7,0.94,0,1,236747,200,-36.191
26795,2023-01-20 11:10:02.600000,237014417,0,1.01,3.13,4.7,0.87,0,1,236947,200,-36.191
26862,2023-01-20 11:10:02.800000,237214360,0,1.01,3.13,4.7,0.86,0,1,237147,200,-36.191
26925,2023-01-20 11:10:03.000000,237414365,0,1.01,3.12,4.69,0.82,0,1,237347,200,-36.191
26989,2023-01-20 11:10:03.200000,237614372,0,1.01,3.12,4.69,0.75,0,1,237547,200,-36.191
27055,2023-01-20 11:10:03.400000,237814379,0,1.01,3.11,4.68,0.74,0,1,237747,200,-36.191
27118,2023-01-20 11:10:03.600000,238014404,0,1.01,3.1,4.68,0.74,0,1,237947,200,-36.191
27185,2023-01-20 11:10:03.800000,238214357,0,1.01,3.1,4.68,0.84,0,1,238147,200,-36.191
27249,2023-01-20 11:10:04.000000,238414364,0,1.01,3.09,4.68,0.84,0,1,238347,200,-36.19
27313,2023-01-20 11:10:04.200000,238614372,0,1.01,3.09,4.68,0.83,0,1,238547,200,-36.19
27379,2023-01-20 11:10:04.400000,238814425,0,1.01,3.09,4.68,0.8,0,1,238747,200,-36.19
27442,2023-01-20 11:10:04.600000,239014401,0,1.01,3.08,4.67,0.8,0,1,238947,200,-36.191
27509,2023-01-20 11:10:04.800000,239214367,0,1.01,3.08,4.68,0.9,0,1,239147,200,-36.191
27573,2023-01-20 11:10:05.000000,239414349,0,1.01,3.08,4.68,0.89,0,1,239347,200,-36.19
27639,2023-01-20 11:10:05.200000,239634144,0,1.01,3.08,4.68,0.94,0,1,239547,200,-36.191
27705,2023-01-20 11:10:05.400000,239834124,0,1.01,3.08,4.68,0.92,0,1,239747,200,-36.19
27769,2023-01-20 11:10:05.600000,240014409,0,1.01,3.09,4.69,0.9,0,1,239947,200,-36.191
27837,2023-01-20 11:10:05.800000,240234144,0,1.01,3.09,4.69,0.89,0,1,240147,200,-36.191
27901,2023-01-20 11:10:06.000000,240434155,0,1.01,3.09,4.7,0.89,0,1,240347,200,-36.19
27968,2023-01-20 11:10:06.200000,240614377,0,1.01,3.09,4.71,0.89,0,1,240547,200,-36.191
28036,2023-01-20 11:10:06.400000,240834165,0,1.01,3.1,4.71,0.87,0,1,240747,200,-36.19
28099,2023-01-20 11:10:06.600000,241034366,0,1.01,3.1,4.72,0.83,0,1,240947,200,-36.19
28166,2023-01-20 11:10:06.800000,241234338,0,1.01,3.1,4.73,0.87,0,1,241147,200,-36.19
28230,2023-01-20 11:10:07.000000,241434380,0,1.01,3.11,4.73,0.86,0,1,241347,200,-36.19
28294,2023-01-20 11:10:07.200000,241634378,0,1.01,3.11,4.74,0.86,0,1,241547,200,-36.191
28360,2023-01-20 11:10:07.400000,241834358,0,1.01,3.11,4.75,0.91,0,1,241747,200,-36.191
28424,2023-01-20 11:10:07.600000,242034435,0,1.01,3.12,4.75,0.88,0,1,241947,200,-36.191
28491,2023-01-20 11:10:07.800000,242234438,0,1.01,3.12,4.76,0.86,0,1,242147,200,-36.19
28554,2023-01-20 11:10:08.000000,242434361,0,1.01,3.12,4.76,0.8,0,1,242347,200,-36.19
28619,2023-01-20 11:10:08.200000,242634381,0,1.01,3.13,4.77,0.86,0,1,242547,200,-36.19
28685,2023-01-20 11:10:08.400000,242834421,0,1.01,3.13,4.77,0.81,0,1,242747,200,-36.191
28748,2023-01-20 11:10:08.600000,243034438,0,1.01,3.14,4.78,0.79,0,1,242947,200,-36.191
28815,2023-01-20 11:10:08.800000,243234429,0,1.01,3.14,4.78,0.82,0,1,243147,200,-36.191
28879,2023-01-20 11:10:09.000000,243434370,0,1.01,3.14,4.78,0.85,0,1,243347,200,-36.19
28944,2023-01-20 11:10:09.200000,243634377,0,1.01,3.14,4.79,0.83,0,1,243547,200,-36.191
29010,2023-01-20 11:10:09.400000,243834373,0,1.01,3.15,4.79,0.82,0,1,243747,200,-36.19
29122,2023-01-20 11:10:09.600000,244034431,0,1.01,3.15,4.8,0.86,0,1,243947,200,-36.191
29192,2023-01-20 11:10:09.800000,244234389,0,1.09,3.16,4.81,0.91,0,1,244147,200,-36.19
29256,2023-01-20 11:10:10.000000,244434375,0,1.09,3.16,4.81,0.9,0,1,244347,200,-36.191
29321,2023-01-20 11:10:10.200000,244634383,0,1.09,3.17,4.82,0.92,0,1,244547,200,-36.19
29388,2023-01-20 11:10:10.400000,244834419,0,1.09,3.18,4.83,0.91,0,1,244747,200,-36.19
29454,2023-01-20 11:10:10.600000,245034430,0,1.09,3.18,4.84,0.9,0,1,244947,200,-36.191
29521,2023-01-20 11:10:10.800000,245234383,0,1.09,3.19,4.85,0.87,0,1,245147,200,-36.19
29585,2023-01-20 11:10:11.000000,245434425,0,1.09,3.19,4.85,0.87,0,1,245347,200,-36.19
29650,2023-01-20 11:10:11.200000,245634364,0,1.09,3.2,4.86,0.88,0,1,245547,200,-36.191
29716,2023-01-20 11:10:11.400000,245834373,0,1.09,3.2,4.87,0.87,0,1,245747,200,-36.19
29780,2023-01-20 11:10:11.600000,246034424,0,1.09,3.2,4.87,0.85,0,1,245947,200,-36.19
29848,2023-01-20 11:10:11.800000,246234370,0,1.09,3.21,4.88,0.89,0,1,246147,200,-36.19
29912,2023-01-20 11:10:12.000000,246434364,0,1.09,3.21,4.89,0.85,0,1,246347,200,-36.19
29977,2023-01-20 11:10:12.200000,246634379,0,1.09,3.22,4.89,0.86,0,1,246547,200,-36.19
30043,2023-01-20 11:10:12.400000,246834386,0,1.09,3.22,4.9,0.88,0,1,246747,200,-36.19
30107,2023-01-20 11:10:12.600000,247034435,0,1.09,3.23,4.91,0.87,0,1,246947,200,-36.191
30174,2023-01-20 11:10:12.800000,247234383,0,1.09,3.23,4.92,0.84,0,1,247147,200,-36.19
30238,2023-01-20 11:10:13.000000,247434418,0,1.09,3.23,4.92,0.86,0,1,247347,200,-36.19
30303,2023-01-20 11:10:13.200000,247634373,0,1.09,3.24,4.93,0.87,0,1,247547,200,-36.19
30369,2023-01-20 11:10:13.400000,247834388,0,1.09,3.24,4.94,0.87,0,1,247747,200,-36.19
30433,2023-01-20 11:10:13.600000,248034459,0,1.09,3.25,4.94,0.88,0,1,247947,200,-36.19
30501,2023-01-20 11:10:13.800000,248234380,0,1.09,3.25,4.95,0.86,0,1,248147,200,-36.19
30565,2023-01-20 11:10:14.000000,248434374,0,1.09,3.25,4.96,0.86,0,1,248347,200,-36.19
30629,2023-01-20 11:10:14.200000,248634354,0,1.09,3.26,4.96,0.89,0,1,248547,200,-36.19
30696,2023-01-20 11:10:14.400000,248834354,0,1.09,3.26,4.97,0.86,0,1,248747,200,-36.19
30760,2023-01-20 11:10:14.600000,249034405,0,1.09,3.26,4.98,0.89,0,1,248947,200,-36.19
30827,2023-01-20 11:10:14.800000,249234365,0,1.09,3.27,4.98,0.86,0,1,249147,200,-36.19
30891,2023-01-20 11:10:15.000000,249434413,0,1.09,3.27,4.99,0.9,0,1,249347,200,-36.19
30955,2023-01-20 11:10:15.200000,249634354,0,1.09,3.27,4.99,0.87,0,1,249547,200,-36.19
31023,2023-01-20 11:10:15.400000,249834370,0,1.09,3.28,5,0.91,0,1,249747,200,-36.19
31089,2023-01-20 11:10:15.600000,250034452,0,1.09,3.28,5.01,0.88,0,1,249947,200,-36.19
31157,2023-01-20 11:10:15.800000,250254177,0,1.09,3.28,5.01,0.87,0,1,250147,200,-36.19
31221,2023-01-20 11:10:16.000000,250454248,0,1.09,3.28,5.01,0.87,0,1,250347,200,-36.19
31286,2023-01-20 11:10:16.200000,250654181,0,1.09,3.28,5.01,0.86,0,1,250547,200,-36.189
31352,2023-01-20 11:10:16.400000,250854317,0,1.09,3.28,5.01,0.84,0,1,250806,259,-36.189
31416,2023-01-20 11:10:16.600000,251054175,0,1.09,3.28,5.01,0.85,0,1,251006,200,-36.19
31484,2023-01-20 11:10:16.800000,251254326,0,1.09,3.28,5.01,0.8,0,1,251206,200,-36.19
31547,2023-01-20 11:10:17.000000,251454404,0,1.09,3.29,5.01,0.82,0,1,251406,200,-36.189
31612,2023-01-20 11:10:17.200000,251654317,0,1.09,3.29,5,0.83,0,1,251606,200,-36.189
31678,2023-01-20 11:10:17.400000,251854381,0,1.09,3.29,5,0.83,0,1,251806,200,-36.189
31742,2023-01-20 11:10:17.600000,252054410,0,1.09,3.29,5,0.82,0,1,252006,200,-36.19
31810,2023-01-20 11:10:17.800000,252254375,0,1.09,3.3,5,0.84,0,1,252206,200,-36.19
31873,2023-01-20 11:10:18.000000,252454387,0,1.09,3.3,5,0.82,0,1,252406,200,-36.189
31939,2023-01-20 11:10:18.200000,252654366,0,1.09,3.3,5,0.83,0,1,252606,200,-36.19
32005,2023-01-20 11:10:18.400000,252854381,0,1.09,3.3,5,0.82,0,1,252806,200,-36.19
32069,2023-01-20 11:10:18.600000,253054407,0,1.09,3.31,5,0.83,0,1,253006,200,-36.189
32137,2023-01-20 11:10:18.800000,253254387,0,1.09,3.31,5,0.83,0,1,253206,200,-36.19
32200,2023-01-20 11:10:19.000000,253454416,0,1.09,3.31,5,0.82,0,1,253406,200,-36.189
32265,2023-01-20 11:10:19.200000,253654360,0,1.09,3.31,5,0.81,0,1,253606,200,-36.189
32331,2023-01-20 11:10:19.400000,253854382,0,1.09,3.31,5,0.82,0,1,253806,200,-36.19
32395,2023-01-20 11:10:19.600000,254054456,0,1.09,3.31,5,0.82,0,1,254006,200,-36.19
32464,2023-01-20 11:10:19.800000,254254358,0,1.09,3.31,5,0.82,0,1,254206,200,-36.189
32527,2023-01-20 11:10:20.000000,254454377,0,1.09,3.31,5,0.82,0,1,254406,200,-36.189
32593,2023-01-20 11:10:20.200000,254654369,0,1.09,3.31,5,0.82,0,1,254606,200,-36.189
32659,2023-01-20 11:10:20.400000,254854377,0,1.09,3.31,5,0.81,0,1,254806,200,-36.189
32726,2023-01-20 11:10:20.600000,255054408,0,1.09,3.31,5,0.8,0,1,255006,200,-36.189
32794,2023-01-20 11:10:20.800000,255254381,0,1.09,3.31,4.99,0.8,0,1,255206,200,-36.19
32857,2023-01-20 11:10:21.000000,255454380,0,1.09,3.31,4.99,0.8,0,1,255406,200,-36.189
32921,2023-01-20 11:10:21.200000,255654364,0,1.09,3.31,4.99,0.78,0,1,255606,200,-36.19
32988,2023-01-20 11:10:21.400000,255854381,0,1.09,3.31,4.99,0.82,0,1,255806,200,-36.19
33052,2023-01-20 11:10:21.600000,256054453,0,1.09,3.31,4.99,0.82,0,1,256006,200,-36.189
33120,2023-01-20 11:10:21.800000,256254367,0,1.09,3.31,4.99,0.79,0,1,256206,200,-36.189
33183,2023-01-20 11:10:22.000000,256454374,0,1.09,3.31,4.99,0.79,0,1,256406,200,-36.19
33247,2023-01-20 11:10:22.200000,256654408,0,1.09,3.31,4.99,0.8,0,1,256606,200,-36.189
33315,2023-01-20 11:10:22.400000,256854369,0,1.09,3.31,4.98,0.75,0,1,256806,200,-36.19
33379,2023-01-20 11:10:22.600000,257054410,0,1.09,3.31,4.98,0.78,0,1,257006,200,-36.189
33447,2023-01-20 11:10:22.800000,257254382,0,1.09,3.31,4.97,0.75,0,1,257206,200,-36.189
33510,2023-01-20 11:10:23.000000,257454364,0,1.09,3.3,4.97,0.75,0,1,257406,200,-36.189
33573,2023-01-20 11:10:23.200000,257654357,0,1.09,3.3,4.96,0.74,0,1,257606,200,-36.19
33640,2023-01-20 11:10:23.400000,257854383,0,1.09,3.3,4.95,0.75,0,1,257806,200,-36.189
33704,2023-01-20 11:10:23.600000,258054415,0,1.09,3.3,4.95,0.74,0,1,258006,200,-36.19
33772,2023-01-20 11:10:23.800000,258254376,0,1.09,3.29,4.94,0.75,0,1,258206,200,-36.189
33835,2023-01-20 11:10:24.000000,258454380,0,1.09,3.29,4.93,0.77,0,1,258406,200,-36.189
33899,2023-01-20 11:10:24.200000,258654402,0,1.09,3.29,4.92,0.77,0,1,258606,200,-36.189
33966,2023-01-20 11:10:24.400000,258854380,0,1.09,3.28,4.92,0.76,0,1,258806,200,-36.189
34031,2023-01-20 11:10:24.600000,259054399,0,1.09,3.28,4.91,0.79,0,1,259006,200,-36.189
34099,2023-01-20 11:10:24.800000,259254419,0,1.09,3.28,4.9,0.73,0,1,259206,200,-36.189
34163,2023-01-20 11:10:25.000000,259474139,0,1.09,3.28,4.9,0.74,0,1,259406,200,-36.189
34226,2023-01-20 11:10:25.200000,259654346,0,1.09,3.28,4.89,0.74,0,1,259606,200,-36.189
34294,2023-01-20 11:10:25.400000,259874154,0,1.09,3.27,4.88,0.74,0,1,259806,200,-36.189
34361,2023-01-20 11:10:25.600000,260074345,0,1.09,3.27,4.88,0.76,0,1,260006,200,-36.189
34429,2023-01-20 11:10:25.800000,260274305,0,1.09,3.27,4.87,0.76,0,1,260206,200,-36.189
34492,2023-01-20 11:10:26.000000,260474379,0,1.09,3.27,4.86,0.76,0,1,260406,200,-36.189
34606,2023-01-20 11:10:26.200000,260674352,0,1.09,3.26,4.86,0.74,0,1,260606,200,-36.189
34672,2023-01-20 11:10:26.400000,260874367,0,1.09,3.26,4.85,0.74,0,1,260806,200,-36.189
34736,2023-01-20 11:10:26.600000,261074409,0,1.09,3.26,4.84,0.77,0,1,261006,200,-36.189
34805,2023-01-20 11:10:26.800000,261274380,0,1.09,3.26,4.84,0.8,0,1,261206,200,-36.188
34868,2023-01-20 11:10:27.000000,261474337,0,1.09,3.26,4.84,0.76,0,1,261406,200,-36.189
34933,2023-01-20 11:10:27.200000,261674344,0,1.09,3.25,4.83,0.76,0,1,261606,200,-36.189
34999,2023-01-20 11:10:27.400000,261874347,0,1.09,3.25,4.83,0.77,0,1,261806,200,-36.189
35063,2023-01-20 11:10:27.600000,262074410,0,1.09,3.25,4.82,0.76,0,1,262006,200,-36.189
35131,2023-01-20 11:10:27.800000,262274372,0,1.09,3.25,4.82,0.75,0,1,262206,200,-36.189
35194,2023-01-20 11:10:28.000000,262474367,0,1.09,3.25,4.81,0.76,0,1,262406,200,-36.189
35259,2023-01-20 11:10:28.200000,262674396,0,1.09,3.25,4.81,0.77,0,1,262606,200,-36.188
35325,2023-01-20 11:10:28.400000,262874357,0,1.09,3.24,4.81,0.77,0,1,262806,200,-36.189
35389,2023-01-20 11:10:28.600000,263074411,0,1.09,3.24,4.8,0.75,0,1,263006,200,-36.188
35458,2023-01-20 11:10:28.800000,263274374,0,1.09,3.24,4.8,0.75,0,1,263206,200,-36.189
35521,2023-01-20 11:10:29.000000,263474363,0,1.09,3.24,4.79,0.76,0,1,263406,200,-36.188
35585,2023-01-20 11:10:29.200000,263674352,0,1.09,3.24,4.79,0.75,0,1,263606,200,-36.188
35652,2023-01-20 11:10:29.400000,263874348,0,1.09,3.24,4.79,0.76,0,1,263806,200,-36.189
35716,2023-01-20 11:10:29.600000,264074432,0,1.09,3.23,4.79,0.78,0,1,264006,200,-36.189
35785,2023-01-20 11:10:29.800000,264274374,0,1.09,3.23,4.78,0.79,0,1,264206,200,-36.188
35848,2023-01-20 11:10:30.000000,264474360,0,1.09,3.23,4.78,0.79,0,1,264406,200,-36.188
35912,2023-01-20 11:10:30.200000,264674410,0,1.09,3.23,4.78,0.78,0,1,264606,200,-36.188
35979,2023-01-20 11:10:30.400000,264874351,0,1.09,3.23,4.77,0.78,0,1,264806,200,-36.188
36045,2023-01-20 11:10:30.600000,265074431,0,1.09,3.22,4.77,0.8,0,1,265006,200,-36.189
36114,2023-01-20 11:10:30.800000,265274415,0,1.09,3.22,4.77,0.78,0,1,265206,200,-36.188
36178,2023-01-20 11:10:31.000000,265474368,0,1.09,3.22,4.77,0.78,0,1,265406,200,-36.189
36242,2023-01-20 11:10:31.200000,265674375,0,1.09,3.22,4.77,0.82,0,1,265606,200,-36.189
36309,2023-01-20 11:10:31.400000,265874346,0,1.09,3.22,4.77,0.8,0,1,265806,200,-36.189
36373,2023-01-20 11:10:31.600000,266074426,0,1.09,3.22,4.77,0.81,0,1,266006,200,-36.189
36441,2023-01-20 11:10:31.800000,266274375,0,1.09,3.22,4.77,0.82,0,1,266206,200,-36.189
36504,2023-01-20 11:10:32.000000,266474363,0,1.09,3.22,4.77,0.8,0,1,266406,200,-36.189
36568,2023-01-20 11:10:32.200000,266674364,0,1.09,3.22,4.77,0.81,0,1,266606,200,-36.189
36635,2023-01-20 11:10:32.400000,266874356,0,1.08,3.22,4.77,0.82,0,1,266806,200,-36.189
36699,2023-01-20 11:10:32.600000,267074431,0,1.08,3.22,4.77,0.83,0,1,267006,200,-36.189
36767,2023-01-20 11:10:32.800000,267274405,0,1.08,3.22,4.77,0.79,0,1,267206,200,-36.188
36830,2023-01-20 11:10:33.000000,267474357,0,1.08,3.22,4.77,0.79,0,1,267406,200,-36.188
36895,2023-01-20 11:10:33.200000,267674362,0,1.08,3.22,4.77,0.83,0,1,267606,200,-36.189
36962,2023-01-20 11:10:33.400000,267874381,0,1.08,3.22,4.77,0.82,0,1,267806,200,-36.189
37026,2023-01-20 11:10:33.600000,268074423,0,1.08,3.21,4.77,0.81,0,1,268006,200,-36.188
37094,2023-01-20 11:10:33.800000,268294464,0,1.08,3.21,4.77,0.79,0,1,268206,200,-36.188
37157,2023-01-20 11:10:34.000000,268474342,0,1.08,3.21,4.77,0.81,0,1,268406,200,-36.188
37221,2023-01-20 11:10:34.200000,268674332,0,1.08,3.21,4.77,0.81,0,1,268606,200,-36.188
37288,2023-01-20 11:10:34.400000,268894448,0,1.01,3.21,4.77,0.8,0,1,268806,200,-36.188
37352,2023-01-20 11:10:34.600000,269094530,0,1.01,3.21,4.76,0.78,0,1,269006,200,-36.188
37420,2023-01-20 11:10:34.800000,269274383,0,1.01,3.21,4.76,0.79,0,1,269206,200,-36.188
37483,2023-01-20 11:10:35.000000,269494497,0,1.01,3.21,4.76,0.81,0,1,269406,200,-36.189
37549,2023-01-20 11:10:35.200000,269694514,0,1.01,3.21,4.76,0.79,0,1,269606,200,-36.188
37615,2023-01-20 11:10:35.400000,269894551,0,1.01,3.21,4.76,0.8,0,1,269806,200,-36.188
37681,2023-01-20 11:10:35.600000,270094608,0,1.01,3.21,4.75,0.78,0,1,270006,200,-36.188
37750,2023-01-20 11:10:35.800000,270294613,0,1.01,3.2,4.75,0.8,0,1,270206,200,-36.188
37813,2023-01-20 11:10:36.000000,270494596,0,1.01,3.2,4.75,0.78,0,1,270406,200,-36.188
37878,2023-01-20 11:10:36.200000,270694604,0,1.01,3.2,4.75,0.79,0,1,270606,200,-36.188
37944,2023-01-20 11:10:36.400000,270894628,0,1.01,3.2,4.75,0.79,0,1,270846,240,-36.188
38008,2023-01-20 11:10:36.600000,271094722,0,1.01,3.2,4.75,0.8,0,1,271046,200,-36.188
38076,2023-01-20 11:10:36.800000,271294701,0,1.01,3.2,4.74,0.79,0,1,271246,200,-36.188
38139,2023-01-20 11:10:37.000000,271494617,0,1.01,3.2,4.74,0.8,0,1,271446,200,-36.188
38203,2023-01-20 11:10:37.200000,271694628,0,1.01,3.2,4.74,0.8,0,1,271646,200,-36.188
38271,2023-01-20 11:10:37.400000,271894664,0,1.01,3.2,4.74,0.82,0,1,271846,200,-36.189
38335,2023-01-20 11:10:37.600000,272094684,0,1.01,3.2,4.74,0.85,0,1,272046,200,-36.188
38403,2023-01-20 11:10:37.800000,272294637,0,1.01,3.2,4.75,0.84,0,1,272246,200,-36.188
38465,2023-01-20 11:10:38.000000,272494628,0,1.01,3.2,4.75,0.84,0,1,272446,200,-36.188
38529,2023-01-20 11:10:38.200000,272694635,0,1.01,3.2,4.76,0.84,0,1,272646,200,-36.189
38596,2023-01-20 11:10:38.400000,272894625,0,1.01,3.2,4.76,0.85,0,1,272846,200,-36.188
38660,2023-01-20 11:10:38.600000,273094690,0,1.01,3.2,4.77,0.85,0,1,273046,200,-36.188
38728,2023-01-20 11:10:38.800000,273294637,0,1.01,3.2,4.77,0.85,0,1,273246,200,-36.188
38791,2023-01-20 11:10:39.000000,273494617,0,1.01,3.2,4.77,0.83,0,1,273446,200,-36.188
38855,2023-01-20 11:10:39.200000,273694633,0,1.01,3.2,4.77,0.86,0,1,273646,200,-36.188
38922,2023-01-20 11:10:39.400000,273894668,0,1.01,3.2,4.77,0.82,0,1,273846,200,-36.187
38987,2023-01-20 11:10:39.600000,274094677,0,1.01,3.2,4.77,0.79,0,1,274046,200,-36.187
39056,2023-01-20 11:10:39.800000,274294648,0,1.01,3.2,4.77,0.83,0,1,274246,200,-36.188
39119,2023-01-20 11:10:40.000000,274494674,0,1.01,3.2,4.76,0.81,0,1,274446,200,-36.188
39183,2023-01-20 11:10:40.200000,274694634,0,1.01,3.2,4.75,0.79,0,1,274646,200,-36.188
39250,2023-01-20 11:10:40.400000,274894649,0,1.01,3.19,4.75,0.81,0,1,274846,200,-36.187
39316,2023-01-20 11:10:40.600000,275094687,0,1.01,3.19,4.74,0.81,0,1,275046,200,-36.188
39386,2023-01-20 11:10:40.800000,275294652,0,1.01,3.19,4.74,0.83,0,1,275246,200,-36.188
39450,2023-01-20 11:10:41.000000,275494627,0,1.01,3.19,4.73,0.84,0,1,275446,200,-36.187
39514,2023-01-20 11:10:41.200000,275694617,0,1.01,3.18,4.73,0.83,0,1,275646,200,-36.188
39581,2023-01-20 11:10:41.400000,275894609,0,1.01,3.18,4.72,0.78,0,1,275846,200,-36.188
39645,2023-01-20 11:10:41.600000,276094696,0,1.01,3.18,4.71,0.76,0,1,276046,200,-36.188
39714,2023-01-20 11:10:41.800000,276294643,0,1.01,3.17,4.71,0.76,0,1,276246,200,-36.188
39777,2023-01-20 11:10:42.000000,276494659,0,1.01,3.17,4.7,0.75,0,1,276446,200,-36.187
39841,2023-01-20 11:10:42.200000,276694605,0,1.01,3.17,4.7,0.75,0,1,276646,200,-36.188
39908,2023-01-20 11:10:42.400000,276894617,0,1.01,3.16,4.69,0.76,0,1,276846,200,-36.188
39972,2023-01-20 11:10:42.600000,277094706,0,1.01,3.16,4.69,0.78,0,1,277046,200,-36.188
40089,2023-01-20 11:10:42.800000,277294659,0,1.01,3.16,4.68,0.76,0,1,277246,200,-36.188
40152,2023-01-20 11:10:43.000000,277494611,0,1.01,3.16,4.68,0.76,0,1,277446,200,-36.187
40216,2023-01-20 11:10:43.200000,277694626,0,1.01,3.16,4.68,0.78,0,1,277646,200,-36.188
40283,2023-01-20 11:10:43.400000,277894592,0,1.01,3.16,4.68,0.78,0,1,277846,200,-36.188
40377,2023-01-20 11:10:43.600000,278114147,0,1.01,3.16,4.67,0.79,0,1,278046,200,-36.188
40443,2023-01-20 11:10:43.800000,278314143,0,1.01,3.16,4.67,0.78,0,1,278246,200,-36.188
40507,2023-01-20 11:10:44.000000,278514158,0,1.01,3.16,4.67,0.75,0,1,278446,200,-36.188
40574,2023-01-20 11:10:44.200000,278714188,0,1.01,3.16,4.67,0.77,0,1,278646,200,-36.187
40639,2023-01-20 11:10:44.400000,278914186,0,1.01,3.16,4.67,0.8,0,1,278846,200,-36.188
40704,2023-01-20 11:10:44.600000,279114247,0,1.01,3.16,4.67,0.78,0,1,279046,200,-36.188
40770,2023-01-20 11:10:44.800000,279314202,0,1.01,3.16,4.67,0.8,0,1,279246,200,-36.187
40833,2023-01-20 11:10:45.000000,279514254,0,1.01,3.16,4.66,0.76,0,1,279446,200,-36.188
40869,2023-01-20 11:10:45.200000,279694619,0,1.01,3.16,4.66,0.75,0,1,279646,200,-36.187
40965,2023-01-20 11:10:45.400000,279914363,0,1.08,3.16,4.66,0.79,0,1,279846,200,-36.187
41032,2023-01-20 11:10:45.600000,280114382,0,1.08,3.16,4.66,0.77,0,1,280046,200,-36.187
41098,2023-01-20 11:10:45.800000,280314248,0,1.08,3.16,4.67,0.81,0,1,280246,200,-36.188
41163,2023-01-20 11:10:46.000000,280514386,0,1.08,3.16,4.67,0.77,0,1,280446,200,-36.187
41229,2023-01-20 11:10:46.200000,280714362,0,1.08,3.16,4.68,0.81,0,1,280646,200,-36.187
41295,2023-01-20 11:10:46.400000,280914353,0,1.08,3.17,4.68,0.82,0,1,280846,200,-36.188
41360,2023-01-20 11:10:46.600000,281114413,0,1.08,3.17,4.69,0.83,0,1,281046,200,-36.188
41426,2023-01-20 11:10:46.800000,281314359,0,1.08,3.18,4.69,0.84,0,1,281246,200,-36.188
41489,2023-01-20 11:10:47.000000,281514357,0,1.08,3.18,4.7,0.83,0,1,281446,200,-36.187
41555,2023-01-20 11:10:47.200000,281714369,0,1.08,3.18,4.7,0.84,0,1,281646,200,-36.187
41621,2023-01-20 11:10:47.400000,281914358,0,1.08,3.19,4.71,0.83,0,1,281846,200,-36.188
41686,2023-01-20 11:10:47.600000,282114411,0,1.08,3.19,4.71,0.82,0,1,282046,200,-36.188
41752,2023-01-20 11:10:47.800000,282314370,0,1.08,3.19,4.71,0.81,0,1,282246,200,-36.187
41815,2023-01-20 11:10:48.000000,282514408,0,1.08,3.19,4.72,0.81,0,1,282446,200,-36.188
41882,2023-01-20 11:10:48.200000,282714361,0,1.08,3.2,4.72,0.8,0,1,282646,200,-36.187
41948,2023-01-20 11:10:48.400000,282914362,0,1.08,3.2,4.72,0.81,0,1,282846,200,-36.187
42013,2023-01-20 11:10:48.600000,283114455,0,1.08,3.2,4.73,0.85,0,1,283046,200,-36.187
42079,2023-01-20 11:10:48.800000,283314363,0,1.08,3.2,4.73,0.83,0,1,283246,200,-36.187
42142,2023-01-20 11:10:49.000000,283514362,0,1.08,3.2,4.73,0.83,0,1,283446,200,-36.188
42208,2023-01-20 11:10:49.200000,283714358,0,1.08,3.2,4.74,0.84,0,1,283646,200,-36.187
42274,2023-01-20 11:10:49.400000,283914364,0,1.08,3.2,4.74,0.81,0,1,283846,200,-36.187
42340,2023-01-20 11:10:49.600000,284114417,0,1.08,3.2,4.74,0.82,0,1,284046,200,-36.188
42406,2023-01-20 11:10:49.800000,284314370,0,1.08,3.21,4.74,0.85,0,1,284246,200,-36.187
42469,2023-01-20 11:10:50.000000,284514358,0,1.08,3.21,4.74,0.87,0,1,284446,200,-36.187
42535,2023-01-20 11:10:50.200000,284714354,0,1.08,3.21,4.74,0.83,0,1,284646,200,-36.187
42602,2023-01-20 11:10:50.400000,284914365,0,1.08,3.21,4.74,0.81,0,1,284846,200,-36.187
42669,2023-01-20 11:10:50.600000,285114449,0,1.08,3.21,4.74,0.8,0,1,285046,200,-36.187
42735,2023-01-20 11:10:50.800000,285314361,0,1.08,3.21,4.74,0.81,0,1,285246,200,-36.187
42799,2023-01-20 11:10:51.000000,285514356,0,1.08,3.2,4.74,0.8,0,1,285446,200,-36.187
42864,2023-01-20 11:10:51.200000,285714405,0,1.08,3.2,4.74,0.82,0,1,285646,200,-36.187
42930,2023-01-20 11:10:51.400000,285914368,0,1.08,3.2,4.74,0.83,0,1,285846,200,-36.187
42995,2023-01-20 11:10:51.600000,286114414,0,1.08,3.2,4.74,0.83,0,1,286046,200,-36.187
43061,2023-01-20 11:10:51.800000,286314360,0,1.08,3.2,4.74,0.83,0,1,286246,200,-36.187
43124,2023-01-20 11:10:52.000000,286514366,0,1.08,3.2,4.74,0.84,0,1,286446,200,-36.187
43190,2023-01-20 11:10:52.200000,286714357,0,1.08,3.2,4.74,0.8,0,1,286646,200,-36.187
43256,2023-01-20 11:10:52.400000,286914358,0,1.08,3.2,4.74,0.81,0,1,286846,200,-36.187
43322,2023-01-20 11:10:52.600000,287114387,0,1.08,3.2,4.74,0.8,0,1,287046,200,-36.186
43389,2023-01-20 11:10:52.800000,287334128,0,1.08,3.2,4.74,0.82,0,1,287246,200,-36.187
43451,2023-01-20 11:10:53.000000,287514367,0,1.08,3.2,4.74,0.79,0,1,287446,200,-36.187
43517,2023-01-20 11:10:53.200000,287714405,0,1.08,3.2,4.73,0.78,0,1,287646,200,-36.187
43583,2023-01-20 11:10:53.400000,287914352,0,1.08,3.2,4.73,0.76,0,1,287846,200,-36.187
43648,2023-01-20 11:10:53.600000,288114407,0,1.08,3.19,4.73,0.78,0,1,288046,200,-36.187
43714,2023-01-20 11:10:53.800000,288314382,0,1.08,3.19,4.73,0.77,0,1,288246,200,-36.186
43777,2023-01-20 11:10:54.000000,288534325,0,1.08,3.19,4.73,0.8,0,1,288446,200,-36.186
43843,2023-01-20 11:10:54.200000,288734246,0,1.08,3.19,4.73,0.8,0,1,288646,200,-36.187
43909,2023-01-20 11:10:54.400000,288934249,0,1.08,3.19,4.73,0.82,0,1,288846,200,-36.187
43974,2023-01-20 11:10:54.600000,289134466,0,1.08,3.19,4.73,0.82,0,1,289046,200,-36.187
44041,2023-01-20 11:10:54.800000,289334368,0,1.08,3.19,4.73,0.8,0,1,289246,200,-36.187
44104,2023-01-20 11:10:55.000000,289534389,0,1.08,3.19,4.73,0.84,0,1,289446,200,-36.187
44170,2023-01-20 11:10:55.200000,289734354,0,1.08,3.19,4.73,0.84,0,1,289646,200,-36.187
44236,2023-01-20 11:10:55.400000,289934378,0,1.08,3.19,4.73,0.8,0,1,289846,200,-36.187
44303,2023-01-20 11:10:55.600000,290134315,0,1.08,3.19,4.73,0.8,0,1,290046,200,-36.186
44369,2023-01-20 11:10:55.800000,290334359,0,1.08,3.19,4.72,0.79,0,1,290246,200,-36.187
44432,2023-01-20 11:10:56.000000,290534381,0,1.08,3.19,4.72,0.78,0,1,290446,200,-36.186
44499,2023-01-20 11:10:56.200000,290734386,0,1.08,3.19,4.72,0.78,0,1,290646,200,-36.187
44565,2023-01-20 11:10:56.400000,290934376,0,1.08,3.19,4.72,0.79,0,1,290886,240,-36.187
44630,2023-01-20 11:10:56.600000,291134469,0,1.08,3.18,4.72,0.78,0,1,291086,200,-36.187
44697,2023-01-20 11:10:56.800000,291334375,0,1.08,3.18,4.72,0.78,0,1,291286,200,-36.186
44760,2023-01-20 11:10:57.000000,291534385,0,1.08,3.18,4.72,0.79,0,1,291486,200,-36.186
44826,2023-01-20 11:10:57.200000,291734428,0,1.08,3.18,4.71,0.79,0,1,291686,200,-36.187
44892,2023-01-20 11:10:57.400000,291934400,0,1.08,3.18,4.71,0.77,0,1,291886,200,-36.186
44957,2023-01-20 11:10:57.600000,292134433,0,1.08,3.18,4.71,0.77,0,1,292086,200,-36.186
45023,2023-01-20 11:10:57.800000,292334377,0,1.08,3.17,4.71,0.77,0,1,292286,200,-36.187
45086,2023-01-20 11:10:58.000000,292534384,0,1.08,3.17,4.7,0.75,0,1,292486,200,-36.187
45152,2023-01-20 11:10:58.200000,292734381,0,1.08,3.17,4.7,0.72,0,1,292686,200,-36.187
45218,2023-01-20 11:10:58.400000,292934363,0,1.08,3.17,4.69,0.76,0,1,292886,200,-36.186
45283,2023-01-20 11:10:58.600000,293134430,0,1.08,3.17,4.69,0.8,0,1,293086,200,-36.186
45349,2023-01-20 11:10:58.800000,293334362,0,1.08,3.17,4.69,0.77,0,1,293286,200,-36.187
45413,2023-01-20 11:10:59.000000,293534376,0,1.08,3.17,4.69,0.77,0,1,293486,200,-36.186
45479,2023-01-20 11:10:59.200000,293734418,0,1.08,3.17,4.69,0.77,0,1,293686,200,-36.186
45594,2023-01-20 11:10:59.400000,293934387,0,1.08,3.17,4.69,0.76,0,1,293886,200,-36.186
45660,2023-01-20 11:10:59.600000,294134436,0,1.08,3.17,4.69,0.75,0,1,294086,200,-36.187
45726,2023-01-20 11:10:59.800000,294334431,0,1.08,3.17,4.69,0.75,0,1,294286,200,-36.186
45789,2023-01-20 11:11:00.000000,294534376,0,1.08,3.17,4.69,0.78,0,1,294486,200,-36.186
45855,2023-01-20 11:11:00.200000,294734382,0,1.08,3.17,4.69,0.78,0,1,294686,200,-36.186
45921,2023-01-20 11:11:00.400000,294934368,0,1.08,3.17,4.69,0.77,0,1,294886,200,-36.187
45988,2023-01-20 11:11:00.600000,295134443,0,1.08,3.17,4.69,0.77,0,1,295086,200,-36.186
46054,2023-01-20 11:11:00.800000,295334370,0,1.08,3.17,4.69,0.76,0,1,295286,200,-36.187
46117,2023-01-20 11:11:01.000000,295534379,0,1.08,3.17,4.69,0.79,0,1,295486,200,-36.186
46185,2023-01-20 11:11:01.200000,295734382,0,1.08,3.17,4.69,0.79,0,1,295686,200,-36.186
46251,2023-01-20 11:11:01.400000,295934362,0,1.08,3.17,4.69,0.79,0,1,295886,200,-36.187
46316,2023-01-20 11:11:01.600000,296134431,0,1.08,3.17,4.69,0.78,0,1,296086,200,-36.186
46382,2023-01-20 11:11:01.800000,296334415,0,1.08,3.17,4.69,0.79,0,1,296286,200,-36.186
46445,2023-01-20 11:11:02.000000,296534353,0,1.08,3.18,4.69,0.82,0,1,296486,200,-36.186
46511,2023-01-20 11:11:02.200000,296734425,0,1.08,3.18,4.69,0.81,0,1,296686,200,-36.186
46577,2023-01-20 11:11:02.400000,296934425,0,1.08,3.18,4.7,0.83,0,1,296886,200,-36.186
46642,2023-01-20 11:11:02.600000,297134427,0,1.08,3.18,4.7,0.81,0,1,297086,200,-36.186
46708,2023-01-20 11:11:02.800000,297334388,0,1.08,3.18,4.7,0.79,0,1,297286,200,-36.187
46772,2023-01-20 11:11:03.000000,297554124,0,1.08,3.18,4.69,0.76,0,1,297486,200,-36.186
46839,2023-01-20 11:11:03.200000,297754178,0,1.08,3.18,4.69,0.76,0,1,297686,200,-36.186
46904,2023-01-20 11:11:03.400000,297934371,0,1.08,3.18,4.69,0.77,0,1,297886,200,-36.186
46970,2023-01-20 11:11:03.600000,298154237,0,1.08,3.18,4.68,0.71,0,1,298086,200,-36.186
47036,2023-01-20 11:11:03.800000,298354233,0,1.08,3.17,4.68,0.73,0,1,298286,200,-36.186
47099,2023-01-20 11:11:04.000000,298554230,0,1.08,3.17,4.68,0.78,0,1,298486,200,-36.186
47165,2023-01-20 11:11:04.200000,298754310,0,1.08,3.17,4.68,0.77,0,1,298686,200,-36.186
47231,2023-01-20 11:11:04.400000,298954229,0,1.08,3.17,4.67,0.75,0,1,298886,200,-36.186
47296,2023-01-20 11:11:04.600000,299154408,0,1.08,3.17,4.67,0.78,0,1,299086,200,-36.186
47362,2023-01-20 11:11:04.800000,299354364,0,1.08,3.17,4.67,0.77,0,1,299286,200,-36.186
47425,2023-01-20 11:11:05.000000,299554352,0,1.08,3.17,4.67,0.77,0,1,299486,200,-36.186
47491,2023-01-20 11:11:05.200000,299754381,0,1.08,3.17,4.67,0.76,0,1,299686,200,-36.186
