LineNo,UTC_Approx,UTC_GPS,TimeUS,I,Status,GMS,GWk,NSats,HDop,Lat,Lng,Alt,Spd,GCrs,VZ,Yaw,U
521,2023-01-20 11:08:47.400000,2023-01-20 11:08:47.400000,161653586,0,3,472145400,2245,14,0.72,39.8044363,32.3787903,738.54,0.07300001,344.1321,0.039,0,1
1116,2023-01-20 11:08:47.600000,2023-01-20 11:08:47.600000,161864113,0,3,472145600,2245,14,0.72,39.8044359,32.3787907,738.41,0.277,344.1321,0.138,0,1
1568,2023-01-20 11:08:47.800000,2023-01-20 11:08:47.800000,162053841,0,3,472145800,2245,14,0.72,39.8044358,32.3787912,738.28,0.187,344.1321,-0.205,0,1
1902,2023-01-20 11:08:48.000000,2023-01-20 11:08:48.000000,162254326,0,3,472146000,2245,14,0.72,39.8044351,32.3787916,738.07,0.378,344.1321,0.034,0,1
1999,2023-01-20 11:08:48.200000,2023-01-20 11:08:48.200000,162454317,0,3,472146200,2245,14,0.72,39.8044342,32.3787921,737.91,0.283,344.1321,-0.018,0,1
2094,2023-01-20 11:08:48.400000,2023-01-20 11:08:48.400000,162654251,0,3,472146400,2245,14,0.72,39.8044341,32.3787922,737.88,0.119,344.1321,-0.011,0,1
2218,2023-01-20 11:08:48.600000,2023-01-20 11:08:48.600000,162874131,0,3,472146600,2245,14,0.72,39.804434,32.3787921,737.83,0.09100001,344.1321,0.034,0,1
2326,2023-01-20 11:08:48.800000,2023-01-20 11:08:48.800000,163074092,0,3,472146800,2245,14,0.72,39.8044337,32.378792,737.68,0.144,344.1321,0.044,0,1
2428,2023-01-20 11:08:49.000000,2023-01-20 11:08:49.000000,163274090,0,3,472147000,2245,14,0.72,39.8044336,32.378792,737.62,0.136,344.1321,0.168,0,1
2515,2023-01-20 11:08:49.200000,2023-01-20 11:08:49.200000,163474123,0,3,472147200,2245,14,0.72,39.8044332,32.3787923,737.47,0.199,344.1321,0.033,0,1
2592,2023-01-20 11:08:49.400000,2023-01-20 11:08:49.400000,163654245,0,3,472147400,2245,14,0.72,39.8044329,32.3787925,737.39,0.093,344.1321,0.058,0,1
2673,2023-01-20 11:08:49.600000,2023-01-20 11:08:49.600000,163854375,0,3,472147600,2245,14,0.72,39.8044326,32.3787927,737.27,0.189,344.1321,0.138,0,1
2753,2023-01-20 11:08:49.800000,2023-01-20 11:08:49.800000,164074091,0,3,472147800,2245,14,0.72,39.8044324,32.3787929,737.22,0.148,344.1321,-0.019,0,1
2837,2023-01-20 11:08:50.000000,2023-01-20 11:08:50.000000,164274138,0,3,472148000,2245,14,0.72,39.8044324,32.3787931,737.12,0.127,344.1321,0.048,0,1
2918,2023-01-20 11:08:50.200000,2023-01-20 11:08:50.200000,164474063,0,3,472148200,2245,14,0.72,39.8044323,32.3787933,736.97,0.056,344.1321,0.055,0,1
2996,2023-01-20 11:08:50.400000,2023-01-20 11:08:50.400000,164674144,0,3,472148400,2245,14,0.72,39.8044322,32.3787934,736.87,0.059,344.1321,0.211,0,1
3078,2023-01-20 11:08:50.600000,2023-01-20 11:08:50.600000,164874239,0,3,472148600,2245,14,0.72,39.804432,32.3787936,736.71,0.132,344.1321,0.173,0,1
3156,2023-01-20 11:08:50.800000,2023-01-20 11:08:50.800000,165074123,0,3,472148800,2245,14,0.72,39.8044317,32.3787938,736.61,0.157,344.1321,0.256,0,1
3238,2023-01-20 11:08:51.000000,2023-01-20 11:08:51.000000,165274252,0,3,472149000,2245,14,0.72,39.8044312,32.3787942,736.4,0.257,344.1321,0.411,0,1
3318,2023-01-20 11:08:51.200000,2023-01-20 11:08:51.200000,165474223,0,3,472149200,2245,14,0.72,39.8044307,32.3787945,736.15,0.2,344.1321,0.365,0,1
3397,2023-01-20 11:08:51.400000,2023-01-20 11:08:51.400000,165674311,0,3,472149400,2245,14,0.72,39.8044304,32.3787945,736.06,0.21,344.1321,0.394,0,1
3477,2023-01-20 11:08:51.600000,2023-01-20 11:08:51.600000,165874344,0,3,472149600,2245,14,0.72,39.8044304,32.3787943,735.97,0.139,344.1321,0.348,0,1
3555,2023-01-20 11:08:51.800000,2023-01-20 11:08:51.800000,166074330,0,3,472149800,2245,14,0.72,39.8044304,32.3787943,735.84,0.113,344.1321,0.37,0,1
3638,2023-01-20 11:08:52.000000,2023-01-20 11:08:52.000000,166274336,0,3,472150000,2245,14,0.72,39.8044303,32.3787944,735.79,0.103,344.1321,0.261,0,1
3710,2023-01-20 11:08:52.200000,2023-01-20 11:08:52.200000,166474322,0,3,472150200,2245,14,0.72,39.8044304,32.3787944,735.76,0.081,344.1321,0.282,0,1
3773,2023-01-20 11:08:52.400000,2023-01-20 11:08:52.400000,166674327,0,3,472150400,2245,14,0.72,39.8044307,32.3787942,735.81,0.078,344.1321,0.134,0,1
3838,2023-01-20 11:08:52.600000,2023-01-20 11:08:52.600000,166874378,0,3,472150600,2245,14,0.72,39.8044306,32.3787943,735.7,0.044,344.1321,0.167,0,1
3901,2023-01-20 11:08:52.800000,2023-01-20 11:08:52.800000,167074312,0,3,472150800,2245,14,0.72,39.8044305,32.3787942,735.67,0.097,344.1321,0.165,0,1
3968,2023-01-20 11:08:53.000000,2023-01-20 11:08:53.000000,167274309,0,3,472151000,2245,14,0.72,39.8044302,32.3787943,735.66,0.185,344.1321,0.255,0,1
4033,2023-01-20 11:08:53.200000,2023-01-20 11:08:53.200000,167474371,0,3,472151200,2245,14,0.72,39.8044302,32.3787942,735.63,0.24,344.1321,0.22,0,1
4096,2023-01-20 11:08:53.400000,2023-01-20 11:08:53.400000,167674351,0,3,472151400,2245,14,0.72,39.8044305,32.3787939,735.64,0.126,344.1321,0.27,0,1
4161,2023-01-20 11:08:53.600000,2023-01-20 11:08:53.600000,167874432,0,3,472151600,2245,14,0.72,39.8044306,32.3787939,735.69,0.064,344.1321,0.289,0,1
4224,2023-01-20 11:08:53.800000,2023-01-20 11:08:53.800000,168074368,0,3,472151800,2245,14,0.72,39.80443,32.378794,735.56,0.309,344.1321,0.329,0,1
4292,2023-01-20 11:08:54.000000,2023-01-20 11:08:54.000000,168274401,0,3,472152000,2245,14,0.72,39.8044297,32.3787941,735.46,0.236,344.1321,0.118,0,1
4358,2023-01-20 11:08:54.200000,2023-01-20 11:08:54.200000,168474427,0,3,472152200,2245,14,0.72,39.8044301,32.3787938,735.46,0.469,344.1321,-0.039,0,1
4421,2023-01-20 11:08:54.400000,2023-01-20 11:08:54.400000,168674378,0,3,472152400,2245,14,0.72,39.8044304,32.3787935,735.59,0.169,344.1321,-0.522,0,1
4486,2023-01-20 11:08:54.600000,2023-01-20 11:08:54.600000,168874453,0,3,472152600,2245,14,0.72,39.80443,32.3787934,735.67,0.231,344.1321,-0.442,0,1
4549,2023-01-20 11:08:54.800000,2023-01-20 11:08:54.800000,169074420,0,3,472152800,2245,14,0.72,39.8044294,32.3787929,735.8,0.347,344.1321,-0.478,0,1
4616,2023-01-20 11:08:55.000000,2023-01-20 11:08:55.000000,169274398,0,3,472153000,2245,14,0.72,39.8044287,32.3787923,735.9,0.345,344.1321,-0.292,0,1
4681,2023-01-20 11:08:55.200000,2023-01-20 11:08:55.200000,169474378,0,3,472153200,2245,14,0.72,39.8044284,32.3787919,736.04,0.176,344.1321,-0.66,0,1
4744,2023-01-20 11:08:55.400000,2023-01-20 11:08:55.400000,169674389,0,3,472153400,2245,14,0.72,39.8044281,32.3787917,736.13,0.258,344.1321,-0.455,0,1
4811,2023-01-20 11:08:55.600000,2023-01-20 11:08:55.600000,169874444,0,3,472153600,2245,14,0.72,39.8044276,32.3787917,736.2,0.161,344.1321,-0.485,0,1
4874,2023-01-20 11:08:55.800000,2023-01-20 11:08:55.800000,170074386,0,3,472153800,2245,14,0.72,39.804427,32.3787921,736.29,0.317,344.1321,-0.5560001,0,1
4941,2023-01-20 11:08:56.000000,2023-01-20 11:08:56.000000,170274392,0,3,472154000,2245,14,0.72,39.8044264,32.3787925,736.34,0.138,344.1321,-0.444,0,1
5006,2023-01-20 11:08:56.200000,2023-01-20 11:08:56.200000,170474379,0,3,472154200,2245,14,0.72,39.8044265,32.378793,736.45,0.32,344.1321,-0.428,0,1
5068,2023-01-20 11:08:56.400000,2023-01-20 11:08:56.400000,170674383,0,3,472154400,2245,14,0.72,39.8044263,32.3787936,736.5,0.353,344.1321,-0.253,0,1
5133,2023-01-20 11:08:56.600000,2023-01-20 11:08:56.600000,170874447,0,3,472154600,2245,14,0.72,39.8044264,32.3787943,736.73,0.391,344.1321,-0.53,0,1
5196,2023-01-20 11:08:56.800000,2023-01-20 11:08:56.800000,171074379,0,3,472154800,2245,14,0.72,39.8044266,32.378795,736.84,0.327,344.1321,-0.698,0,1
5263,2023-01-20 11:08:57.000000,2023-01-20 11:08:57.000000,171274395,0,3,472155000,2245,14,0.72,39.804426,32.3787956,736.77,0.297,344.1321,-0.723,0,1
5329,2023-01-20 11:08:57.200000,2023-01-20 11:08:57.200000,171474379,0,3,472155200,2245,14,0.72,39.8044252,32.3787964,736.78,0.577,344.1321,-0.464,0,1
5392,2023-01-20 11:08:57.400000,2023-01-20 11:08:57.400000,171674375,0,3,472155400,2245,14,0.72,39.8044249,32.3787972,737.05,0.482,344.1321,-0.497,0,1
5457,2023-01-20 11:08:57.600000,2023-01-20 11:08:57.600000,171874447,0,3,472155600,2245,14,0.72,39.8044248,32.3787979,737.21,0.211,344.1321,-0.559,0,1
5520,2023-01-20 11:08:57.800000,2023-01-20 11:08:57.800000,172074381,0,3,472155800,2245,14,0.72,39.8044246,32.3787982,737.36,0.189,344.1321,-0.705,0,1
5589,2023-01-20 11:08:58.000000,2023-01-20 11:08:58.000000,172274391,0,3,472156000,2245,14,0.72,39.8044245,32.3787989,737.5,0.463,344.1321,-0.9530001,0,1
5654,2023-01-20 11:08:58.200000,2023-01-20 11:08:58.200000,172474385,0,3,472156200,2245,14,0.72,39.8044253,32.3787994,737.9,0.423,344.1321,-1.087,0,1
5717,2023-01-20 11:08:58.400000,2023-01-20 11:08:58.400000,172674386,0,3,472156400,2245,14,0.72,39.8044257,32.3787995,738.17,0.183,344.1321,-0.9170001,0,1
5782,2023-01-20 11:08:58.600000,2023-01-20 11:08:58.600000,172874456,0,3,472156600,2245,14,0.72,39.8044254,32.3787994,738.23,0.223,344.1321,-0.53,0,1
5845,2023-01-20 11:08:58.800000,2023-01-20 11:08:58.800000,173074383,0,3,472156800,2245,14,0.72,39.804425,32.3787986,738.44,0.468,344.1321,-0.246,0,1
5912,2023-01-20 11:08:59.000000,2023-01-20 11:08:59.000000,173274415,0,3,472157000,2245,14,0.72,39.8044248,32.3787973,738.72,0.723,344.1321,-0.327,0,1
5979,2023-01-20 11:08:59.200000,2023-01-20 11:08:59.200000,173494444,0,3,472157200,2245,14,0.72,39.8044246,32.3787956,739.02,0.6950001,344.1321,-0.645,0,1
6042,2023-01-20 11:08:59.400000,2023-01-20 11:08:59.400000,173694438,0,3,472157400,2245,14,0.72,39.8044241,32.3787941,739.22,0.789,344.1321,-0.512,0,1
6107,2023-01-20 11:08:59.600000,2023-01-20 11:08:59.600000,173874428,0,3,472157600,2245,14,0.72,39.8044233,32.3787926,739.49,0.832,344.1321,-0.41,0,1
6170,2023-01-20 11:08:59.800000,2023-01-20 11:08:59.800000,174094440,0,3,472157800,2245,14,0.72,39.8044214,32.3787916,739.62,1.415,248.7733,-0.551,0,1
6238,2023-01-20 11:09:00.000000,2023-01-20 11:09:00.000000,174294500,0,3,472158000,2245,14,0.72,39.8044194,32.3787904,739.89,1.221,230.7614,-0.7,0,1
6303,2023-01-20 11:09:00.200000,2023-01-20 11:09:00.200000,174494647,0,3,472158200,2245,14,0.72,39.8044171,32.3787894,740.15,1.514,203.1251,-0.608,0,1
6366,2023-01-20 11:09:00.400000,2023-01-20 11:09:00.400000,174694544,0,3,472158400,2245,14,0.72,39.8044139,32.3787886,740.26,2.026,194.8263,-0.485,0,1
6433,2023-01-20 11:09:00.600000,2023-01-20 11:09:00.600000,174894653,0,3,472158600,2245,14,0.72,39.8044102,32.3787883,740.36,2.033,186.3311,-0.553,0,1
6497,2023-01-20 11:09:00.800000,2023-01-20 11:09:00.800000,175094588,0,3,472158800,2245,14,0.72,39.8044062,32.378789,740.38,2.22,177.415,-0.781,0,1
6564,2023-01-20 11:09:01.000000,2023-01-20 11:09:01.000000,175294636,0,3,472159000,2245,14,0.72,39.8044022,32.3787899,740.46,2.054,173.7839,-0.7600001,0,1
6629,2023-01-20 11:09:01.200000,2023-01-20 11:09:01.200000,175494485,0,3,472159200,2245,14,0.72,39.8043985,32.3787912,740.51,1.951,167.5076,-0.9070001,0,1
6692,2023-01-20 11:09:01.400000,2023-01-20 11:09:01.400000,175694621,0,3,472159400,2245,14,0.72,39.8043951,32.3787928,740.58,1.88,162.6254,-0.543,0,1
6757,2023-01-20 11:09:01.600000,2023-01-20 11:09:01.600000,175894675,0,3,472159600,2245,14,0.72,39.8043918,32.3787944,740.64,1.909,163.6138,-0.878,0,1
6821,2023-01-20 11:09:01.800000,2023-01-20 11:09:01.800000,176094664,0,3,472159800,2245,14,0.72,39.8043889,32.3787955,740.75,1.396,163.5454,-0.642,0,1
6888,2023-01-20 11:09:02.000000,2023-01-20 11:09:02.000000,176294656,0,3,472160000,2245,14,0.72,39.8043867,32.3787963,740.81,1.095,166.2516,-0.438,0,1
6953,2023-01-20 11:09:02.200000,2023-01-20 11:09:02.200000,176494632,0,3,472160200,2245,14,0.71,39.8043849,32.378797,740.9,0.969,163.9922,-0.481,0,1
7016,2023-01-20 11:09:02.400000,2023-01-20 11:09:02.400000,176694625,0,3,472160400,2245,14,0.71,39.8043833,32.3787977,740.92,0.758,167.3358,-0.668,0,1
7081,2023-01-20 11:09:02.600000,2023-01-20 11:09:02.600000,176894723,0,3,472160600,2245,14,0.71,39.8043827,32.3787982,741.14,0.329,167.3358,-0.997,0,1
7144,2023-01-20 11:09:02.800000,2023-01-20 11:09:02.800000,177094633,0,3,472160800,2245,14,0.71,39.8043827,32.3787985,741.39,0.047,167.3358,-0.872,0,1
7211,2023-01-20 11:09:03.000000,2023-01-20 11:09:03.000000,177294642,0,3,472161000,2245,14,0.71,39.8043829,32.3787987,741.71,0.256,167.3358,-1.028,0,1
7276,2023-01-20 11:09:03.200000,2023-01-20 11:09:03.200000,177494665,0,3,472161200,2245,14,0.71,39.8043831,32.3787989,741.97,0.06900001,167.3358,-1.161,0,1
7339,2023-01-20 11:09:03.400000,2023-01-20 11:09:03.400000,177694674,0,3,472161400,2245,14,0.71,39.8043835,32.3787981,742.33,0.508,167.3358,-1.236,0,1
7404,2023-01-20 11:09:03.600000,2023-01-20 11:09:03.600000,177894672,0,3,472161600,2245,14,0.71,39.8043832,32.3787971,742.57,0.559,167.3358,-1.311,0,1
7468,2023-01-20 11:09:03.800000,2023-01-20 11:09:03.800000,178094647,0,3,472161800,2245,14,0.71,39.8043823,32.3787961,742.76,0.7410001,167.3358,-1.299,0,1
7535,2023-01-20 11:09:04.000000,2023-01-20 11:09:04.000000,178294672,0,3,472162000,2245,14,0.71,39.8043814,32.3787947,742.98,0.703,167.3358,-1.029,0,1
7601,2023-01-20 11:09:04.200000,2023-01-20 11:09:04.200000,178494689,0,3,472162200,2245,14,0.71,39.8043805,32.3787932,743.2,0.8560001,167.3358,-1.058,0,1
7664,2023-01-20 11:09:04.400000,2023-01-20 11:09:04.400000,178694642,0,3,472162400,2245,14,0.71,39.8043798,32.3787919,743.4,0.586,167.3358,-0.8930001,0,1
7729,2023-01-20 11:09:04.600000,2023-01-20 11:09:04.600000,178894674,0,3,472162600,2245,14,0.71,39.8043788,32.3787909,743.53,0.8790001,167.3358,-1.156,0,1
7792,2023-01-20 11:09:04.800000,2023-01-20 11:09:04.800000,179094625,0,3,472162800,2245,14,0.71,39.8043776,32.3787896,743.79,0.9720001,192.9328,-1.176,0,1
7859,2023-01-20 11:09:05.000000,2023-01-20 11:09:05.000000,179294698,0,3,472163000,2245,14,0.71,39.8043762,32.3787884,744.05,0.9390001,203.0983,-0.987,0,1
7924,2023-01-20 11:09:05.200000,2023-01-20 11:09:05.200000,179494652,0,3,472163200,2245,14,0.71,39.804375,32.378787,744.44,0.895,207.2342,-1.252,0,1
7988,2023-01-20 11:09:05.400000,2023-01-20 11:09:05.400000,179694624,0,3,472163400,2245,14,0.71,39.8043732,32.378786,744.65,1.207,202.7265,-0.74,0,1
8055,2023-01-20 11:09:05.600000,2023-01-20 11:09:05.600000,179894736,0,3,472163600,2245,14,0.71,39.8043715,32.3787849,744.86,0.858,204.3349,-0.568,0,1
8118,2023-01-20 11:09:05.800000,2023-01-20 11:09:05.800000,180094615,0,3,472163800,2245,14,0.71,39.8043695,32.378784,744.93,1.174,202.0505,-0.376,0,1
8185,2023-01-20 11:09:06.000000,2023-01-20 11:09:06.000000,180294695,0,3,472164000,2245,14,0.71,39.8043679,32.3787831,745.11,0.8520001,201.6436,-0.174,0,1
8250,2023-01-20 11:09:06.200000,2023-01-20 11:09:06.200000,180494677,0,3,472164200,2245,14,0.71,39.8043655,32.3787821,744.96,1.62,206.0674,0.254,0,1
8313,2023-01-20 11:09:06.400000,2023-01-20 11:09:06.400000,180694682,0,3,472164400,2245,14,0.71,39.8043634,32.3787808,745.08,1.003,201.1529,0.029,0,1
8378,2023-01-20 11:09:06.600000,2023-01-20 11:09:06.600000,180894666,0,3,472164600,2245,14,0.71,39.8043618,32.3787803,745.25,0.974,193.3441,-0.124,0,1
8441,2023-01-20 11:09:06.800000,2023-01-20 11:09:06.800000,181094674,0,3,472164800,2245,14,0.71,39.8043599,32.3787801,745.3,1.086,186.1758,0.003,0,1
8508,2023-01-20 11:09:07.000000,2023-01-20 11:09:07.000000,181294649,0,3,472165000,2245,14,0.71,39.8043575,32.3787805,745.16,1.254,177.8258,0.247,0,1
8573,2023-01-20 11:09:07.200000,2023-01-20 11:09:07.200000,181494644,0,3,472165200,2245,14,0.71,39.8043556,32.3787812,745.18,1.114,166.7924,0.257,0,1
8637,2023-01-20 11:09:07.400000,2023-01-20 11:09:07.400000,181694641,0,3,472165400,2245,14,0.71,39.8043542,32.3787825,745.18,0.864,166.7924,0.005,0,1
8702,2023-01-20 11:09:07.600000,2023-01-20 11:09:07.600000,181894665,0,3,472165600,2245,14,0.71,39.8043532,32.3787839,745.14,0.693,166.7924,-0.102,0,1
8765,2023-01-20 11:09:07.800000,2023-01-20 11:09:07.800000,182094624,0,3,472165800,2245,14,0.71,39.8043528,32.3787851,745.18,0.446,166.7924,-0.429,0,1
8832,2023-01-20 11:09:08.000000,2023-01-20 11:09:08.000000,182294648,0,3,472166000,2245,14,0.71,39.8043525,32.3787859,745.21,0.397,166.7924,-0.039,0,1
8896,2023-01-20 11:09:08.200000,2023-01-20 11:09:08.200000,182494684,0,3,472166200,2245,14,0.71,39.804352,32.3787868,745.28,0.5840001,166.7924,-0.177,0,1
8960,2023-01-20 11:09:08.400000,2023-01-20 11:09:08.400000,182694638,0,3,472166400,2245,14,0.71,39.8043516,32.378788,745.33,0.614,166.7924,-0.218,0,1
9025,2023-01-20 11:09:08.600000,2023-01-20 11:09:08.600000,182894701,0,3,472166600,2245,14,0.71,39.8043513,32.3787894,745.42,0.64,166.7924,-0.526,0,1
9088,2023-01-20 11:09:08.800000,2023-01-20 11:09:08.800000,183094636,0,3,472166800,2245,14,0.71,39.804351,32.378791,745.49,0.599,166.7924,-0.694,0,1
9157,2023-01-20 11:09:09.000000,2023-01-20 11:09:09.000000,183294662,0,3,472167000,2245,14,0.71,39.804351,32.3787922,745.63,0.372,166.7924,-0.864,0,1
9251,2023-01-20 11:09:09.200000,2023-01-20 11:09:09.200000,183514215,0,3,472167200,2245,14,0.71,39.804351,32.3787937,745.74,0.8570001,166.7924,-0.585,0,1
9316,2023-01-20 11:09:09.400000,2023-01-20 11:09:09.400000,183714241,0,3,472167400,2245,14,0.71,39.8043508,32.3787954,745.95,0.864,166.7924,-0.523,0,1
9379,2023-01-20 11:09:09.600000,2023-01-20 11:09:09.600000,183914232,0,3,472167600,2245,14,0.71,39.8043505,32.3787974,746.17,0.997,166.7924,-0.9400001,0,1
9446,2023-01-20 11:09:09.800000,2023-01-20 11:09:09.800000,184114193,0,3,472167800,2245,14,0.71,39.8043499,32.3787998,746.36,1.127,140.2282,-0.92,0,1
9511,2023-01-20 11:09:10.000000,2023-01-20 11:09:10.000000,184314240,0,3,472168000,2245,14,0.71,39.8043493,32.3788024,746.55,1.234,120.9719,-1.02,0,1
9576,2023-01-20 11:09:10.200000,2023-01-20 11:09:10.200000,184514249,0,3,472168200,2245,14,0.71,39.8043486,32.3788049,746.77,1.138,114.2015,-1.053,0,1
9641,2023-01-20 11:09:10.400000,2023-01-20 11:09:10.400000,184714250,0,3,472168400,2245,14,0.71,39.804348,32.3788073,746.98,1.004,109.5833,-1.06,0,1
9706,2023-01-20 11:09:10.600000,2023-01-20 11:09:10.600000,184914472,0,3,472168600,2245,14,0.71,39.8043476,32.3788094,747.22,0.9220001,109.5833,-1.417,0,1
9771,2023-01-20 11:09:10.800000,2023-01-20 11:09:10.800000,185114339,0,3,472168800,2245,14,0.71,39.804347,32.3788114,747.47,0.8800001,109.5833,-1.297,0,1
9837,2023-01-20 11:09:11.000000,2023-01-20 11:09:11.000000,185314384,0,3,472169000,2245,14,0.71,39.8043464,32.3788133,747.72,0.915,109.5833,-1.256,0,1
9902,2023-01-20 11:09:11.200000,2023-01-20 11:09:11.200000,185514399,0,3,472169200,2245,14,0.71,39.8043457,32.3788154,747.94,0.9860001,111.059,-1.282,0,1
9967,2023-01-20 11:09:11.400000,2023-01-20 11:09:11.400000,185714427,0,3,472169400,2245,14,0.71,39.8043452,32.3788176,748.24,0.936,111.059,-1.317,0,1
10030,2023-01-20 11:09:11.600000,2023-01-20 11:09:11.600000,185914419,0,3,472169600,2245,14,0.71,39.804345,32.3788197,748.45,0.8570001,111.059,-1.388,0,1
10095,2023-01-20 11:09:11.800000,2023-01-20 11:09:11.800000,186114379,0,3,472169800,2245,14,0.71,39.8043448,32.3788216,748.77,0.757,111.059,-1.51,0,1
10160,2023-01-20 11:09:12.000000,2023-01-20 11:09:12.000000,186314390,0,3,472170000,2245,14,0.71,39.8043447,32.3788235,749.01,0.816,111.059,-1.401,0,1
10224,2023-01-20 11:09:12.200000,2023-01-20 11:09:12.200000,186514450,0,3,472170200,2245,14,0.71,39.8043448,32.3788253,749.3,0.7,111.059,-1.5,0,1
10290,2023-01-20 11:09:12.400000,2023-01-20 11:09:12.400000,186714384,0,3,472170400,2245,14,0.71,39.8043449,32.3788268,749.68,0.632,111.059,-1.698,0,1
10353,2023-01-20 11:09:12.600000,2023-01-20 11:09:12.600000,186914431,0,3,472170600,2245,14,0.71,39.8043449,32.3788283,750,0.665,111.059,-1.645,0,1
10418,2023-01-20 11:09:12.800000,2023-01-20 11:09:12.800000,187114369,0,3,472170800,2245,14,0.71,39.8043451,32.3788299,750.32,0.729,111.059,-1.67,0,1
10483,2023-01-20 11:09:13.000000,2023-01-20 11:09:13.000000,187314382,0,3,472171000,2245,14,0.71,39.8043452,32.3788316,750.64,0.72,111.059,-1.581,0,1
10548,2023-01-20 11:09:13.200000,2023-01-20 11:09:13.200000,187514396,0,3,472171200,2245,14,0.71,39.8043452,32.3788335,750.88,0.878,111.059,-1.169,0,1
10613,2023-01-20 11:09:13.400000,2023-01-20 11:09:13.400000,187714372,0,3,472171400,2245,14,0.71,39.8043453,32.3788355,751.03,0.8790001,111.059,-0.6070001,0,1
10676,2023-01-20 11:09:13.600000,2023-01-20 11:09:13.600000,187914430,0,3,472171600,2245,14,0.71,39.8043456,32.3788372,751.1,0.715,111.059,-0.369,0,1
10741,2023-01-20 11:09:13.800000,2023-01-20 11:09:13.800000,188114382,0,3,472171800,2245,14,0.71,39.8043458,32.3788387,751.09,0.6760001,111.059,-0.026,0,1
10806,2023-01-20 11:09:14.000000,2023-01-20 11:09:14.000000,188314373,0,3,472172000,2245,14,0.71,39.804346,32.37884,751.09,0.557,111.059,0.165,0,1
10871,2023-01-20 11:09:14.200000,2023-01-20 11:09:14.200000,188514394,0,3,472172200,2245,14,0.71,39.8043462,32.3788409,751.08,0.319,111.059,0.179,0,1
10938,2023-01-20 11:09:14.400000,2023-01-20 11:09:14.400000,188714376,0,3,472172400,2245,14,0.71,39.8043467,32.3788418,750.86,0.569,111.059,1.011,0,1
11001,2023-01-20 11:09:14.600000,2023-01-20 11:09:14.600000,188914434,0,3,472172600,2245,14,0.71,39.8043468,32.3788423,750.78,0.087,111.059,0.702,0,1
11066,2023-01-20 11:09:14.800000,2023-01-20 11:09:14.800000,189114373,0,3,472172800,2245,14,0.71,39.8043466,32.3788423,750.77,0.074,111.059,0.673,0,1
11131,2023-01-20 11:09:15.000000,2023-01-20 11:09:15.000000,189314414,0,3,472173000,2245,14,0.71,39.8043466,32.3788423,750.72,0.048,111.059,0.297,0,1
11196,2023-01-20 11:09:15.200000,2023-01-20 11:09:15.200000,189514393,0,3,472173200,2245,14,0.71,39.8043465,32.3788422,750.71,0.1,111.059,0.254,0,1
11264,2023-01-20 11:09:15.400000,2023-01-20 11:09:15.400000,189714356,0,3,472173400,2245,14,0.71,39.8043464,32.3788421,750.7,0.041,111.059,0.288,0,1
11329,2023-01-20 11:09:15.600000,2023-01-20 11:09:15.600000,189914450,0,3,472173600,2245,14,0.71,39.8043461,32.3788421,750.63,0.18,111.059,0.249,0,1
11394,2023-01-20 11:09:15.800000,2023-01-20 11:09:15.800000,190114361,0,3,472173800,2245,14,0.71,39.8043459,32.3788421,750.58,0.254,111.059,0.369,0,1
11459,2023-01-20 11:09:16.000000,2023-01-20 11:09:16.000000,190314361,0,3,472174000,2245,14,0.71,39.8043461,32.3788423,750.6,0.269,111.059,0.163,0,1
11524,2023-01-20 11:09:16.200000,2023-01-20 11:09:16.200000,190514368,0,3,472174200,2245,14,0.71,39.8043465,32.3788425,750.58,0.468,111.059,0.241,0,1
11589,2023-01-20 11:09:16.400000,2023-01-20 11:09:16.400000,190714365,0,3,472174400,2245,14,0.71,39.8043473,32.3788428,750.55,0.578,111.059,0.063,0,1
11652,2023-01-20 11:09:16.600000,2023-01-20 11:09:16.600000,190914400,0,3,472174600,2245,14,0.71,39.8043485,32.3788432,750.5,0.7090001,62.43901,0.188,0,1
11717,2023-01-20 11:09:16.800000,2023-01-20 11:09:16.800000,191114371,0,3,472174800,2245,14,0.71,39.8043501,32.3788438,750.46,1.112,29.50955,0.282,0,1
11782,2023-01-20 11:09:17.000000,2023-01-20 11:09:17.000000,191314361,0,3,472175000,2245,14,0.71,39.8043524,32.3788445,750.42,1.366,19.5192,0.247,0,1
11846,2023-01-20 11:09:17.200000,2023-01-20 11:09:17.200000,191514368,0,3,472175200,2245,14,0.71,39.8043551,32.3788454,750.29,1.534,15.47825,0.363,0,1
11912,2023-01-20 11:09:17.400000,2023-01-20 11:09:17.400000,191714355,0,3,472175400,2245,14,0.71,39.8043579,32.3788463,750.31,1.736,16.1266,0.004,0,1
11975,2023-01-20 11:09:17.600000,2023-01-20 11:09:17.600000,191914422,0,3,472175600,2245,14,0.71,39.804361,32.3788477,750.22,1.637,18.84652,0.184,0,1
12040,2023-01-20 11:09:17.800000,2023-01-20 11:09:17.800000,192114355,0,3,472175800,2245,14,0.71,39.8043644,32.3788495,750.13,2.224,21.6008,0.311,0,1
12106,2023-01-20 11:09:18.000000,2023-01-20 11:09:18.000000,192314363,0,3,472176000,2245,14,0.71,39.8043688,32.3788519,750.09,2.873,23.81535,0.424,0,1
12170,2023-01-20 11:09:18.200000,2023-01-20 11:09:18.200000,192514402,0,3,472176200,2245,14,0.71,39.8043745,32.3788553,750.08,3.683,26.21261,0.131,0,1
12236,2023-01-20 11:09:18.400000,2023-01-20 11:09:18.400000,192734109,0,3,472176400,2245,14,0.71,39.8043807,32.3788596,750.07,3.974,28.2784,0.09500001,0,1
12299,2023-01-20 11:09:18.600000,2023-01-20 11:09:18.600000,192934250,0,3,472176600,2245,14,0.71,39.8043871,32.3788648,749.98,4.211,31.42057,0.253,0,1
12365,2023-01-20 11:09:18.800000,2023-01-20 11:09:18.800000,193134249,0,3,472176800,2245,14,0.71,39.8043938,32.3788711,749.92,4.741,35.18747,-0.023,0,1
12430,2023-01-20 11:09:19.000000,2023-01-20 11:09:19.000000,193334360,0,3,472177000,2245,14,0.71,39.8044014,32.3788785,749.94,5.518,36.61364,-0.26,0,1
12495,2023-01-20 11:09:19.200000,2023-01-20 11:09:19.200000,193534314,0,3,472177200,2245,14,0.71,39.8044091,32.3788869,749.88,5.614,38.98379,-0.239,0,1
12562,2023-01-20 11:09:19.400000,2023-01-20 11:09:19.400000,193734119,0,3,472177400,2245,14,0.71,39.8044161,32.3788965,749.79,5.736,44.16918,-0.132,0,1
12625,2023-01-20 11:09:19.600000,2023-01-20 11:09:19.600000,193934425,0,3,472177600,2245,14,0.71,39.8044232,32.3789075,749.64,6.5,47.62009,-0.138,0,1
12692,2023-01-20 11:09:19.800000,2023-01-20 11:09:19.800000,194134356,0,3,472177800,2245,14,0.71,39.8044297,32.3789203,749.46,6.571,53.89578,0.178,0,1
12758,2023-01-20 11:09:20.000000,2023-01-20 11:09:20.000000,194334377,0,3,472178000,2245,14,0.71,39.8044354,32.3789338,749.31,6.543,58.3397,0.353,0,1
12823,2023-01-20 11:09:20.200000,2023-01-20 11:09:20.200000,194534353,0,3,472178200,2245,14,0.71,39.8044411,32.3789478,749.11,6.976,60.32681,0.287,0,1
12889,2023-01-20 11:09:20.400000,2023-01-20 11:09:20.400000,194734373,0,3,472178400,2245,14,0.71,39.8044474,32.3789624,748.86,7.196001,60.02382,0.394,0,1
12954,2023-01-20 11:09:20.600000,2023-01-20 11:09:20.600000,194934418,0,3,472178600,2245,13,0.83,39.8044547,32.378977,748.82,7.483,59.13924,0.563,0,1
13020,2023-01-20 11:09:20.800000,2023-01-20 11:09:20.800000,195134375,0,3,472178800,2245,13,0.83,39.804462,32.378992,748.78,7.561,59.78829,0.5790001,0,1
13086,2023-01-20 11:09:21.000000,2023-01-20 11:09:21.000000,195334380,0,3,472179000,2245,13,0.83,39.8044688,32.3790069,748.79,7.145,61.19389,0.777,0,1
13151,2023-01-20 11:09:21.200000,2023-01-20 11:09:21.200000,195534376,0,3,472179200,2245,14,0.79,39.8044752,32.3790215,748.87,7.281,61.61604,0.553,0,1
13217,2023-01-20 11:09:21.400000,2023-01-20 11:09:21.400000,195734376,0,3,472179400,2245,14,0.79,39.8044817,32.3790359,748.84,7.061,60.81504,0.477,0,1
13280,2023-01-20 11:09:21.600000,2023-01-20 11:09:21.600000,195934468,0,3,472179600,2245,14,0.79,39.8044888,32.3790497,748.93,7.124001,58.71487,0.381,0,1
13346,2023-01-20 11:09:21.800000,2023-01-20 11:09:21.800000,196134367,0,3,472179800,2245,14,0.79,39.8044961,32.379063,748.97,6.958,57.02438,0.17,0,1
13412,2023-01-20 11:09:22.000000,2023-01-20 11:09:22.000000,196334374,0,3,472180000,2245,14,0.79,39.8045026,32.3790766,748.95,6.855,59.23568,0.308,0,1
13477,2023-01-20 11:09:22.200000,2023-01-20 11:09:22.200000,196534416,0,3,472180200,2245,14,0.79,39.8045087,32.3790897,749.21,6.255,60.42511,-0.104,0,1
13543,2023-01-20 11:09:22.400000,2023-01-20 11:09:22.400000,196734377,0,3,472180400,2245,14,0.79,39.8045145,32.3791025,749.27,6.622,59.9645,0.011,0,1
13606,2023-01-20 11:09:22.600000,2023-01-20 11:09:22.600000,196934426,0,3,472180600,2245,14,0.79,39.8045204,32.3791155,749.37,6.508,60.5869,0.128,0,1
13672,2023-01-20 11:09:22.800000,2023-01-20 11:09:22.800000,197134378,0,3,472180800,2245,14,0.79,39.8045264,32.3791283,749.52,6.412,60.281,-0.004,0,1
13738,2023-01-20 11:09:23.000000,2023-01-20 11:09:23.000000,197334372,0,3,472181000,2245,14,0.79,39.804533,32.3791407,749.72,6.503,57.7178,-0.226,0,1
13803,2023-01-20 11:09:23.200000,2023-01-20 11:09:23.200000,197534366,0,3,472181200,2245,14,0.79,39.8045401,32.3791527,749.9,6.476,55.28072,-0.342,0,1
13869,2023-01-20 11:09:23.400000,2023-01-20 11:09:23.400000,197734384,0,3,472181400,2245,14,0.79,39.8045472,32.3791648,750.06,6.47,54.78524,-0.33,0,1
13932,2023-01-20 11:09:23.600000,2023-01-20 11:09:23.600000,197934410,0,3,472181600,2245,14,0.79,39.8045547,32.379177,750.31,6.562,55.0264,-0.241,0,1
13998,2023-01-20 11:09:23.800000,2023-01-20 11:09:23.800000,198134364,0,3,472181800,2245,14,0.79,39.8045622,32.3791896,750.5,6.787,53.86687,-0.766,0,1
14064,2023-01-20 11:09:24.000000,2023-01-20 11:09:24.000000,198334377,0,3,472182000,2245,14,0.79,39.8045696,32.3792021,750.8,6.415,55.00161,-0.576,0,1
14129,2023-01-20 11:09:24.200000,2023-01-20 11:09:24.200000,198534416,0,3,472182200,2245,14,0.79,39.804577,32.3792144,751.03,6.669,54.14678,-0.488,0,1
14194,2023-01-20 11:09:24.400000,2023-01-20 11:09:24.400000,198734363,0,3,472182400,2245,14,0.79,39.8045839,32.3792274,751.04,6.837,55.73915,-0.285,0,1
14258,2023-01-20 11:09:24.600000,2023-01-20 11:09:24.600000,198934421,0,3,472182600,2245,14,0.79,39.8045909,32.3792403,751.13,6.657001,53.92039,-0.848,0,1
14324,2023-01-20 11:09:24.800000,2023-01-20 11:09:24.800000,199134410,0,3,472182800,2245,14,0.79,39.8045986,32.3792528,751.26,6.961,52.47799,-0.5470001,0,1
14390,2023-01-20 11:09:25.000000,2023-01-20 11:09:25.000000,199334372,0,3,472183000,2245,14,0.79,39.8046066,32.3792657,751.32,7.268,51.4296,-0.559,0,1
14454,2023-01-20 11:09:25.200000,2023-01-20 11:09:25.200000,199534371,0,3,472183200,2245,14,0.79,39.8046147,32.3792786,751.59,6.879,51.73105,-0.627,0,1
14521,2023-01-20 11:09:25.400000,2023-01-20 11:09:25.400000,199734352,0,3,472183400,2245,14,0.79,39.8046224,32.3792912,751.73,6.948,51.35968,-0.432,0,1
14586,2023-01-20 11:09:25.600000,2023-01-20 11:09:25.600000,199934425,0,3,472183600,2245,14,0.79,39.8046309,32.3793042,751.94,7.408,50.85527,-0.723,0,1
14652,2023-01-20 11:09:25.800000,2023-01-20 11:09:25.800000,200134373,0,3,472183800,2245,14,0.79,39.8046391,32.3793172,752.08,6.959,51.40112,-0.513,0,1
14718,2023-01-20 11:09:26.000000,2023-01-20 11:09:26.000000,200334362,0,3,472184000,2245,14,0.79,39.8046471,32.3793301,752.15,7.168,51.10388,-0.44,0,1
14782,2023-01-20 11:09:26.200000,2023-01-20 11:09:26.200000,200534414,0,3,472184200,2245,14,0.79,39.804655,32.3793426,752.3,6.656,51.32888,-0.683,0,1
14849,2023-01-20 11:09:26.400000,2023-01-20 11:09:26.400000,200734363,0,3,472184400,2245,14,0.79,39.8046625,32.3793552,752.47,7.023,51.94131,-0.511,0,1
14912,2023-01-20 11:09:26.600000,2023-01-20 11:09:26.600000,200934423,0,3,472184600,2245,14,0.79,39.8046699,32.3793683,752.53,7.014,52.68788,-0.329,0,1
14978,2023-01-20 11:09:26.800000,2023-01-20 11:09:26.800000,201134417,0,3,472184800,2245,14,0.79,39.8046778,32.379381,752.58,6.991,50.94058,-0.324,0,1
15044,2023-01-20 11:09:27.000000,2023-01-20 11:09:27.000000,201334355,0,3,472185000,2245,14,0.79,39.8046861,32.3793937,752.71,6.938,51.63169,-0.469,0,1
15108,2023-01-20 11:09:27.200000,2023-01-20 11:09:27.200000,201534374,0,3,472185200,2245,14,0.79,39.8046938,32.3794067,752.84,6.871,52.85511,-0.36,0,1
15175,2023-01-20 11:09:27.400000,2023-01-20 11:09:27.400000,201734396,0,3,472185400,2245,14,0.79,39.8047011,32.3794198,752.92,6.940001,53.60987,-0.772,0,1
15238,2023-01-20 11:09:27.600000,2023-01-20 11:09:27.600000,201934379,0,3,472185600,2245,14,0.79,39.804708,32.3794326,752.98,6.604,53.69151,-0.691,0,1
15304,2023-01-20 11:09:27.800000,2023-01-20 11:09:27.800000,202134367,0,3,472185800,2245,14,0.79,39.8047154,32.3794449,753.11,6.819,52.11591,-0.49,0,1
15370,2023-01-20 11:09:28.000000,2023-01-20 11:09:28.000000,202334367,0,3,472186000,2245,14,0.79,39.8047229,32.3794574,753.21,6.670001,52.98914,-0.772,0,1
15434,2023-01-20 11:09:28.200000,2023-01-20 11:09:28.200000,202534354,0,3,472186200,2245,14,0.79,39.8047302,32.3794702,753.42,6.746,54.29073,-0.576,0,1
15501,2023-01-20 11:09:28.400000,2023-01-20 11:09:28.400000,202734366,0,3,472186400,2245,14,0.79,39.8047372,32.3794832,753.53,6.897,54.6661,-0.717,0,1
15565,2023-01-20 11:09:28.600000,2023-01-20 11:09:28.600000,202954323,0,3,472186600,2245,14,0.79,39.8047446,32.3794961,753.71,6.726,54.13911,-0.753,0,1
15631,2023-01-20 11:09:28.800000,2023-01-20 11:09:28.800000,203154320,0,3,472186800,2245,14,0.79,39.8047522,32.3795088,753.86,6.947001,52.73045,-0.546,0,1
15697,2023-01-20 11:09:29.000000,2023-01-20 11:09:29.000000,203354323,0,3,472187000,2245,14,0.79,39.80476,32.3795214,753.93,6.857,52.33298,-0.274,0,1
15762,2023-01-20 11:09:29.200000,2023-01-20 11:09:29.200000,203554311,0,3,472187200,2245,14,0.79,39.8047677,32.3795341,754.01,6.914001,52.88426,-0.455,0,1
15828,2023-01-20 11:09:29.400000,2023-01-20 11:09:29.400000,203754361,0,3,472187400,2245,14,0.79,39.8047754,32.3795472,754.04,7.119,52.70922,-0.295,0,1
15892,2023-01-20 11:09:29.600000,2023-01-20 11:09:29.600000,203954391,0,3,472187600,2245,14,0.79,39.804783,32.3795605,754.22,6.753,54.61757,-0.9210001,0,1
15959,2023-01-20 11:09:29.800000,2023-01-20 11:09:29.800000,204154170,0,3,472187800,2245,14,0.79,39.8047904,32.3795737,754.34,7.071,53.48633,-0.77,0,1
16025,2023-01-20 11:09:30.000000,2023-01-20 11:09:30.000000,204354310,0,3,472188000,2245,14,0.79,39.8047977,32.3795865,754.43,6.690001,54.02803,-0.73,0,1
16090,2023-01-20 11:09:30.200000,2023-01-20 11:09:30.200000,204554400,0,3,472188200,2245,14,0.79,39.8048049,32.3795994,754.61,6.773,54.73064,-0.682,0,1
16156,2023-01-20 11:09:30.400000,2023-01-20 11:09:30.400000,204754369,0,3,472188400,2245,14,0.79,39.8048123,32.3796124,754.71,6.899,54.2023,-0.015,0,1
16221,2023-01-20 11:09:30.600000,2023-01-20 11:09:30.600000,204954406,0,3,472188600,2245,14,0.79,39.8048201,32.3796255,754.83,7.012001,53.74751,-0.281,0,1
16287,2023-01-20 11:09:30.800000,2023-01-20 11:09:30.800000,205154417,0,3,472188800,2245,14,0.79,39.8048272,32.3796386,755.01,6.673,55.74309,-0.9120001,0,1
16396,2023-01-20 11:09:31.000000,2023-01-20 11:09:31.000000,205354347,0,3,472189000,2245,14,0.79,39.804834,32.3796518,755.03,7.004,54.04012,-0.423,0,1
16461,2023-01-20 11:09:31.200000,2023-01-20 11:09:31.200000,205554360,0,3,472189200,2245,14,0.79,39.8048415,32.3796652,755.28,6.828001,55.52447,-1.094,0,1
16527,2023-01-20 11:09:31.400000,2023-01-20 11:09:31.400000,205754375,0,3,472189400,2245,14,0.79,39.8048485,32.3796782,755.45,6.751,53.91346,-0.826,0,1
16590,2023-01-20 11:09:31.600000,2023-01-20 11:09:31.600000,205954408,0,3,472189600,2245,14,0.79,39.8048558,32.3796908,755.59,6.783,53.37688,-0.91,0,1
16656,2023-01-20 11:09:31.800000,2023-01-20 11:09:31.800000,206154368,0,3,472189800,2245,14,0.79,39.8048624,32.3797035,755.58,6.559,54.07957,-0.646,0,1
16722,2023-01-20 11:09:32.000000,2023-01-20 11:09:32.000000,206354362,0,3,472190000,2245,14,0.79,39.8048679,32.3797157,755.51,5.978,55.94482,-0.39,0,1
16786,2023-01-20 11:09:32.200000,2023-01-20 11:09:32.200000,206554360,0,3,472190200,2245,15,0.67,39.8048737,32.3797281,755.52,6.702,54.32812,-0.7270001,0,1
16853,2023-01-20 11:09:32.400000,2023-01-20 11:09:32.400000,206754373,0,3,472190400,2245,15,0.67,39.8048811,32.379741,755.79,6.982,53.49578,-0.8650001,0,1
16917,2023-01-20 11:09:32.600000,2023-01-20 11:09:32.600000,206954413,0,3,472190600,2245,15,0.67,39.8048888,32.3797542,756.06,7.131001,52.56395,-0.812,0,1
16982,2023-01-20 11:09:32.800000,2023-01-20 11:09:32.800000,207154418,0,3,472190800,2245,15,0.67,39.8048961,32.3797674,756.18,7.153,52.52098,-0.978,0,1
17048,2023-01-20 11:09:33.000000,2023-01-20 11:09:33.000000,207354359,0,3,472191000,2245,15,0.67,39.8049034,32.3797807,756.23,7.126,52.02379,-0.803,0,1
17112,2023-01-20 11:09:33.200000,2023-01-20 11:09:33.200000,207554357,0,3,472191200,2245,15,0.67,39.8049106,32.379794,756.31,7.143,52.71459,-0.601,0,1
17179,2023-01-20 11:09:33.400000,2023-01-20 11:09:33.400000,207754422,0,3,472191400,2245,15,0.67,39.8049181,32.3798076,756.49,7.174,52.8072,-0.7460001,0,1
17243,2023-01-20 11:09:33.600000,2023-01-20 11:09:33.600000,207954418,0,3,472191600,2245,15,0.67,39.8049258,32.3798211,756.66,7.264,52.23403,-0.6810001,0,1
17308,2023-01-20 11:09:33.800000,2023-01-20 11:09:33.800000,208154373,0,3,472191800,2245,15,0.67,39.8049344,32.3798347,756.97,7.548,50.93932,-0.822,0,1
17374,2023-01-20 11:09:34.000000,2023-01-20 11:09:34.000000,208354359,0,3,472192000,2245,15,0.67,39.8049428,32.3798487,757.18,7.489,51.63203,-0.731,0,1
17438,2023-01-20 11:09:34.200000,2023-01-20 11:09:34.200000,208554354,0,3,472192200,2245,15,0.67,39.8049505,32.3798624,757.22,7.34,51.51193,-0.873,0,1
17505,2023-01-20 11:09:34.400000,2023-01-20 11:09:34.400000,208754357,0,3,472192400,2245,15,0.67,39.8049587,32.3798762,757.48,7.458,51.72475,-0.9910001,0,1
17569,2023-01-20 11:09:34.600000,2023-01-20 11:09:34.600000,208954405,0,3,472192600,2245,15,0.67,39.8049664,32.3798898,757.44,7.341001,50.95158,-0.775,0,1
17635,2023-01-20 11:09:34.800000,2023-01-20 11:09:34.800000,209154367,0,3,472192800,2245,15,0.67,39.8049746,32.3799033,757.64,7.274,50.7184,-0.964,0,1
17701,2023-01-20 11:09:35.000000,2023-01-20 11:09:35.000000,209354358,0,3,472193000,2245,15,0.67,39.8049825,32.3799169,757.87,7.14,51.91398,-1.062,0,1
17765,2023-01-20 11:09:35.200000,2023-01-20 11:09:35.200000,209554360,0,3,472193200,2245,15,0.67,39.8049903,32.3799304,758.08,7.229001,51.63423,-0.9080001,0,1
17832,2023-01-20 11:09:35.400000,2023-01-20 11:09:35.400000,209754420,0,3,472193400,2245,15,0.67,39.8049981,32.3799437,758.19,7.177001,50.8933,-0.742,0,1
17898,2023-01-20 11:09:35.600000,2023-01-20 11:09:35.600000,209954385,0,3,472193600,2245,15,0.67,39.805006,32.3799569,758.37,7.068,51.08974,-0.9110001,0,1
17963,2023-01-20 11:09:35.800000,2023-01-20 11:09:35.800000,210154368,0,3,472193800,2245,15,0.67,39.8050134,32.3799699,758.42,7.108,51.01325,-0.752,0,1
18029,2023-01-20 11:09:36.000000,2023-01-20 11:09:36.000000,210354399,0,3,472194000,2245,15,0.67,39.8050207,32.3799828,758.57,6.768,52.02545,-0.574,0,1
18093,2023-01-20 11:09:36.200000,2023-01-20 11:09:36.200000,210554353,0,3,472194200,2245,15,0.67,39.8050279,32.3799956,758.71,6.837,51.76794,-0.8710001,0,1
18160,2023-01-20 11:09:36.400000,2023-01-20 11:09:36.400000,210754353,0,3,472194400,2245,15,0.67,39.8050349,32.3800081,758.73,6.686,51.99025,-0.823,0,1
18224,2023-01-20 11:09:36.600000,2023-01-20 11:09:36.600000,210974182,0,3,472194600,2245,15,0.67,39.8050421,32.3800205,758.85,6.668,51.38184,-0.836,0,1
18289,2023-01-20 11:09:36.800000,2023-01-20 11:09:36.800000,211174175,0,3,472194800,2245,15,0.67,39.8050493,32.380033,758.92,6.826,51.76631,-0.864,0,1
18355,2023-01-20 11:09:37.000000,2023-01-20 11:09:37.000000,211374147,0,3,472195000,2245,15,0.67,39.8050563,32.3800459,759.13,6.77,53.4691,-0.9170001,0,1
18420,2023-01-20 11:09:37.200000,2023-01-20 11:09:37.200000,211574180,0,3,472195200,2245,15,0.67,39.8050634,32.3800588,759.27,6.924,52.63333,-0.6020001,0,1
18486,2023-01-20 11:09:37.400000,2023-01-20 11:09:37.400000,211774245,0,3,472195400,2245,15,0.67,39.8050707,32.3800717,759.42,6.952,52.62414,-1.011,0,1
18549,2023-01-20 11:09:37.600000,2023-01-20 11:09:37.600000,211954400,0,3,472195600,2245,15,0.67,39.8050777,32.3800849,759.57,6.958,54.15761,-1.119,0,1
18615,2023-01-20 11:09:37.800000,2023-01-20 11:09:37.800000,212174350,0,3,472195800,2245,15,0.67,39.8050848,32.3800983,759.73,7.11,53.54555,-1.02,0,1
18681,2023-01-20 11:09:38.000000,2023-01-20 11:09:38.000000,212374314,0,3,472196000,2245,15,0.67,39.8050922,32.3801117,759.86,7.084,53.76837,-0.8840001,0,1
18746,2023-01-20 11:09:38.200000,2023-01-20 11:09:38.200000,212574337,0,3,472196200,2245,15,0.67,39.8050998,32.3801251,760.03,7.286,52.90929,-1.137,0,1
18812,2023-01-20 11:09:38.400000,2023-01-20 11:09:38.400000,212774370,0,3,472196400,2245,15,0.67,39.8051078,32.3801388,760.29,7.421,52.57324,-1.055,0,1
18876,2023-01-20 11:09:38.600000,2023-01-20 11:09:38.600000,212974401,0,3,472196600,2245,15,0.67,39.8051152,32.3801524,760.32,7.28,52.69321,-0.9960001,0,1
18941,2023-01-20 11:09:38.800000,2023-01-20 11:09:38.800000,213174376,0,3,472196800,2245,15,0.67,39.8051229,32.3801658,760.41,7.204,52.20407,-0.9300001,0,1
19007,2023-01-20 11:09:39.000000,2023-01-20 11:09:39.000000,213374353,0,3,472197000,2245,15,0.67,39.8051304,32.380179,760.5,7.019001,52.52708,-0.669,0,1
19072,2023-01-20 11:09:39.200000,2023-01-20 11:09:39.200000,213574362,0,3,472197200,2245,15,0.67,39.805138,32.3801924,760.65,7.264,52.82342,-0.583,0,1
19138,2023-01-20 11:09:39.400000,2023-01-20 11:09:39.400000,213774410,0,3,472197400,2245,15,0.67,39.8051462,32.3802059,760.81,7.32,51.24598,-0.677,0,1
19202,2023-01-20 11:09:39.600000,2023-01-20 11:09:39.600000,213974402,0,3,472197600,2245,15,0.67,39.8051543,32.380219,760.95,7.129,51.37823,-0.738,0,1
19271,2023-01-20 11:09:39.800000,2023-01-20 11:09:39.800000,214174377,0,3,472197800,2245,15,0.67,39.8051624,32.3802321,761.18,7.114,51.42923,-0.7820001,0,1
19337,2023-01-20 11:09:40.000000,2023-01-20 11:09:40.000000,214374354,0,3,472198000,2245,15,0.67,39.8051709,32.3802451,761.51,7.155,50.03186,-0.7970001,0,1
19400,2023-01-20 11:09:40.200000,2023-01-20 11:09:40.200000,214574362,0,3,472198200,2245,15,0.67,39.8051797,32.3802583,761.7,7.757,49.026,-0.812,0,1
19467,2023-01-20 11:09:40.400000,2023-01-20 11:09:40.400000,214774367,0,3,472198400,2245,15,0.67,39.8051882,32.3802718,761.97,7.013,50.52432,-0.729,0,1
19533,2023-01-20 11:09:40.600000,2023-01-20 11:09:40.600000,214974408,0,3,472198600,2245,15,0.67,39.8051962,32.380285,762.21,7.244,50.44793,-0.8940001,0,1
19598,2023-01-20 11:09:40.800000,2023-01-20 11:09:40.800000,215174374,0,3,472198800,2245,15,0.67,39.8052041,32.380298,762.45,7.021,50.69167,-1.124,0,1
19664,2023-01-20 11:09:41.000000,2023-01-20 11:09:41.000000,215374351,0,3,472199000,2245,15,0.67,39.8052114,32.3803111,762.68,7.017,52.42611,-1.151,0,1
19728,2023-01-20 11:09:41.200000,2023-01-20 11:09:41.200000,215574354,0,3,472199200,2245,15,0.67,39.8052187,32.3803243,762.86,6.905,52.62772,-0.68,0,1
19795,2023-01-20 11:09:41.400000,2023-01-20 11:09:41.400000,215774418,0,3,472199400,2245,15,0.67,39.8052261,32.380337,763.04,6.787,52.27559,-1.064,0,1
19859,2023-01-20 11:09:41.600000,2023-01-20 11:09:41.600000,215974402,0,3,472199600,2245,15,0.67,39.8052338,32.3803497,763.32,6.942,51.40712,-1.05,0,1
19924,2023-01-20 11:09:41.800000,2023-01-20 11:09:41.800000,216174386,0,3,472199800,2245,15,0.67,39.8052413,32.3803622,763.52,6.626,52.04735,-0.775,0,1
19990,2023-01-20 11:09:42.000000,2023-01-20 11:09:42.000000,216374394,0,3,472200000,2245,15,0.67,39.8052482,32.3803745,763.61,6.609,52.6001,-1.099,0,1
20054,2023-01-20 11:09:42.200000,2023-01-20 11:09:42.200000,216574360,0,3,472200200,2245,15,0.67,39.8052552,32.3803869,763.81,6.559,52.76997,-0.924,0,1
20121,2023-01-20 11:09:42.400000,2023-01-20 11:09:42.400000,216774377,0,3,472200400,2245,15,0.67,39.8052621,32.3803991,763.86,6.615,52.6029,-1.032,0,1
20185,2023-01-20 11:09:42.600000,2023-01-20 11:09:42.600000,216974405,0,3,472200600,2245,15,0.67,39.8052693,32.3804117,764.01,6.826,53.16767,-1.056,0,1
20250,2023-01-20 11:09:42.800000,2023-01-20 11:09:42.800000,217174387,0,3,472200800,2245,15,0.67,39.8052765,32.3804247,764.23,6.866,53.58627,-0.896,0,1
20316,2023-01-20 11:09:43.000000,2023-01-20 11:09:43.000000,217374353,0,3,472201000,2245,15,0.67,39.8052837,32.3804376,764.4,6.882,53.4378,-0.992,0,1
20380,2023-01-20 11:09:43.200000,2023-01-20 11:09:43.200000,217574355,0,3,472201200,2245,15,0.67,39.8052912,32.3804506,764.64,7.067,52.43937,-1.052,0,1
20447,2023-01-20 11:09:43.400000,2023-01-20 11:09:43.400000,217774382,0,3,472201400,2245,15,0.67,39.8052986,32.3804636,764.8,6.864,52.85176,-0.799,0,1
20511,2023-01-20 11:09:43.600000,2023-01-20 11:09:43.600000,217974402,0,3,472201600,2245,15,0.67,39.805306,32.3804767,764.94,7.261,52.76927,-0.737,0,1
20576,2023-01-20 11:09:43.800000,2023-01-20 11:09:43.800000,218174380,0,3,472201800,2245,15,0.67,39.8053134,32.3804898,765,6.801,52.78324,-0.449,0,1
20642,2023-01-20 11:09:44.000000,2023-01-20 11:09:44.000000,218374401,0,3,472202000,2245,15,0.67,39.8053211,32.3805027,765.24,7.045001,52.85744,-0.793,0,1
20706,2023-01-20 11:09:44.200000,2023-01-20 11:09:44.200000,218574356,0,3,472202200,2245,15,0.67,39.8053296,32.3805161,765.67,7.311,52.23733,-0.9990001,0,1
20773,2023-01-20 11:09:44.400000,2023-01-20 11:09:44.400000,218774376,0,3,472202400,2245,15,0.67,39.8053375,32.3805295,765.83,7.201,52.11426,-1.135,0,1
20837,2023-01-20 11:09:44.600000,2023-01-20 11:09:44.600000,218974452,0,3,472202600,2245,15,0.67,39.8053455,32.3805424,765.94,7.118001,50.7404,-0.846,0,1
20902,2023-01-20 11:09:44.800000,2023-01-20 11:09:44.800000,219174370,0,3,472202800,2245,15,0.67,39.8053534,32.3805551,766.04,7.048,50.64827,-1.034,0,1
20969,2023-01-20 11:09:45.000000,2023-01-20 11:09:45.000000,219374351,0,3,472203000,2245,15,0.67,39.8053612,32.3805678,766.21,6.953001,50.71366,-1.088,0,1
21033,2023-01-20 11:09:45.200000,2023-01-20 11:09:45.200000,219574349,0,3,472203200,2245,15,0.67,39.8053692,32.3805806,766.47,7.116,50.89233,-1.109,0,1
21100,2023-01-20 11:09:45.400000,2023-01-20 11:09:45.400000,219774375,0,3,472203400,2245,15,0.67,39.8053766,32.3805933,766.51,6.908,51.52163,-0.9680001,0,1
21166,2023-01-20 11:09:45.600000,2023-01-20 11:09:45.600000,219974357,0,3,472203600,2245,15,0.67,39.805384,32.3806058,766.56,6.871,51.3559,-0.758,0,1
21232,2023-01-20 11:09:45.800000,2023-01-20 11:09:45.800000,220194406,0,3,472203800,2245,15,0.67,39.8053917,32.3806185,766.69,7.004,51.65887,-0.697,0,1
21298,2023-01-20 11:09:46.000000,2023-01-20 11:09:46.000000,220394482,0,3,472204000,2245,15,0.67,39.8053992,32.3806316,766.84,7.008,52.80015,-0.661,0,1
21363,2023-01-20 11:09:46.200000,2023-01-20 11:09:46.200000,220594414,0,3,472204200,2245,15,0.67,39.8054064,32.3806447,766.98,6.932,53.77312,-0.72,0,1
21429,2023-01-20 11:09:46.400000,2023-01-20 11:09:46.400000,220794442,0,3,472204400,2245,15,0.67,39.8054135,32.380658,767.11,6.994,54.679,-0.572,0,1
21493,2023-01-20 11:09:46.600000,2023-01-20 11:09:46.600000,220994463,0,3,472204600,2245,15,0.67,39.8054206,32.3806713,767.18,7.09,54.18495,-0.702,0,1
21558,2023-01-20 11:09:46.800000,2023-01-20 11:09:46.800000,221194447,0,3,472204800,2245,15,0.67,39.805428,32.3806847,767.33,7.119,54.07202,-0.525,0,1
21624,2023-01-20 11:09:47.000000,2023-01-20 11:09:47.000000,221394490,0,3,472205000,2245,15,0.67,39.8054357,32.3806979,767.46,7.187,53.03608,-0.601,0,1
21689,2023-01-20 11:09:47.200000,2023-01-20 11:09:47.200000,221594502,0,3,472205200,2245,15,0.67,39.8054436,32.3807111,767.59,7.213,52.58433,-0.522,0,1
21755,2023-01-20 11:09:47.400000,2023-01-20 11:09:47.400000,221794554,0,3,472205400,2245,15,0.67,39.8054514,32.3807246,767.69,7.316,53.283,-0.669,0,1
21868,2023-01-20 11:09:47.600000,2023-01-20 11:09:47.600000,221994629,0,3,472205600,2245,15,0.67,39.8054597,32.3807383,767.96,7.429,52.03021,-0.874,0,1
21933,2023-01-20 11:09:47.800000,2023-01-20 11:09:47.800000,222194591,0,3,472205800,2245,15,0.67,39.8054678,32.3807518,768.15,7.405,52.33972,-0.8660001,0,1
21999,2023-01-20 11:09:48.000000,2023-01-20 11:09:48.000000,222394524,0,3,472206000,2245,15,0.67,39.8054764,32.3807653,768.21,7.721,49.98806,-0.355,0,1
22063,2023-01-20 11:09:48.200000,2023-01-20 11:09:48.200000,222594604,0,3,472206200,2245,15,0.67,39.8054849,32.3807786,768.44,7.16,51.13541,-0.864,0,1
22130,2023-01-20 11:09:48.400000,2023-01-20 11:09:48.400000,222794618,0,3,472206400,2245,15,0.67,39.8054925,32.3807919,768.62,7.174,52.27385,-0.447,0,1
22194,2023-01-20 11:09:48.600000,2023-01-20 11:09:48.600000,222994690,0,3,472206600,2245,15,0.67,39.8054999,32.3808052,768.72,7,53.23643,-0.327,0,1
22259,2023-01-20 11:09:48.800000,2023-01-20 11:09:48.800000,223194608,0,3,472206800,2245,15,0.67,39.8055076,32.3808185,768.98,7.108,53.20431,-0.464,0,1
22325,2023-01-20 11:09:49.000000,2023-01-20 11:09:49.000000,223394606,0,3,472207000,2245,15,0.67,39.8055152,32.3808315,769.15,6.858,53.40231,-0.192,0,1
22389,2023-01-20 11:09:49.200000,2023-01-20 11:09:49.200000,223594602,0,3,472207200,2245,15,0.67,39.8055225,32.3808444,769.31,6.804,53.67736,-0.444,0,1
22456,2023-01-20 11:09:49.400000,2023-01-20 11:09:49.400000,223794617,0,3,472207400,2245,15,0.67,39.8055299,32.3808573,769.5,6.874001,53.65272,-0.126,0,1
22520,2023-01-20 11:09:49.600000,2023-01-20 11:09:49.600000,223994647,0,3,472207600,2245,15,0.67,39.805537,32.38087,769.54,6.607,54.09967,-0.045,0,1
22586,2023-01-20 11:09:49.800000,2023-01-20 11:09:49.800000,224194617,0,3,472207800,2245,15,0.67,39.8055437,32.3808823,769.58,6.408,54.56133,-0.151,0,1
22653,2023-01-20 11:09:50.000000,2023-01-20 11:09:50.000000,224394600,0,3,472208000,2245,15,0.67,39.8055505,32.3808947,769.68,6.638,54.72069,-0.52,0,1
22717,2023-01-20 11:09:50.200000,2023-01-20 11:09:50.200000,224594607,0,3,472208200,2245,15,0.67,39.8055576,32.3809072,769.83,6.633,54.00756,-0.586,0,1
22784,2023-01-20 11:09:50.400000,2023-01-20 11:09:50.400000,224794632,0,3,472208400,2245,15,0.67,39.8055645,32.3809194,769.89,6.596,53.48054,-0.864,0,1
22850,2023-01-20 11:09:50.600000,2023-01-20 11:09:50.600000,224994711,0,3,472208600,2245,15,0.67,39.8055722,32.380932,770.15,6.978,52.87755,-0.993,0,1
22915,2023-01-20 11:09:50.800000,2023-01-20 11:09:50.800000,225194621,0,3,472208800,2245,15,0.67,39.8055798,32.3809448,770.36,6.902,52.98433,-0.85,0,1
22981,2023-01-20 11:09:51.000000,2023-01-20 11:09:51.000000,225394610,0,3,472209000,2245,15,0.67,39.8055876,32.3809577,770.56,7.087,52.45843,-1.077,0,1
23045,2023-01-20 11:09:51.200000,2023-01-20 11:09:51.200000,225594640,0,3,472209200,2245,15,0.67,39.8055956,32.3809706,770.72,7.107,51.7076,-0.8890001,0,1
23112,2023-01-20 11:09:51.400000,2023-01-20 11:09:51.400000,225794637,0,3,472209400,2245,15,0.67,39.805604,32.3809837,771,7.296,51.33426,-1.003,0,1
23176,2023-01-20 11:09:51.600000,2023-01-20 11:09:51.600000,225994638,0,3,472209600,2245,15,0.67,39.8056124,32.3809968,771.2,7.167,50.76416,-0.905,0,1
23241,2023-01-20 11:09:51.800000,2023-01-20 11:09:51.800000,226194594,0,3,472209800,2245,15,0.67,39.8056207,32.3810098,771.34,7.431,50.30725,-0.811,0,1
23307,2023-01-20 11:09:52.000000,2023-01-20 11:09:52.000000,226394614,0,3,472210000,2245,15,0.67,39.8056285,32.3810228,771.38,7.088,51.14911,-0.72,0,1
23371,2023-01-20 11:09:52.200000,2023-01-20 11:09:52.200000,226594611,0,3,472210200,2245,15,0.67,39.8056361,32.3810361,771.51,7.176,52.56267,-0.677,0,1
23438,2023-01-20 11:09:52.400000,2023-01-20 11:09:52.400000,226794638,0,3,472210400,2245,15,0.67,39.805644,32.3810496,771.75,7.106,52.97159,-0.664,0,1
23502,2023-01-20 11:09:52.600000,2023-01-20 11:09:52.600000,226994659,0,3,472210600,2245,15,0.67,39.8056523,32.3810631,772.03,7.316,52.32677,-0.669,0,1
23567,2023-01-20 11:09:52.800000,2023-01-20 11:09:52.800000,227194586,0,3,472210800,2245,15,0.67,39.8056601,32.3810761,772.11,6.964,51.71617,-0.665,0,1
23633,2023-01-20 11:09:53.000000,2023-01-20 11:09:53.000000,227394624,0,3,472211000,2245,15,0.67,39.8056681,32.3810891,772.27,7.144001,52.20693,-0.638,0,1
23697,2023-01-20 11:09:53.200000,2023-01-20 11:09:53.200000,227594633,0,3,472211200,2245,15,0.67,39.8056759,32.3811021,772.38,6.925,52.32931,-0.427,0,1
23764,2023-01-20 11:09:53.400000,2023-01-20 11:09:53.400000,227794609,0,3,472211400,2245,15,0.67,39.8056835,32.3811148,772.41,6.963,51.85203,-0.498,0,1
23828,2023-01-20 11:09:53.600000,2023-01-20 11:09:53.600000,227994640,0,3,472211600,2245,15,0.67,39.8056917,32.3811278,772.67,7.186,52.32623,-0.623,0,1
23893,2023-01-20 11:09:53.800000,2023-01-20 11:09:53.800000,228194648,0,3,472211800,2245,15,0.67,39.8057004,32.381141,772.97,7.266,50.9729,-0.521,0,1
23959,2023-01-20 11:09:54.000000,2023-01-20 11:09:54.000000,228394603,0,3,472212000,2245,15,0.67,39.8057086,32.3811539,773.07,7.104001,51.10785,-0.597,0,1
24022,2023-01-20 11:09:54.200000,2023-01-20 11:09:54.200000,228594593,0,3,472212200,2245,15,0.67,39.8057165,32.3811668,773.21,7.032001,51.31629,-0.6620001,0,1
24089,2023-01-20 11:09:54.400000,2023-01-20 11:09:54.400000,228794614,0,3,472212400,2245,15,0.67,39.8057243,32.3811798,773.33,7.056,51.98014,-0.612,0,1
24153,2023-01-20 11:09:54.600000,2023-01-20 11:09:54.600000,228994638,0,3,472212600,2245,15,0.67,39.8057324,32.3811929,773.6,7.105,52.08301,-0.39,0,1
24218,2023-01-20 11:09:54.800000,2023-01-20 11:09:54.800000,229194591,0,3,472212800,2245,15,0.67,39.8057402,32.3812063,773.78,6.995,53.80487,-0.272,0,1
24284,2023-01-20 11:09:55.000000,2023-01-20 11:09:55.000000,229394592,0,3,472213000,2245,15,0.67,39.8057473,32.3812194,773.84,6.868001,53.84465,-0.215,0,1
24349,2023-01-20 11:09:55.200000,2023-01-20 11:09:55.200000,229594657,0,3,472213200,2245,15,0.67,39.8057549,32.3812326,774.01,7.005,53.83056,-0.594,0,1
24416,2023-01-20 11:09:55.400000,2023-01-20 11:09:55.400000,229794602,0,3,472213400,2245,15,0.67,39.8057624,32.381246,774.18,7.046,54.43396,-0.58,0,1
24482,2023-01-20 11:09:55.600000,2023-01-20 11:09:55.600000,229994657,0,3,472213600,2245,15,0.67,39.80577,32.3812592,774.38,6.81,53.34975,-0.529,0,1
24547,2023-01-20 11:09:55.800000,2023-01-20 11:09:55.800000,230194702,0,3,472213800,2245,15,0.67,39.8057777,32.3812721,774.6,6.933001,53.30743,-0.455,0,1
24640,2023-01-20 11:09:56.000000,2023-01-20 11:09:56.000000,230414201,0,3,472214000,2245,15,0.67,39.8057854,32.3812851,774.82,6.832,53.41194,-0.6350001,0,1
24705,2023-01-20 11:09:56.200000,2023-01-20 11:09:56.200000,230614145,0,3,472214200,2245,15,0.67,39.8057929,32.3812977,774.92,6.915,52.1047,-0.583,0,1
24771,2023-01-20 11:09:56.400000,2023-01-20 11:09:56.400000,230814192,0,3,472214400,2245,15,0.67,39.8058006,32.3813104,774.98,6.99,51.86642,-0.453,0,1
24835,2023-01-20 11:09:56.600000,2023-01-20 11:09:56.600000,231014335,0,3,472214600,2245,15,0.67,39.8058081,32.3813233,775.21,6.633,53.66354,-0.583,0,1
24902,2023-01-20 11:09:56.800000,2023-01-20 11:09:56.800000,231214216,0,3,472214800,2245,15,0.67,39.8058154,32.3813363,775.43,6.872,53.70823,-0.777,0,1
24966,2023-01-20 11:09:57.000000,2023-01-20 11:09:57.000000,231414243,0,3,472215000,2245,15,0.67,39.8058225,32.3813493,775.58,6.79,54.55159,-0.8560001,0,1
25031,2023-01-20 11:09:57.200000,2023-01-20 11:09:57.200000,231614383,0,3,472215200,2245,15,0.67,39.8058299,32.3813624,775.84,6.88,54.19997,-0.891,0,1
25097,2023-01-20 11:09:57.400000,2023-01-20 11:09:57.400000,231814382,0,3,472215400,2245,15,0.67,39.805837,32.3813753,775.93,6.869,54.33419,-0.881,0,1
25161,2023-01-20 11:09:57.600000,2023-01-20 11:09:57.600000,232014401,0,3,472215600,2245,15,0.67,39.8058446,32.3813884,776.1,7.164001,53.38472,-1.009,0,1
25228,2023-01-20 11:09:57.800000,2023-01-20 11:09:57.800000,232214371,0,3,472215800,2245,15,0.67,39.805852,32.3814015,776.16,6.993001,53.40688,-1.105,0,1
25292,2023-01-20 11:09:58.000000,2023-01-20 11:09:58.000000,232414360,0,3,472216000,2245,15,0.67,39.8058597,32.3814149,776.38,7.170001,53.92782,-0.9080001,0,1
25357,2023-01-20 11:09:58.200000,2023-01-20 11:09:58.200000,232614367,0,3,472216200,2245,15,0.67,39.8058671,32.3814282,776.39,7.008,53.45741,-0.509,0,1
25423,2023-01-20 11:09:58.400000,2023-01-20 11:09:58.400000,232814352,0,3,472216400,2245,15,0.67,39.8058748,32.3814415,776.57,7.002,54.18922,-0.582,0,1
25487,2023-01-20 11:09:58.600000,2023-01-20 11:09:58.600000,233014425,0,3,472216600,2245,15,0.67,39.8058822,32.3814546,776.72,6.794,54.10041,-0.516,0,1
25554,2023-01-20 11:09:58.800000,2023-01-20 11:09:58.800000,233214373,0,3,472216800,2245,15,0.67,39.8058897,32.3814677,776.92,6.847,54.75349,-0.364,0,1
25618,2023-01-20 11:09:59.000000,2023-01-20 11:09:59.000000,233414376,0,3,472217000,2245,15,0.67,39.8058966,32.3814808,776.98,6.696,55.25031,-0.312,0,1
25683,2023-01-20 11:09:59.200000,2023-01-20 11:09:59.200000,233614415,0,3,472217200,2245,15,0.67,39.8059041,32.3814935,777.12,6.732,53.75881,-0.508,0,1
25749,2023-01-20 11:09:59.400000,2023-01-20 11:09:59.400000,233814377,0,3,472217400,2245,15,0.67,39.8059119,32.3815061,777.26,6.868001,53.31574,-0.49,0,1
25813,2023-01-20 11:09:59.600000,2023-01-20 11:09:59.600000,234014408,0,3,472217600,2245,15,0.67,39.8059196,32.3815188,777.44,6.776,53.14052,-0.475,0,1
25881,2023-01-20 11:09:59.800000,2023-01-20 11:09:59.800000,234214409,0,3,472217800,2245,15,0.67,39.8059271,32.3815314,777.61,6.576,53.71212,-0.5790001,0,1
25945,2023-01-20 11:10:00.000000,2023-01-20 11:10:00.000000,234414380,0,3,472218000,2245,15,0.67,39.8059342,32.3815437,777.81,6.315001,54.10987,-0.439,0,1
26011,2023-01-20 11:10:00.200000,2023-01-20 11:10:00.200000,234614359,0,3,472218200,2245,15,0.67,39.8059415,32.3815557,778.07,6.259,53.46086,-0.7600001,0,1
26077,2023-01-20 11:10:00.400000,2023-01-20 11:10:00.400000,234814384,0,3,472218400,2245,15,0.67,39.8059485,32.3815671,778.25,6.009,52.72283,-0.536,0,1
26143,2023-01-20 11:10:00.600000,2023-01-20 11:10:00.600000,235014411,0,3,472218600,2245,15,0.67,39.8059554,32.3815777,778.46,5.572,51.68609,-0.571,0,1
26210,2023-01-20 11:10:00.800000,2023-01-20 11:10:00.800000,235214362,0,3,472218800,2245,15,0.67,39.8059622,32.3815876,778.61,5.597,48.80517,-0.987,0,1
26273,2023-01-20 11:10:01.000000,2023-01-20 11:10:01.000000,235414366,0,3,472219000,2245,15,0.67,39.8059685,32.3815967,778.69,5.009,48.92378,-0.729,0,1
26338,2023-01-20 11:10:01.200000,2023-01-20 11:10:01.200000,235614364,0,3,472219200,2245,15,0.67,39.8059739,32.3816049,778.71,4.406,48.75335,-1.05,0,1
26404,2023-01-20 11:10:01.400000,2023-01-20 11:10:01.400000,235814384,0,3,472219400,2245,15,0.67,39.8059783,32.3816117,778.78,3.403,49.18701,-1.195,0,1
26467,2023-01-20 11:10:01.600000,2023-01-20 11:10:01.600000,236014414,0,3,472219600,2245,15,0.67,39.8059823,32.3816173,779.07,2.958,49.23144,-1.179,0,1
26534,2023-01-20 11:10:01.800000,2023-01-20 11:10:01.800000,236214399,0,3,472219800,2245,15,0.67,39.8059857,32.3816217,779.28,2.356,45.80818,-1.294,0,1
26597,2023-01-20 11:10:02.000000,2023-01-20 11:10:02.000000,236414361,0,3,472220000,2245,15,0.67,39.8059884,32.381625,779.47,1.672,46.47019,-1.006,0,1
26662,2023-01-20 11:10:02.200000,2023-01-20 11:10:02.200000,236614374,0,3,472220200,2245,15,0.67,39.8059901,32.3816265,779.51,0.855,31.25539,-1.18,0,1
26728,2023-01-20 11:10:02.400000,2023-01-20 11:10:02.400000,236814422,0,3,472220400,2245,15,0.67,39.8059908,32.3816264,779.76,0.25,31.25539,-0.9960001,0,1
26794,2023-01-20 11:10:02.600000,2023-01-20 11:10:02.600000,237014417,0,3,472220600,2245,15,0.67,39.8059903,32.3816259,779.72,0.446,31.25539,-0.45,0,1
26861,2023-01-20 11:10:02.800000,2023-01-20 11:10:02.800000,237214360,0,3,472220800,2245,15,0.67,39.8059892,32.3816253,779.7,0.923,31.25539,-0.236,0,1
26924,2023-01-20 11:10:03.000000,2023-01-20 11:10:03.000000,237414365,0,3,472221000,2245,15,0.67,39.8059868,32.3816242,779.91,2.125,175.5826,-0.8800001,0,1
26988,2023-01-20 11:10:03.200000,2023-01-20 11:10:03.200000,237614372,0,3,472221200,2245,15,0.67,39.805983,32.3816229,780.12,2.477,188.767,-0.689,0,1
27054,2023-01-20 11:10:03.400000,2023-01-20 11:10:03.400000,237814379,0,3,472221400,2245,15,0.67,39.805979,32.3816214,780.15,2.536,195.1532,-0.83,0,1
27117,2023-01-20 11:10:03.600000,2023-01-20 11:10:03.600000,238014404,0,3,472221600,2245,15,0.67,39.8059743,32.3816196,780.15,3.157,196.8561,-0.735,0,1
27184,2023-01-20 11:10:03.800000,2023-01-20 11:10:03.800000,238214357,0,3,472221800,2245,15,0.67,39.8059694,32.3816177,780.27,2.836,197.5342,-0.66,0,1
27248,2023-01-20 11:10:04.000000,2023-01-20 11:10:04.000000,238414364,0,3,472222000,2245,15,0.67,39.8059646,32.3816158,780.34,2.92,199.3213,-0.461,0,1
27312,2023-01-20 11:10:04.200000,2023-01-20 11:10:04.200000,238614372,0,3,472222200,2245,15,0.67,39.80596,32.3816137,780.38,2.792,200.7151,-0.439,0,1
27378,2023-01-20 11:10:04.400000,2023-01-20 11:10:04.400000,238814425,0,3,472222400,2245,15,0.67,39.8059554,32.3816113,780.53,2.865,201.6825,-0.541,0,1
27441,2023-01-20 11:10:04.600000,2023-01-20 11:10:04.600000,239014401,0,3,472222600,2245,15,0.67,39.805951,32.381609,780.6,2.75,202.4189,-0.606,0,1
27508,2023-01-20 11:10:04.800000,2023-01-20 11:10:04.800000,239214367,0,3,472222800,2245,15,0.67,39.8059464,32.3816072,780.67,2.71,198.4352,-0.441,0,1
27572,2023-01-20 11:10:05.000000,2023-01-20 11:10:05.000000,239414349,0,3,472223000,2245,15,0.67,39.8059418,32.3816056,780.66,2.687,199.3456,-0.354,0,1
27638,2023-01-20 11:10:05.200000,2023-01-20 11:10:05.200000,239634144,0,3,472223200,2245,15,0.67,39.805937,32.381604,780.67,2.889,197.1698,-0.37,0,1
27704,2023-01-20 11:10:05.400000,2023-01-20 11:10:05.400000,239834124,0,3,472223400,2245,15,0.67,39.8059321,32.3816025,780.71,2.788,196.4226,-0.057,0,1
27768,2023-01-20 11:10:05.600000,2023-01-20 11:10:05.600000,240014409,0,3,472223600,2245,15,0.67,39.8059276,32.3816007,780.76,2.67,198.7107,-0.206,0,1
27836,2023-01-20 11:10:05.800000,2023-01-20 11:10:05.800000,240234144,0,3,472223800,2245,15,0.67,39.805923,32.3815987,780.87,2.839,199.0034,-0.465,0,1
27900,2023-01-20 11:10:06.000000,2023-01-20 11:10:06.000000,240434155,0,3,472224000,2245,15,0.67,39.8059185,32.3815967,781.01,2.77,200.448,-0.472,0,1
27967,2023-01-20 11:10:06.200000,2023-01-20 11:10:06.200000,240614377,0,3,472224200,2245,15,0.67,39.8059142,32.3815944,781.14,2.619,202.4495,-0.471,0,1
