LineNo,UTC_Approx,TimeUS,I,GyrX,GyrY,GyrZ,AccX,AccY,AccZ,EG,EA,T,GH,AH,GHz,AHz
360,2023-01-20 11:08:47.380903,161633484,0,-0.001451199,-0.001221376,8.746932E-06,0.02914294,0.1935869,-9.831985,0,0,29.98161,1,1,7973,996
894,2023-01-20 11:08:47.457253,161713852,0,-0.001402916,-0.0009453495,0.001057446,0.02192711,0.2000062,-9.819779,0,0,29.97864,1,1,7973,996
984,2023-01-20 11:08:47.495242,161753841,0,-0.0005029137,-0.0003143302,0.000383329,0.02829613,0.1980777,-9.82088,0,0,29.97729,1,1,7973,996
1066,2023-01-20 11:08:47.533916,161794551,0,-0.0006796979,-0.0002387102,0.000286763,0.02482848,0.1981474,-9.831035,0,0,29.97617,1,1,7973,996
1099,2023-01-20 11:08:47.575300,161838113,0,-0.0005869322,0.0001517746,0.000584645,0.01944864,0.2130157,-9.866254,0,0,29.97518,1,1,7973,996
1137,2023-01-20 11:08:47.627514,161890214,0,0.0003535557,-0.0006872854,0.0007358817,0.0225933,0.194846,-9.831451,0,0,29.97489,1,1,7973,996
1274,2023-01-20 11:08:47.673336,161933682,0,-0.001021887,-0.00031235,0.0005887875,0.02612048,0.2124987,-9.814281,0,0,29.97578,1,1,7973,996
1359,2023-01-20 11:08:47.715457,161973640,0,0.000646857,-0.0003630582,0.0009244242,0.02607254,0.202646,-9.83367,0,0,29.97652,1,1,7973,996
1455,2023-01-20 11:08:47.757596,162013615,0,-0.0006230533,-0.0001528808,0.0003468777,0.02408746,0.1911567,-9.840774,0,0,29.97785,1,1,7973,996
1570,2023-01-20 11:08:47.800184,162054026,0,-0.0008329656,-0.001545374,-0.0009835947,0.03024511,0.2117871,-9.835644,0,0,29.9797,1,1,7973,996
1821,2023-01-20 11:08:47.840710,162094650,0,-1.645284E-05,0.0003511587,0.0003703754,0.02233713,0.1941088,-9.843091,0,0,29.98156,1,1,7973,996
1851,2023-01-20 11:08:47.880047,162134082,0,-0.0002615725,-0.001623923,-7.326197E-05,0.02078746,0.1934167,-9.839675,0,0,29.98255,1,1,7973,996
1859,2023-01-20 11:08:47.920270,162174403,0,-0.0005270931,-0.0006844362,-0.0001865029,0.02394694,0.2089006,-9.840776,0,0,29.98254,1,1,7973,996
1896,2023-01-20 11:08:47.959880,162214109,0,-0.0008039455,-0.001001636,0.0002220828,0.015031,0.2109634,-9.830806,0,0,29.98289,1,1,7973,996
1904,2023-01-20 11:08:48.000129,162254455,0,-0.0009386868,-0.0007409749,0.0003072624,0.01691819,0.2009436,-9.849809,0,0,29.9836,1,1,7973,996
1913,2023-01-20 11:08:48.040210,162294534,0,-0.0006126239,-0.00125897,0.0003906342,0.02927472,0.1924267,-9.833747,0,0,29.98467,1,1,7973,996
1944,2023-01-20 11:08:48.079819,162334141,0,-0.001484816,0.000354261,0.0003505142,0.021749,0.2095877,-9.842103,0,0,29.98549,1,1,7973,996
1952,2023-01-20 11:08:48.119784,162374105,0,1.160188E-05,-0.000830671,0.0003424964,0.0197883,0.2073166,-9.838055,0,0,29.98654,1,1,7973,996
1986,2023-01-20 11:08:48.159771,162414090,0,-6.112843E-05,-0.001947522,-0.0002591329,0.03482515,0.1921639,-9.841337,0,0,29.98759,1,1,7973,996
2001,2023-01-20 11:08:48.200130,162454447,0,-0.0005887825,-0.0006512942,0.0004886087,0.0149291,0.1971938,-9.831856,0,0,29.98832,1,1,7973,996
2012,2023-01-20 11:08:48.240231,162494535,0,-0.0009129912,-0.001927122,0.0006542091,0.0124168,0.1972732,-9.825982,0,0,29.98921,1,1,7973,996
2043,2023-01-20 11:08:48.279809,162534099,0,0.0002548923,-0.0008500477,-0.00047686,0.02915704,0.191439,-9.829325,0,0,29.99024,1,1,7973,996
2050,2023-01-20 11:08:48.319823,162574100,0,-0.0003774249,-0.0007874116,0.000271181,0.02772256,0.203818,-9.824896,0,0,29.99159,1,1,7973,996
2081,2023-01-20 11:08:48.359840,162614104,0,0.0001115955,-0.001017419,-0.0004164163,0.02313698,0.2026477,-9.820299,0,0,29.9923,1,1,7974,996
2096,2023-01-20 11:08:48.400159,162654426,0,-0.001798211,-0.001264344,-0.0002776204,0.02583903,0.1993249,-9.833535,0,0,29.99272,1,1,7974,996
2109,2023-01-20 11:08:48.436641,162694534,0,-0.0008884428,-0.00165972,0.0002878286,0.02269809,0.2101772,-9.841975,0,0,29.99327,1,1,7974,996
2149,2023-01-20 11:08:48.472604,162734072,0,-0.000414735,-0.001255827,0.0003162476,0.03079359,0.2019262,-9.834851,0,0,29.99391,1,1,7974,996
2161,2023-01-20 11:08:48.509065,162774157,0,0.0002894654,-0.00155413,-0.00066225,0.02392749,0.1974778,-9.822506,0,0,29.99402,1,1,7974,996
2195,2023-01-20 11:08:48.545404,162814108,0,0.0003272839,-0.0007053912,0.0001394895,0.02522815,0.1935496,-9.835041,0,0,29.99402,1,1,7974,996
2209,2023-01-20 11:08:48.582077,162854426,0,-0.0002539266,0.0001162354,0.000272022,0.01558677,0.1985844,-9.831553,0,0,29.99402,1,1,7974,996
2230,2023-01-20 11:08:48.620402,162894529,0,5.026019E-05,-0.0006645511,0.0004200359,0.02373448,0.1988813,-9.837111,0,0,29.99359,1,1,7974,996
2267,2023-01-20 11:08:48.659960,162934079,0,-0.0007076685,-0.0008741177,-0.0002736427,0.03160147,0.2111376,-9.835176,0,0,29.99342,1,1,7974,996
2274,2023-01-20 11:08:48.699996,162974108,0,0.001768887,-0.001279982,0.0005279154,0.03171338,0.2048224,-9.828568,0,0,29.99349,1,1,7974,996
2309,2023-01-20 11:08:48.740017,163014121,0,-0.0009219683,-0.001110122,0.0005926578,0.02585713,0.2063067,-9.823132,0,0,29.99434,1,1,7974,996
2319,2023-01-20 11:08:48.780354,163054450,0,-0.001632564,-0.001588972,0.0005434283,0.02070272,0.1920557,-9.824525,0,0,29.99602,1,1,7974,996
2336,2023-01-20 11:08:48.820566,163094658,0,-0.0006638105,-0.0008081887,-0.0006679969,0.02641224,0.2094369,-9.833954,0,0,29.99779,1,1,7974,996
2375,2023-01-20 11:08:48.859984,163134075,0,-0.0003282879,-0.000450215,0.0002071272,0.03344978,0.2005054,-9.830058,0,0,29.99889,1,1,7974,996
2385,2023-01-20 11:08:48.900381,163174472,0,-0.0007761238,-0.00102566,0.0001046737,0.02737016,0.2107697,-9.836097,0,0,29.99954,1,1,7974,996
2420,2023-01-20 11:08:48.940020,163214111,0,-0.000382575,-0.0007353736,-0.0002386086,0.01864068,0.2060908,-9.846583,0,0,30.00033,1,1,7974,996
2425,2023-01-20 11:08:48.980325,163254415,0,-0.0008833267,-0.0005817991,0.0008733278,0.0147798,0.2028192,-9.83571,0,0,30.00103,1,1,7974,996
2435,2023-01-20 11:08:49.020441,163294534,0,-0.0001625753,-0.001366799,0.00045725,0.01633602,0.1950488,-9.851815,0,0,30.00161,1,1,7974,996
2468,2023-01-20 11:08:49.060038,163334138,0,-0.0001831679,-0.0009601103,0.0002388193,0.01643647,0.1993245,-9.830589,0,0,30.00211,1,1,7974,996
2474,2023-01-20 11:08:49.099993,163374100,0,-0.0004766326,-0.001241695,0.0007898192,0.02642032,0.2013207,-9.829451,0,0,30.00333,1,1,7974,996
2504,2023-01-20 11:08:49.139995,163414108,0,-0.0009719098,-0.0007495981,0.0004569086,0.02322096,0.2032739,-9.841802,0,0,30.00504,1,1,7974,996
2512,2023-01-20 11:08:49.180308,163454428,0,-0.0001090159,-0.001082406,0.001479602,0.02948637,0.2056006,-9.839004,0,0,30.00709,1,1,7974,996
2521,2023-01-20 11:08:49.222656,163494527,0,0.0001173903,-0.0004422063,0.0004753009,0.04186384,0.1856631,-9.82411,0,0,30.00911,1,1,7974,996
2550,2023-01-20 11:08:49.266586,163534091,0,-4.836362E-05,-0.001123304,0.0005255135,0.02869037,0.1940335,-9.842333,0,0,30.01069,1,1,7974,996
2555,2023-01-20 11:08:49.311085,163574167,0,-0.0006045182,-0.001060856,0.0007200601,0.02192833,0.1982885,-9.812589,0,0,30.01203,1,1,7974,996
2587,2023-01-20 11:08:49.355428,163614103,0,-3.592834E-05,-9.883499E-05,0.0002039039,0.02508604,0.192696,-9.824431,0,0,30.01324,1,1,7974,996
2594,2023-01-20 11:08:49.400179,163654424,0,-0.0004603998,-0.001857297,0.00041333,0.02562885,0.2007558,-9.83495,0,0,30.01412,1,1,7974,996
2601,2023-01-20 11:08:49.440316,163694587,0,0.0004141246,-0.0002434708,0.0002031345,0.02554417,0.2034721,-9.836676,0,0,30.01511,1,1,7974,996
2633,2023-01-20 11:08:49.479801,163734098,0,0.0006570825,-0.002508624,0.001561514,0.0291793,0.2015035,-9.84191,0,0,30.01601,1,1,7974,996
2637,2023-01-20 11:08:49.519794,163774117,0,-0.0006939563,0.0006572057,0.01404322,0.04309063,0.2037723,-9.834347,0,0,30.01622,1,1,7974,996
2668,2023-01-20 11:08:49.559774,163814123,0,-0.001761261,-0.001651669,0.000809351,0.04917238,0.2035113,-9.811683,0,0,30.01613,1,1,7974,996
2675,2023-01-20 11:08:49.600129,163854517,0,-0.002263684,-0.005483569,-0.01693793,0.05096144,0.1819351,-9.819968,0,0,30.01592,1,1,7974,996
2682,2023-01-20 11:08:49.636543,163894520,0,0.0006135237,-0.0009424618,-0.01996414,0.02914554,0.1965199,-9.834279,0,0,30.0164,1,1,7974,996
2711,2023-01-20 11:08:49.672572,163934101,0,-0.001972621,-0.00129594,-0.0052505,0.03214864,0.1792755,-9.827824,0,0,30.0176,1,1,7974,996
2715,2023-01-20 11:08:49.708985,163974104,0,0.001304758,0.003680807,0.01702104,-0.04428031,0.2479412,-9.831695,0,0,30.01932,1,1,7974,996
2746,2023-01-20 11:08:49.745388,164014095,0,0.002149225,-0.0004554513,0.01036168,0.0502571,0.1778404,-9.828186,0,0,30.0204,1,1,7974,996
2751,2023-01-20 11:08:49.782082,164054407,0,-0.001906198,-0.003433199,-0.01283428,0.08269278,0.1521127,-9.832251,0,0,30.02105,1,1,7974,996
2762,2023-01-20 11:08:49.820555,164094651,0,0.001161269,-0.001493239,-0.0078337,-0.0333528,0.249411,-9.814861,0,0,30.02148,1,1,7974,996
2792,2023-01-20 11:08:49.859986,164134091,0,-8.100561E-05,0.003485348,0.01489453,-0.03843677,0.2709419,-9.841372,0,0,30.02136,1,1,7974,996
2796,2023-01-20 11:08:49.900267,164174382,0,-0.002537415,0.001873435,0.02049858,0.0582945,0.1552258,-9.827378,0,0,30.02183,1,1,7974,996
2829,2023-01-20 11:08:49.939983,164214107,0,0.0009737817,0.002884606,0.001083372,0.07406654,0.1268207,-9.839067,0,0,30.02219,1,1,7974,996
2834,2023-01-20 11:08:49.980280,164254413,0,0.0001732233,0.0004265902,-0.03024835,0.02347365,0.1732181,-9.830686,0,0,30.02266,1,1,7974,996
2843,2023-01-20 11:08:50.020416,164294546,0,0.0008755557,-0.004363337,-0.03237243,0.009463165,0.2241719,-9.835116,0,0,30.02335,1,1,7974,996
2872,2023-01-20 11:08:50.059983,164334098,0,-0.00260266,-0.001492643,-0.01360185,0.02797085,0.2641036,-9.826089,0,0,30.02376,1,1,7974,996
2876,2023-01-20 11:08:50.099993,164374094,0,-0.000641034,0.003520378,0.01665542,0.02833071,0.2825258,-9.814587,0,0,30.02444,1,1,7974,996
2909,2023-01-20 11:08:50.139996,164414081,0,-0.001470994,0.001972176,0.03527914,0.007601036,0.2272552,-9.822611,0,0,30.02529,1,1,7974,996
2915,2023-01-20 11:08:50.180315,164454385,0,0.002512787,-0.001650576,0.03349638,0.007802728,0.1361134,-9.833948,0,0,30.02573,1,1,7974,996
2924,2023-01-20 11:08:50.220454,164494525,0,0.001050951,-0.00238897,0.01503772,0.006924093,0.1028239,-9.833168,0,0,30.02627,1,1,7974,996
2954,2023-01-20 11:08:50.260021,164534108,0,-1.600145E-06,-0.0008269749,-0.01719865,0.04172244,0.1644074,-9.836863,0,0,30.02712,1,1,7974,996
2958,2023-01-20 11:08:50.299986,164574089,0,-0.002056129,-0.001198703,-0.03626611,0.05107147,0.243614,-9.837363,0,0,30.02838,1,1,7974,996
2989,2023-01-20 11:08:50.339989,164614109,0,-0.002037805,-0.001440968,-0.03419719,0.04605028,0.2722958,-9.82566,0,0,30.02907,1,1,7973,996
2994,2023-01-20 11:08:50.380246,164654382,0,-0.001516687,-0.003752956,-0.01246372,0.02610028,0.26346,-9.816904,0,0,30.02965,1,1,7973,996
3003,2023-01-20 11:08:50.420369,164694523,0,-0.001767223,-0.00135077,0.01451487,0.01808543,0.234007,-9.827711,0,0,30.02954,1,1,7973,996
3034,2023-01-20 11:08:50.459895,164734067,0,0.003808134,-0.004717053,0.033958,0.01940038,0.1704826,-9.836811,0,0,30.02947,1,1,7973,996
3040,2023-01-20 11:08:50.500215,164774407,0,0.002408935,0.002174754,0.03374147,0.006760415,0.1253091,-9.822895,0,0,30.02962,1,1,7973,996
3071,2023-01-20 11:08:50.539896,164814107,0,0.001171284,0.001680118,0.01897964,0.008781081,0.1366666,-9.828325,0,0,30.02947,1,1,7973,996
3076,2023-01-20 11:08:50.580087,164854317,0,-0.001601105,0.002168814,-0.01455102,-0.005532852,0.1658959,-9.841374,0,0,30.02988,1,1,7973,996
3085,2023-01-20 11:08:50.620295,164894522,0,-0.003868484,0.001440908,-0.05198297,-0.01901085,0.1682662,-9.828403,0,0,30.02958,1,1,7973,996
3113,2023-01-20 11:08:50.659924,164934128,0,-0.009735993,-0.000666678,-0.1098307,-0.05112513,0.1059358,-9.814055,0,0,30.02881,1,1,7973,996
3118,2023-01-20 11:08:50.699909,164974090,0,0.002455519,-0.008397759,-0.07406051,-0.0008159486,0.1998524,-9.807416,0,0,30.02797,1,1,7973,996
3149,2023-01-20 11:08:50.739939,165014097,0,0.01892252,0.01030611,0.02006613,-0.1453702,0.0992095,-9.807571,0,0,30.02739,1,1,7973,996
3155,2023-01-20 11:08:50.780277,165054411,0,0.01267211,0.01293346,0.04170087,0.112244,0.3847974,-9.880686,0,0,30.02703,1,1,7973,996
3164,2023-01-20 11:08:50.820548,165094684,0,0.01392819,-0.01402165,-0.07677586,0.1120791,0.3626517,-9.813491,0,0,30.02755,1,1,7973,996
3192,2023-01-20 11:08:50.859918,165134080,0,0.006537697,0.005386167,0.02442797,-0.01122113,0.1785397,-9.757599,0,0,30.02912,1,1,7973,996
3198,2023-01-20 11:08:50.900188,165174376,0,-0.003365076,0.01548959,0.005718879,0.01963891,0.06121011,-9.846175,0,0,30.03084,1,1,7973,996
3231,2023-01-20 11:08:50.939957,165214170,0,0.003101386,-0.005286787,-0.02911237,-0.01779836,0.2089995,-9.862349,0,0,30.0326,1,1,7973,996
3236,2023-01-20 11:08:50.979975,165254214,0,-0.001035717,-0.006600044,0.04359318,-0.01503545,0.2578165,-9.853515,0,0,30.03386,1,1,7973,996
3244,2023-01-20 11:08:51.020293,165294542,0,0.0005607103,0.002370122,-0.03605445,0.1531452,0.1451835,-9.833493,0,0,30.03483,1,1,7973,996
3272,2023-01-20 11:08:51.059834,165334077,0,0.01031073,0.007245766,-0.008568366,-0.06864512,0.1477714,-9.784534,0,0,30.03596,1,1,7973,996
3277,2023-01-20 11:08:51.099905,165374143,0,-0.0157351,-0.004845225,0.0388043,0.01166668,0.2574285,-9.880337,0,0,30.03709,1,1,7973,996
3309,2023-01-20 11:08:51.139875,165414107,0,0.007474036,-0.01863172,-0.05924893,0.17465,0.2987826,-9.859634,0,0,30.03762,1,1,7973,996
3316,2023-01-20 11:08:51.180005,165454231,0,0.01146961,0.01353798,-0.01817156,-0.07662003,0.06471863,-9.783391,0,0,30.03819,1,1,7973,996
3325,2023-01-20 11:08:51.220303,165494535,0,-0.0006280064,0.005581588,0.05667188,-0.03618313,0.1796797,-9.844836,0,0,30.03918,1,1,7973,996
3353,2023-01-20 11:08:51.259837,165534086,0,-0.0005158081,0.0020699,-0.03505525,0.1531635,0.3712799,-9.868764,0,0,30.03983,1,1,7973,996
3358,2023-01-20 11:08:51.299845,165574112,0,0.005212928,-0.008059748,-0.05033785,-0.05117928,0.1088493,-9.795537,0,0,30.03996,1,1,7973,996
3389,2023-01-20 11:08:51.339815,165614099,0,-0.001403858,-4.347787E-05,0.01300655,-0.02919918,0.159087,-9.840495,0,0,30.04021,1,1,7973,996
3394,2023-01-20 11:08:51.379918,165654220,0,0.005115894,0.01470517,0.02998383,0.08294156,0.3006258,-9.84835,0,0,30.04069,1,1,7973,996
3403,2023-01-20 11:08:51.420209,165694523,0,-0.006331805,-0.01241089,-0.01714327,0.03454541,0.1339431,-9.832205,0,0,30.04084,1,1,7973,996
3433,2023-01-20 11:08:51.459761,165734082,0,0.00338456,-0.009795916,-0.06299561,0.04563902,0.1759234,-9.83761,0,0,30.04079,1,1,7973,996
3438,2023-01-20 11:08:51.499784,165774112,0,-0.004864422,0.02698598,0.05837737,-0.0396839,0.2535191,-9.83881,0,0,30.04,1,1,7973,996
3469,2023-01-20 11:08:51.539783,165814117,0,0.01078749,-0.002165407,0.0247525,0.06815349,0.1375249,-9.851595,0,0,30.0405,1,1,7973,996
3475,2023-01-20 11:08:51.579870,165854211,0,-0.008626744,0.0041722,-0.07868741,0.09230556,0.2038499,-9.823179,0,0,30.04121,1,1,7973,996
3484,2023-01-20 11:08:51.620178,165894521,0,-0.0001976275,-0.00564956,0.03815572,-0.1165182,0.2084098,-9.807404,0,0,30.04179,1,1,7973,996
3511,2023-01-20 11:08:51.659803,165934143,0,-0.001689769,-0.0003734585,0.01604007,0.07976669,0.2211179,-9.837415,0,0,30.04226,1,1,7973,996
3517,2023-01-20 11:08:51.699779,165974116,0,0.01408607,0.002982198,-0.05334065,0.1089138,0.2017452,-9.842278,0,0,30.0427,1,1,7973,996
3548,2023-01-20 11:08:51.739775,166014109,0,-0.005801002,0.007351119,0.04841631,-0.02429235,0.1352398,-9.801334,0,0,30.04323,1,1,7973,996
3553,2023-01-20 11:08:51.779849,166054180,0,-0.002973943,-0.01336767,-0.0001086721,0.06915202,0.2575522,-9.875951,0,0,30.04419,1,1,7973,996
3564,2023-01-20 11:08:51.820373,166094704,0,0.0133056,-0.01961194,-0.04061873,-0.01169853,0.1936991,-9.798539,0,0,30.04487,1,1,7973,996
3591,2023-01-20 11:08:51.859771,166134103,0,-0.009313296,0.01850414,0.02811828,0.01256243,0.09297828,-9.813939,0,0,30.04482,1,1,7973,996
3597,2023-01-20 11:08:51.899851,166174184,0,0.006049945,0.007417166,0.009863934,0.08485218,0.2573225,-9.829251,0,0,30.04473,1,1,7973,996
3630,2023-01-20 11:08:51.939789,166214123,0,-0.007474336,-0.006308259,-0.01042656,-0.0357835,0.1716018,-9.828914,0,0,30.04477,1,1,7973,996
3635,2023-01-20 11:08:51.979813,166254148,0,-0.00101478,-0.01094554,-0.03616023,0.05599007,0.2262788,-9.84804,0,0,30.04445,1,1,7973,996
3644,2023-01-20 11:08:52.020200,166294535,0,0.01116017,0.006196004,0.0156194,0.0502574,0.2049063,-9.797363,0,0,30.04395,1,1,7973,996
3672,2023-01-20 11:08:52.059762,166334094,0,-0.008377958,0.001234608,0.04536321,-0.02314567,0.1017428,-9.839213,0,0,30.04374,1,1,7973,996
3677,2023-01-20 11:08:52.099826,166374155,0,-0.003419138,-0.006675864,-0.02685865,0.1080489,0.3011564,-9.861191,0,0,30.04431,1,1,7973,996
3705,2023-01-20 11:08:52.139787,166414113,0,-0.009104385,-5.026226E-07,0.001081303,0.0287199,0.1994738,-9.831529,0,0,30.04398,1,1,7973,996
3708,2023-01-20 11:08:52.179809,166454132,0,0.009260628,-0.009147746,0.02843915,-0.05422399,0.08754692,-9.79925,0,0,30.04357,1,1,7973,996
3715,2023-01-20 11:08:52.220210,166494532,0,0.007383705,0.01566869,-0.006467625,0.08868545,0.2793015,-9.856749,0,0,30.04336,1,1,7973,996
3740,2023-01-20 11:08:52.259773,166534097,0,0.005661619,-0.0061562,0.03028968,0.05190538,0.2413726,-9.803711,0,0,30.04348,1,1,7973,996
3742,2023-01-20 11:08:52.299797,166574121,0,-0.0166678,-0.01192376,-0.03991033,0.0469532,0.09276946,-9.83969,0,0,30.04332,1,1,7973,996
3770,2023-01-20 11:08:52.339782,166614107,0,0.009035338,-0.00248728,0.001016369,-0.04951542,0.220209,-9.834842,0,0,30.0438,1,1,7974,996
3772,2023-01-20 11:08:52.379815,166654141,0,-0.0008192353,0.006126136,0.06483584,0.0505367,0.2171951,-9.874757,0,0,30.04403,1,1,7974,996
3778,2023-01-20 11:08:52.420193,166694525,0,-0.01204971,-0.006688109,-0.05812245,0.1793294,0.1837027,-9.834643,0,0,30.04391,1,1,7974,996
3805,2023-01-20 11:08:52.459755,166734097,0,-0.002633187,-0.009196815,-0.01125049,-0.1061826,0.1538755,-9.81627,0,0,30.04345,1,1,7974,996
3807,2023-01-20 11:08:52.499776,166774128,0,0.00937098,0.006211327,0.04980127,0.01153751,0.2246658,-9.851618,0,0,30.04313,1,1,7974,996
3835,2023-01-20 11:08:52.539779,166814142,0,0.004335677,0.006919718,-0.001723293,0.1624893,0.2480786,-9.872268,0,0,30.04357,1,1,7974,996
3837,2023-01-20 11:08:52.579721,166854094,0,-0.003356697,0.003089372,0.01399845,-0.06763855,0.0777521,-9.790033,0,0,30.0434,1,1,7974,996
3843,2023-01-20 11:08:52.620151,166894522,0,-0.006330786,-0.01576739,0.01945953,-0.002146272,0.2590981,-9.853494,0,0,30.04379,1,1,7974,996
3868,2023-01-20 11:08:52.659748,166934106,0,0.007506343,0.001655501,0.01654377,0.09364095,0.3357226,-9.855648,0,0,30.04409,1,1,7974,996
3870,2023-01-20 11:08:52.699762,166974107,0,0.002999166,0.006238787,0.008749658,0.002939183,0.02895508,-9.815721,0,0,30.04354,1,1,7974,996
3898,2023-01-20 11:08:52.739759,167014091,0,0.006205482,-0.005744935,-0.0141067,0.01080892,0.2003774,-9.821055,0,0,30.04286,1,1,7974,996
3900,2023-01-20 11:08:52.779790,167054109,0,-0.01856776,0.003474088,0.04516167,-0.0236607,0.3121043,-9.860498,0,0,30.04206,1,1,7974,996
3908,2023-01-20 11:08:52.820398,167094710,0,0.01205016,-0.01343176,-0.0005803964,0.06362584,0.1524847,-9.821192,0,0,30.04089,1,1,7974,996
3933,2023-01-20 11:08:52.859783,167134094,0,0.004616146,0.005439381,-0.03862292,0.02884975,0.1649583,-9.814716,0,0,30.04013,1,1,7974,996
3935,2023-01-20 11:08:52.899848,167174159,0,-0.01218016,0.01575005,0.0853636,-0.05545636,0.2157257,-9.808956,0,0,30.03904,1,1,7974,996
3965,2023-01-20 11:08:52.939799,167214109,0,0.01209855,-0.01756016,-0.004935112,0.09197996,0.2953729,-9.888831,0,0,30.03794,1,1,7974,996
3967,2023-01-20 11:08:52.979861,167254170,0,0.001558785,-0.007627115,-0.06677523,0.06704162,0.1590846,-9.801915,0,0,30.0368,1,1,7974,996
3973,2023-01-20 11:08:53.020228,167294543,0,-0.0007627456,0.01647916,0.0660537,-0.04227403,0.1229239,-9.826407,0,0,30.03562,1,1,7974,996
3998,2023-01-20 11:08:53.059768,167334096,0,-0.008518402,0.009114075,0.01387064,0.1145685,0.2776445,-9.865614,0,0,30.03463,1,1,7974,996
4000,2023-01-20 11:08:53.099771,167374111,0,0.01315172,-0.02664077,-0.04424933,0.01079823,0.2371463,-9.853504,0,0,30.03432,1,1,7974,996
4028,2023-01-20 11:08:53.139745,167414097,0,-0.01155984,-0.0124174,-0.004235181,-0.007123275,0.1113453,-9.785623,0,0,30.03422,1,1,7974,996
4031,2023-01-20 11:08:53.179741,167454106,0,0.004581838,0.01578287,0.03463708,0.07304829,0.2318558,-9.852408,0,0,30.03464,1,1,7974,996
4038,2023-01-20 11:08:53.220214,167494583,0,-0.005243143,0.01876417,0.03868163,-0.02359192,0.1881453,-9.838977,0,0,30.03466,1,1,7974,996
4063,2023-01-20 11:08:53.259833,167534198,0,0.002017315,-0.02271978,-0.07423017,0.06847782,0.1826628,-9.85642,0,0,30.03453,1,1,7974,996
4065,2023-01-20 11:08:53.299788,167574149,0,0.004921973,-0.007787523,3.878069E-05,0.02746872,0.2284448,-9.78382,0,0,30.03469,1,1,7974,996
4093,2023-01-20 11:08:53.339806,167614163,0,0.0001910887,0.02514037,0.09448078,-0.0182804,0.1679094,-9.845243,0,0,30.03547,1,1,7973,996
4095,2023-01-20 11:08:53.379895,167654248,0,-0.01026003,-0.001254737,-0.03013458,0.1582384,0.2086449,-9.854622,0,0,30.03687,1,1,7973,996
4101,2023-01-20 11:08:53.420276,167694635,0,0.01223744,-0.01967157,0.04632314,0.06358577,0.2042121,-9.870918,0,0,30.03878,1,1,7973,996
4128,2023-01-20 11:08:53.459765,167734140,0,0.014384,0.01295439,0.04258425,0.003669606,0.2369125,-9.830736,0,0,30.04058,1,1,7973,996
4130,2023-01-20 11:08:53.499775,167774166,0,-0.0127943,-0.03359485,-0.01954529,0.06766637,0.1448735,-9.806075,0,0,30.04256,1,1,7973,996
4158,2023-01-20 11:08:53.539754,167814162,0,-0.03416591,0.03841995,-0.003646484,0.1010923,0.2625524,-9.884767,0,0,30.0441,1,1,7973,996
4159,2023-01-20 11:08:53.579792,167854216,0,0.00980266,-0.01446018,0.03210186,-0.0235521,0.0971558,-9.815606,0,0,30.045,1,1,7973,996
4166,2023-01-20 11:08:53.620164,167894590,0,0.02625108,0.002776574,-0.01272863,0.05591079,0.1784214,-9.798595,0,0,30.04538,1,1,7973,996
4191,2023-01-20 11:08:53.659728,167934141,0,0.01229274,-0.01437433,-0.007814365,0.04916925,0.1218876,-9.856189,0,0,30.04543,1,1,7973,996
4193,2023-01-20 11:08:53.699772,167974172,0,-0.01742975,-0.02458656,-0.07154056,0.1430499,0.1927107,-9.648624,0,0,30.04531,1,1,7973,996
4221,2023-01-20 11:08:53.739774,168014161,0,-0.0385625,0.0331781,-0.1769322,0.02539366,0.4527861,-9.71129,0,0,30.0454,1,1,7973,996
4222,2023-01-20 11:08:53.779769,168054144,0,0.02317979,0.0511667,-0.07187977,0.0809264,0.2235549,-9.970129,0,0,30.04498,1,1,7973,996
4231,2023-01-20 11:08:53.820343,168094715,0,0.0360987,0.0005707151,-0.06988051,0.007465183,0.2054074,-9.899951,0,0,30.04404,1,1,7973,996
4256,2023-01-20 11:08:53.859788,168134166,0,0.06376363,0.03760998,0.0358597,-0.02272965,0.161901,-9.882804,0,0,30.04288,1,1,7973,996
4258,2023-01-20 11:08:53.899973,168174358,0,0.1153041,0.01888965,0.009426028,0.117791,0.4780657,-9.998712,0,0,30.04267,1,1,7973,996
4289,2023-01-20 11:08:53.939777,168214168,0,0.1246647,0.08349986,0.04074999,-0.04277653,0.452228,-10.27074,0,0,30.04331,1,1,7973,996
4290,2023-01-20 11:08:53.979768,168254166,0,0.2038771,-0.07272422,0.06068427,0.05080735,0.3177003,-10.41033,0,0,30.04357,1,1,7973,996
4297,2023-01-20 11:08:54.020197,168294601,0,0.05135811,-0.1064533,0.05817718,-0.02043811,0.005059381,-10.93821,0,0,30.04363,1,1,7973,996
4323,2023-01-20 11:08:54.059744,168334153,0,-0.1194533,-0.05310968,0.08186632,-0.02098733,0.08118994,-11.58231,0,0,30.0429,1,1,7973,996
4325,2023-01-20 11:08:54.099747,168374161,0,-0.1499107,0.1153347,0.07262492,-0.123357,0.1450931,-11.80135,0,0,30.04202,1,1,7973,996
4353,2023-01-20 11:08:54.139734,168414153,0,-0.02734815,0.1974793,0.06934971,-0.0311402,0.3257929,-11.90206,0,0,30.04202,1,1,7973,996
4355,2023-01-20 11:08:54.179779,168454203,0,-0.005402568,0.01004442,0.04825143,0.1542818,0.1929255,-11.6574,0,0,30.04197,1,1,7973,996
4363,2023-01-20 11:08:54.220145,168494567,0,-0.1842322,-0.03046178,-0.002298384,0.169324,0.05379869,-11.32387,0,0,30.04204,1,1,7973,996
4388,2023-01-20 11:08:54.259746,168534158,0,-0.03555708,-0.09522762,-0.04281894,0.2707626,0.2962199,-10.93644,0,0,30.04193,1,1,7973,996
4390,2023-01-20 11:08:54.299772,168574174,0,-0.01281511,-0.2789303,-0.06383917,0.3808606,0.1288697,-10.66491,0,0,30.04219,1,1,7973,996
4418,2023-01-20 11:08:54.339805,168614198,0,0.02897047,-0.2469762,-0.1023547,0.2274764,0.1925212,-10.37023,0,0,30.04241,1,1,7973,996
4419,2023-01-20 11:08:54.379790,168654173,0,0.1633251,-0.09402183,-0.1572059,0.06445627,0.2681758,-9.94339,0,0,30.04177,1,1,7973,996
4426,2023-01-20 11:08:54.420192,168694577,0,0.1496882,-0.01384051,-0.1897529,0.03584338,0.2108823,-9.855503,0,0,30.04099,1,1,7973,996
4453,2023-01-20 11:08:54.459757,168734157,0,-0.01947877,-0.05908535,-0.1654926,0.1546788,0.2790408,-9.737042,0,0,30.0406,1,1,7973,996
4455,2023-01-20 11:08:54.499743,168774158,0,-0.166372,-0.1738979,-0.1316595,0.3812343,0.2319363,-9.508901,0,0,30.0404,1,1,7973,996
4483,2023-01-20 11:08:54.539719,168814149,0,-0.008845395,-0.1312682,-0.05547677,0.3423282,0.3960082,-9.061595,0,0,30.04149,1,1,7973,996
4484,2023-01-20 11:08:54.579741,168854186,0,-0.03130548,-0.09894926,0.002607397,0.391568,0.4869172,-9.037861,0,0,30.04262,1,1,7973,996
4491,2023-01-20 11:08:54.620139,168894589,0,-0.1251825,0.03019118,0.02241949,0.208738,0.4497703,-9.519341,0,0,30.0424,1,1,7973,996
4516,2023-01-20 11:08:54.659734,168934177,0,-0.1071414,0.08207099,0.08691689,0.05748277,0.5234408,-9.81643,0,0,30.04233,1,1,7973,996
4518,2023-01-20 11:08:54.699717,168974154,0,-0.1924431,0.1843074,0.1033722,0.07429235,0.4957584,-9.935801,0,0,30.04222,1,1,7973,996
4546,2023-01-20 11:08:54.739766,169014196,0,-0.2264476,0.2956867,0.08587223,0.1485122,0.5258979,-10.11404,0,0,30.04269,1,1,7973,996
4547,2023-01-20 11:08:54.779752,169054176,0,-0.2241558,0.2025602,0.09305688,0.432395,0.5701567,-9.777184,0,0,30.0437,1,1,7973,996
4556,2023-01-20 11:08:54.820311,169094729,0,-0.2304489,0.05090653,0.142137,0.6383857,0.4279495,-9.593777,0,0,30.04474,1,1,7973,996
4581,2023-01-20 11:08:54.859749,169134162,0,-0.2430651,-0.002969695,0.1920373,0.548372,0.2556928,-9.426939,0,0,30.04657,1,1,7973,996
4583,2023-01-20 11:08:54.899756,169174165,0,-0.1401799,0.126333,0.1949482,0.466913,0.268846,-9.249981,0,0,30.04868,1,1,7973,996
4613,2023-01-20 11:08:54.939779,169214184,0,0.03359959,0.1474478,0.146247,0.4585501,0.4653081,-9.246511,0,0,30.05077,1,1,7973,996
4614,2023-01-20 11:08:54.979783,169254183,0,0.01011158,0.08775808,0.1641262,0.4367119,0.4165671,-9.46564,0,0,30.05211,1,1,7973,996
4621,2023-01-20 11:08:55.020219,169294615,0,-0.0615242,0.03841443,0.1681465,0.6512362,0.2854195,-9.40474,0,0,30.05203,1,1,7973,996
4646,2023-01-20 11:08:55.059751,169334143,0,0.001784793,0.09787529,0.169605,0.6550374,0.3710598,-9.395478,0,0,30.05203,1,1,7973,996
4648,2023-01-20 11:08:55.099827,169374215,0,0.09692521,0.1456577,0.1419953,0.5501382,0.4366059,-9.448453,0,0,30.05328,1,1,7973,996
4676,2023-01-20 11:08:55.139788,169414172,0,0.02814339,0.1307691,0.1312176,0.5481417,0.3057268,-9.509458,0,0,30.05524,1,1,7973,996
4678,2023-01-20 11:08:55.179786,169454166,0,-0.000812452,0.005396011,0.1049681,0.6135759,0.223849,-9.571012,0,0,30.05692,1,1,7973,996
4686,2023-01-20 11:08:55.220207,169494586,0,0.01664875,0.1429041,0.07894963,0.451186,0.2731375,-9.729609,0,0,30.05867,1,1,7973,996
4711,2023-01-20 11:08:55.259811,169534192,0,-0.03997792,0.2627289,0.05391169,0.3371182,0.2259218,-9.683956,0,0,30.0607,1,1,7973,996
4713,2023-01-20 11:08:55.299785,169574168,0,-0.08674292,0.2354779,0.03351567,0.4440905,0.2631923,-9.555283,0,0,30.06302,1,1,7973,996
4741,2023-01-20 11:08:55.339779,169614165,0,-0.1206884,0.09733339,0.001590393,0.5519167,0.1099011,-9.437287,0,0,30.06446,1,1,7973,996
4742,2023-01-20 11:08:55.379792,169654180,0,-0.0279632,-0.1863437,-0.04618907,0.6067036,0.2684088,-9.470938,0,0,30.06565,1,1,7973,996
4749,2023-01-20 11:08:55.420228,169694623,0,0.1005258,-0.3225588,-0.1306265,0.6054852,0.4172035,-9.897705,0,0,30.0671,1,1,7973,996
4776,2023-01-20 11:08:55.459753,169734158,0,0.1062421,-0.2419534,-0.2161844,0.4546941,0.3139035,-10.09196,0,0,30.06887,1,1,7973,996
4780,2023-01-20 11:08:55.500043,169774460,0,0.0814463,-0.1271204,-0.2754547,0.4080922,0.2400737,-10.06584,0,0,30.07051,1,1,7973,996
4808,2023-01-20 11:08:55.539742,169814170,0,0.1621907,-0.06562713,-0.3013315,0.4025921,0.2671693,-9.836964,0,0,30.0716,1,1,7973,996
4809,2023-01-20 11:08:55.579782,169854220,0,0.219584,0.03694749,-0.3218042,0.3167001,0.2999684,-9.685925,0,0,30.07186,1,1,7973,996
4816,2023-01-20 11:08:55.620152,169894590,0,0.249575,0.1136134,-0.3154228,0.292176,0.2407089,-9.562421,0,0,30.07118,1,1,7973,996
4841,2023-01-20 11:08:55.659715,169934142,0,0.2579959,0.1692578,-0.282348,0.2683204,0.2674704,-9.55885,0,0,30.07015,1,1,7973,996
4843,2023-01-20 11:08:55.699756,169974171,0,0.2570803,0.1407614,-0.2130677,0.3457801,0.2712406,-9.59888,0,0,30.06914,1,1,7973,996
4871,2023-01-20 11:08:55.739807,170014211,0,0.1483001,-0.02388583,-0.1821683,0.4562734,0.1386524,-9.773005,0,0,30.06854,1,1,7973,996
4872,2023-01-20 11:08:55.779771,170054163,0,0.1545006,-0.08211467,-0.1539822,0.3141379,0.1965851,-9.978206,0,0,30.06833,1,1,7973,996
4881,2023-01-20 11:08:55.820331,170094718,0,0.2649294,-0.03877383,-0.165981,0.2705184,0.3384283,-10.03668,0,0,30.0688,1,1,7973,996
4906,2023-01-20 11:08:55.859756,170134144,0,0.2272474,-0.05390169,-0.1846737,0.2360261,0.205543,-10.04339,0,0,30.06889,1,1,7973,996
4908,2023-01-20 11:08:55.899851,170174240,0,0.1275321,-0.05758975,-0.1786592,0.249744,0.1529882,-10.02554,0,0,30.06944,1,1,7973,996
4938,2023-01-20 11:08:55.939792,170214182,0,-0.005447826,-0.1021638,-0.1616802,0.3406223,0.04614912,-10.0119,0,0,30.06998,1,1,7973,996
4939,2023-01-20 11:08:55.979792,170254183,0,-0.1344117,-0.1374682,-0.1759435,0.3746029,-0.03839086,-9.703098,0,0,30.07068,1,1,7973,996
4946,2023-01-20 11:08:56.020216,170294607,0,-0.06341298,0.06808112,-0.197716,0.1762585,0.2026281,-9.501766,0,0,30.07191,1,1,7973,996
4971,2023-01-20 11:08:56.059785,170334173,0,0.02859759,0.1144255,-0.1883098,0.1185665,0.202872,-9.355084,0,0,30.07371,1,1,7973,996
4973,2023-01-20 11:08:56.099786,170374171,0,0.106853,0.05569243,-0.154491,0.3104605,0.267989,-9.411281,0,0,30.07518,1,1,7973,996
5001,2023-01-20 11:08:56.139788,170414171,0,0.1448531,-0.04489239,-0.08659189,0.529835,0.2323928,-9.654931,0,0,30.07609,1,1,7973,996
5003,2023-01-20 11:08:56.179790,170454170,0,0.06795307,-0.2060014,0.02288186,0.4701394,0.1644819,-9.658872,0,0,30.07664,1,1,7973,996
5011,2023-01-20 11:08:56.220242,170494621,0,-0.0310413,-0.1618877,0.10412,0.2943129,0.08729697,-9.700935,0,0,30.07745,1,1,7973,996
5036,2023-01-20 11:08:56.259780,170534160,0,-0.05492002,-0.0111015,0.1396505,0.2347399,0.08009122,-9.874128,0,0,30.07837,1,1,7973,996
5038,2023-01-20 11:08:56.299789,170574170,0,-0.03894417,0.01145149,0.1808068,0.2841016,0.08982213,-9.865387,0,0,30.07928,1,1,7973,996
5066,2023-01-20 11:08:56.339787,170614169,0,-0.02520331,-0.05753708,0.2312757,0.3027634,0.1213622,-9.966683,0,0,30.08122,1,1,7974,996
5067,2023-01-20 11:08:56.379822,170654205,0,-0.01868721,-0.07312419,0.2670773,0.4036889,0.08701188,-10.04465,0,0,30.08236,1,1,7974,996
5074,2023-01-20 11:08:56.420202,170694591,0,-0.1156632,-0.161183,0.27658,0.5344852,0.02588108,-10.23471,0,0,30.08322,1,1,7974,996
5101,2023-01-20 11:08:56.459760,170734162,0,-0.1500606,-0.177287,0.2619151,0.5213259,-0.02214013,-10.25939,0,0,30.08346,1,1,7974,996
5102,2023-01-20 11:08:56.499766,170774181,0,-0.1444179,-0.0239571,0.2336216,0.2977983,-0.01100078,-10.34288,0,0,30.08439,1,1,7974,996
5131,2023-01-20 11:08:56.539775,170814203,0,-0.04156749,0.1496272,0.2185203,0.2047482,0.04951888,-10.34151,0,0,30.08549,1,1,7974,996
5132,2023-01-20 11:08:56.579732,170854173,0,0.03930171,0.2387277,0.1833235,0.2731028,0.1136276,-10.26128,0,0,30.08681,1,1,7974,996
5139,2023-01-20 11:08:56.620133,170894573,0,0.0964333,0.1922881,0.1218263,0.435035,0.106526,-10.22884,0,0,30.08823,1,1,7974,996
5164,2023-01-20 11:08:56.659726,170934153,0,0.09130631,0.2069002,0.0695961,0.3494913,0.004109646,-10.12618,0,0,30.08979,1,1,7974,996
5165,2023-01-20 11:08:56.699794,170974207,0,0.1225098,0.2204731,0.006610614,0.3375502,-0.1051017,-10.0424,0,0,30.09166,1,1,7974,996
5194,2023-01-20 11:08:56.739779,171014179,0,0.07832619,0.1809356,-0.01686672,0.3171517,-0.1625425,-10.0414,0,0,30.09291,1,1,7974,996
5195,2023-01-20 11:08:56.779766,171054152,0,0.0996019,0.09167581,-0.02357037,0.3374625,-0.05965155,-10.05882,0,0,30.09419,1,1,7974,996
5204,2023-01-20 11:08:56.820328,171094709,0,0.08029527,-0.04855205,-0.04272205,0.4215666,-0.0394195,-10.09222,0,0,30.09603,1,1,7974,996
5229,2023-01-20 11:08:56.859823,171134207,0,0.1369147,-0.09199015,-0.06710184,0.3992731,0.06505539,-10.0704,0,0,30.09739,1,1,7974,996
5230,2023-01-20 11:08:56.899810,171174197,0,0.1329494,-0.02899247,-0.08301402,0.3250338,0.02739908,-10.04932,0,0,30.09899,1,1,7974,996
5261,2023-01-20 11:08:56.939766,171214156,0,0.01552254,-0.03922644,-0.08718957,0.4093674,-0.09871127,-10.12299,0,0,30.10077,1,1,7974,996
5262,2023-01-20 11:08:56.979779,171254172,0,-0.06271203,-0.1114348,-0.08756281,0.4344391,-0.1714898,-10.13168,0,0,30.10246,1,1,7974,996
5269,2023-01-20 11:08:57.020252,171294645,0,-0.04375321,-0.1733703,-0.06043434,0.2357884,-0.1925844,-10.05386,0,0,30.10481,1,1,7974,996
5294,2023-01-20 11:08:57.059786,171334176,0,0.04564711,-0.04572478,-0.04182237,0.04702821,-0.2030437,-9.844585,0,0,30.10807,1,1,7974,996
5296,2023-01-20 11:08:57.099764,171374151,0,0.173549,0.09902495,-0.01736807,0.02201184,-0.0941595,-9.790133,0,0,30.1116,1,1,7974,996
5325,2023-01-20 11:08:57.139778,171414162,0,0.2134789,0.1033989,0.004517406,0.1615594,-0.1269492,-9.57613,0,0,30.11459,1,1,7974,996
5327,2023-01-20 11:08:57.179834,171454215,0,0.05246318,0.00564257,0.01790285,0.2825265,-0.2696026,-9.473324,0,0,30.1167,1,1,7974,996
5335,2023-01-20 11:08:57.220206,171494585,0,0.04912566,-0.01684892,0.03257399,0.2964343,-0.1509117,-9.458282,0,0,30.11879,1,1,7974,996
5360,2023-01-20 11:08:57.259780,171534158,0,0.09877545,0.06698861,-0.0008291774,0.3306043,-0.1067579,-9.500032,0,0,30.12117,1,1,7974,996
5361,2023-01-20 11:08:57.299768,171574145,0,0.1341895,0.2202799,0.003830345,0.2567855,-0.07705995,-9.659769,0,0,30.12353,1,1,7974,996
5390,2023-01-20 11:08:57.339842,171614218,0,0.1122451,0.2168696,0.007048011,0.395923,-0.1430465,-9.873956,0,0,30.12646,1,1,7973,996
5391,2023-01-20 11:08:57.379793,171654168,0,0.1127049,-0.05256305,0.0155329,0.5823922,-0.1524123,-10.01334,0,0,30.12986,1,1,7973,996
5398,2023-01-20 11:08:57.420209,171694591,0,0.2380001,-0.1617774,0.01795596,0.5113913,-0.04237466,-9.941686,0,0,30.13356,1,1,7973,996
5425,2023-01-20 11:08:57.459754,171734150,0,0.1668312,-0.245047,0.005738938,0.3983874,-0.1117237,-10.21904,0,0,30.13805,1,1,7973,996
5426,2023-01-20 11:08:57.499756,171774167,0,-0.02433947,-0.1408291,0.04149567,0.172343,-0.2904299,-10.45874,0,0,30.1427,1,1,7973,996
5455,2023-01-20 11:08:57.539742,171814167,0,0.02416074,0.03833316,0.08877975,0.1063917,-0.1346518,-10.42795,0,0,30.14731,1,1,7973,996
5456,2023-01-20 11:08:57.579739,171854179,0,0.01951006,0.03430574,0.1197896,0.2557867,-0.1608155,-10.43393,0,0,30.1517,1,1,7973,996
5463,2023-01-20 11:08:57.620145,171894585,0,-0.1184583,0.008218809,0.1183551,0.3754388,-0.3225621,-10.5496,0,0,30.15496,1,1,7973,996
5488,2023-01-20 11:08:57.659762,171934189,0,-0.08922096,-0.1168164,0.1325943,0.406952,-0.1927445,-10.42641,0,0,30.15737,1,1,7973,996
5489,2023-01-20 11:08:57.699738,171974152,0,0.003526646,-0.001790298,0.09211025,0.3530497,-0.2052835,-10.39057,0,0,30.15945,1,1,7973,996
5518,2023-01-20 11:08:57.739763,172014164,0,0.0282773,-0.1226771,0.1061077,0.5188017,-0.2428094,-10.36685,0,0,30.16173,1,1,7973,996
5519,2023-01-20 11:08:57.779782,172054170,0,0.01185051,-0.2388573,0.1531851,0.4865244,-0.3180518,-10.25784,0,0,30.16442,1,1,7973,996
5528,2023-01-20 11:08:57.820340,172094722,0,-0.1631439,-0.1086329,0.1778039,0.3206934,-0.590117,-10.44261,0,0,30.16745,1,1,7973,996
5553,2023-01-20 11:08:57.859763,172134147,0,-0.137475,-0.122285,0.1937264,0.4166806,-0.4852378,-10.42285,0,0,30.17013,1,1,7973,996
5554,2023-01-20 11:08:57.899795,172174181,0,-0.1053196,0.04812365,0.1571114,0.36287,-0.4954305,-10.36587,0,0,30.17219,1,1,7973,996
5585,2023-01-20 11:08:57.939796,172214184,0,0.0806777,0.1754899,0.1329132,0.5263827,-0.3025717,-10.02157,0,0,30.17472,1,1,7973,996
5588,2023-01-20 11:08:57.979843,172254233,0,0.2612824,-0.05364465,0.04068103,0.7409697,-0.3012408,-9.720764,0,0,30.17731,1,1,7973,996
5595,2023-01-20 11:08:58.020174,172294564,0,0.3661101,-0.3024977,-0.009947425,0.8046636,-0.2110169,-9.595727,0,0,30.18005,1,1,7973,996
5620,2023-01-20 11:08:58.059762,172334151,0,0.3265193,-0.4550225,-0.04564917,0.8177238,-0.2743165,-9.708244,0,0,30.18229,1,1,7973,996
5621,2023-01-20 11:08:58.099779,172374167,0,0.3393003,-0.4831277,-0.05938875,0.6775181,-0.2305805,-9.721012,0,0,30.18447,1,1,7973,996
5650,2023-01-20 11:08:58.139833,172414220,0,0.2984218,-0.4506017,-0.07173026,0.663049,-0.2618024,-9.82734,0,0,30.18672,1,1,7973,996
5652,2023-01-20 11:08:58.179786,172454172,0,0.1710914,-0.2947192,-0.08073202,0.6225529,-0.3107616,-9.707957,0,0,30.18906,1,1,7973,996
5660,2023-01-20 11:08:58.220161,172494546,0,0.007105018,-0.2670818,-0.08548563,0.6123782,-0.299157,-9.491386,0,0,30.19187,1,1,7973,996
5685,2023-01-20 11:08:58.259777,172534162,0,-0.2764614,-0.3370948,-0.06053697,0.6826466,-0.4296147,-9.376411,0,0,30.19437,1,1,7973,996
5686,2023-01-20 11:08:58.299790,172574175,0,-0.2765353,-0.3002425,-0.09791671,0.6759635,-0.4571373,-9.106948,0,0,30.19718,1,1,7973,996
5715,2023-01-20 11:08:58.339783,172614169,0,-0.02868389,-0.1758487,-0.1435438,0.6182473,-0.1728995,-8.95365,0,0,30.1998,1,1,7973,996
5716,2023-01-20 11:08:58.379774,172654160,0,-0.140738,-0.1025871,-0.1830631,0.4912608,-0.3220127,-9.009576,0,0,30.20217,1,1,7973,996
5723,2023-01-20 11:08:58.420190,172694583,0,-0.1869659,-0.09569694,-0.20041,0.5591846,-0.3486136,-8.971426,0,0,30.20422,1,1,7973,996
5750,2023-01-20 11:08:58.459766,172734173,0,-0.02613614,0.05532648,-0.2511288,0.605319,-0.2041402,-8.864351,0,0,30.20607,1,1,7973,996
5751,2023-01-20 11:08:58.499756,172774177,0,0.04195642,0.02527555,-0.2636928,0.6208743,-0.2470368,-8.875907,0,0,30.20768,1,1,7973,996
5780,2023-01-20 11:08:58.539720,172814155,0,-0.04511543,-0.08040655,-0.2514685,0.6386982,-0.1702687,-8.952844,0,0,30.20958,1,1,7973,996
5781,2023-01-20 11:08:58.579769,172854218,0,-0.1632832,-0.1593709,-0.2263263,0.657407,-0.3987082,-9.009521,0,0,30.21148,1,1,7973,996
5788,2023-01-20 11:08:58.620098,172894547,0,-0.1367691,-0.009312284,-0.1973872,0.625916,-0.2391496,-8.911433,0,0,30.21369,1,1,7973,996
5813,2023-01-20 11:08:58.659718,172934152,0,-0.1052662,0.1010489,-0.1310338,0.6008862,-0.3055543,-8.843002,0,0,30.21629,1,1,7973,996
5814,2023-01-20 11:08:58.699757,172974177,0,-0.1171476,0.1065282,-0.1056836,0.7682183,-0.2503943,-8.934158,0,0,30.2191,1,1,7973,996
5843,2023-01-20 11:08:58.739756,173014161,0,-0.1487995,0.06458954,-0.05746274,0.7332627,-0.3264228,-9.084014,0,0,30.22231,1,1,7973,996
5844,2023-01-20 11:08:58.779785,173054175,0,-0.1650547,0.06839505,-0.01700075,0.6907638,-0.2456573,-9.645716,0,0,30.22596,1,1,7973,996
5853,2023-01-20 11:08:58.820286,173094672,0,-0.1453864,0.0678267,0.003662446,0.7371128,-0.3355697,-10.09315,0,0,30.22919,1,1,7973,996
5878,2023-01-20 11:08:58.859821,173134214,0,-0.08069066,0.02687396,0.03727583,0.7902803,-0.2126739,-9.999176,0,0,30.23277,1,1,7973,996
5879,2023-01-20 11:08:58.899795,173174194,0,-0.1429817,0.04174564,0.04226756,0.6734152,-0.3240548,-10.04329,0,0,30.23552,1,1,7973,996
5910,2023-01-20 11:08:58.939752,173214157,0,-0.2189131,0.1083261,0.07062456,0.5983495,-0.3769538,-10.05842,0,0,30.23821,1,1,7973,996
5911,2023-01-20 11:08:58.979785,173254197,0,-0.2804081,0.190265,0.0886801,0.664781,-0.2712552,-9.815785,0,0,30.24137,1,1,7973,996
5918,2023-01-20 11:08:59.018341,173294593,0,-0.3458721,0.3293181,0.08359754,0.5583746,-0.2658617,-9.666045,0,0,30.24434,1,1,7973,996
5944,2023-01-20 11:08:59.054310,173334164,0,-0.2975416,0.3834654,0.107648,0.629865,-0.2273111,-9.458514,0,0,30.24688,1,1,7973,996
5946,2023-01-20 11:08:59.090665,173374160,0,-0.3019148,0.3552364,0.127862,0.6540316,-0.1469182,-9.026617,0,0,30.24899,1,1,7973,996
5975,2023-01-20 11:08:59.127065,173414205,0,-0.2159266,0.2862912,0.1167347,0.6282679,0.0009173499,-9.068117,0,0,30.25112,1,1,7973,996
5977,2023-01-20 11:08:59.163399,173454177,0,-0.2555675,0.1515404,0.125817,0.5329804,-0.005567048,-9.212278,0,0,30.25328,1,1,7973,996
5984,2023-01-20 11:08:59.200209,173494653,0,-0.4230498,-0.08310466,0.1378905,0.6394814,-0.07257322,-9.324794,0,0,30.25478,1,1,7973,996
6010,2023-01-20 11:08:59.239708,173534151,0,-0.4537624,-0.1710477,0.1360739,0.6470692,-0.01224811,-9.420169,0,0,30.25549,1,1,7973,996
6011,2023-01-20 11:08:59.279775,173574217,0,-0.3180379,-0.08819705,0.1030876,0.6052612,0.03691811,-9.535766,0,0,30.257,1,1,7973,996
6040,2023-01-20 11:08:59.319725,173614165,0,-0.1854265,-0.164127,0.02625461,0.7069618,-0.05037493,-9.477275,0,0,30.25893,1,1,7973,996
6041,2023-01-20 11:08:59.359729,173654168,0,-0.04202628,-0.3442938,-0.03451663,0.6455866,0.01738032,-9.385063,0,0,30.26122,1,1,7973,996
6047,2023-01-20 11:08:59.400231,173694646,0,-0.1391942,-0.5515242,-0.03367142,0.573384,0.06466886,-9.542681,0,0,30.26233,1,1,7973,996
6075,2023-01-20 11:08:59.444156,173734176,0,-0.08954578,-0.557084,-0.06189374,0.631661,0.07591601,-9.667365,0,0,30.26365,1,1,7973,996
6076,2023-01-20 11:08:59.488602,173774175,0,-0.03614946,-0.4052258,-0.09339196,0.5226816,0.0845067,-9.748534,0,0,30.26541,1,1,7973,996
6105,2023-01-20 11:08:59.533043,173814170,0,-0.1264937,-0.3515425,-0.1319565,0.5237582,0.03021145,-9.774387,0,0,30.26706,1,1,7973,996
6106,2023-01-20 11:08:59.577556,173854230,0,-0.2622955,-0.3347212,-0.1328589,0.5235163,0.01971378,-9.739492,0,0,30.268,1,1,7973,996
6112,2023-01-20 11:08:59.618383,173894651,0,-0.3046331,-0.224561,-0.1548527,0.539131,-0.03040885,-9.73732,0,0,30.26897,1,1,7973,996
6138,2023-01-20 11:08:59.654304,173934166,0,-0.1937607,-0.02649366,-0.1844485,0.4393122,0.03746075,-9.696256,0,0,30.26991,1,1,7973,996
6139,2023-01-20 11:08:59.690650,173974149,0,-0.2618607,0.1117885,-0.1785163,0.1903761,-0.04557474,-9.827501,0,0,30.27141,1,1,7973,996
6168,2023-01-20 11:08:59.727025,174014163,0,-0.3760095,-0.04252307,-0.1485093,0.4495543,-0.07237014,-9.873349,0,0,30.27374,1,1,7973,996
6169,2023-01-20 11:08:59.763400,174054178,0,-0.3324852,-0.1384661,-0.1278087,0.5746754,0.04990895,-9.873017,0,0,30.27659,1,1,7973,996
6177,2023-01-20 11:08:59.800357,174094797,0,-0.2119108,0.04571673,-0.1187957,0.4223682,0.1090094,-9.833101,0,0,30.27922,1,1,7973,996
6204,2023-01-20 11:08:59.839748,174134200,0,-0.03720318,0.2764011,-0.122812,0.3389443,0.2097623,-9.863691,0,0,30.2817,1,1,7973,996
6205,2023-01-20 11:08:59.879709,174174173,0,0.06072909,0.3062732,-0.1061186,0.4555843,0.215975,-9.812731,0,0,30.28437,1,1,7973,996
6236,2023-01-20 11:08:59.919698,174214174,0,0.02707783,0.3145474,-0.08551844,0.4502931,0.01400544,-9.765938,0,0,30.28623,1,1,7973,996
6237,2023-01-20 11:08:59.959694,174254182,0,0.06569418,0.3348158,-0.06851977,0.399512,0.1303443,-9.653152,0,0,30.28709,1,1,7973,996
6243,2023-01-20 11:09:00.000235,174294735,0,0.1439812,0.3293157,-0.05544643,0.4148814,0.2106986,-9.692936,0,0,30.28785,1,1,7973,996
6269,2023-01-20 11:09:00.039645,174334174,0,0.07870355,0.2997552,-0.02862385,0.4652035,0.06912984,-9.732066,0,0,30.28872,1,1,7973,996
6270,2023-01-20 11:09:00.079618,174374177,0,0.05910071,0.3462813,-0.006322762,0.4678036,-0.02910413,-9.719632,0,0,30.28953,1,1,7973,996
6298,2023-01-20 11:09:00.119571,174414159,0,0.004164228,0.3209919,-0.0195281,0.4342784,-0.007658856,-9.803582,0,0,30.29054,1,1,7973,996
6301,2023-01-20 11:09:00.159555,174454172,0,0.03086763,0.2695122,-0.01381351,0.3598834,0.1685563,-9.812566,0,0,30.29201,1,1,7973,996
6308,2023-01-20 11:09:00.200586,174495233,0,0.06114716,0.228511,-0.01509187,0.2974792,0.1947516,-9.838063,0,0,30.29394,1,1,7973,996
6334,2023-01-20 11:09:00.239520,174534147,0,0.09047341,0.2487194,-0.01220077,0.3152384,0.1824887,-9.752133,0,0,30.29538,1,1,7973,996
6335,2023-01-20 11:09:00.279603,174574209,0,0.1410626,0.2217121,-0.004675477,0.4955494,0.2218175,-9.567914,0,0,30.29632,1,1,7973,996
6363,2023-01-20 11:09:00.319591,174614176,0,0.1048409,0.2060563,-0.01054052,0.4433361,0.1232228,-9.528588,0,0,30.29725,1,1,7973,996
6365,2023-01-20 11:09:00.359605,174654170,0,-0.03554146,0.1647454,-0.0262106,0.2341285,0.1115978,-9.536724,0,0,30.29873,1,1,7973,996
6371,2023-01-20 11:09:00.400205,174694749,0,-0.05255949,0.06781214,-0.04965664,0.3169273,0.1663521,-9.535504,0,0,30.30089,1,1,7973,996
6399,2023-01-20 11:09:00.439615,174734180,0,0.07467829,0.1233644,-0.04442961,0.3302114,0.2778179,-9.700071,0,0,30.30337,1,1,7973,996
6400,2023-01-20 11:09:00.479614,174774201,0,0.04819396,0.2313427,-0.07105439,0.2671376,0.1505051,-9.89067,0,0,30.30545,1,1,7973,996
6430,2023-01-20 11:09:00.519557,174814166,0,-0.1198864,0.3146726,-0.07061463,0.1356758,0.02360839,-10.03953,0,0,30.30776,1,1,7973,996
6432,2023-01-20 11:09:00.559550,174854181,0,-0.1944184,0.2676696,-0.07710653,0.2649386,0.03342244,-10.06298,0,0,30.30994,1,1,7973,996
6438,2023-01-20 11:09:00.600224,174894877,0,-0.1218817,0.2001347,-0.09355321,0.4549664,0.1970285,-10.07369,0,0,30.3121,1,1,7973,996
6464,2023-01-20 11:09:00.639526,174934166,0,0.04466536,0.2123412,-0.08857255,0.4213093,0.2709235,-10.2869,0,0,30.31431,1,1,7973,996
6465,2023-01-20 11:09:00.679534,174974161,0,0.06153119,0.2586808,-0.07958537,0.3183281,0.2541026,-10.39436,0,0,30.31672,1,1,7973,996
6494,2023-01-20 11:09:00.719558,175014172,0,0.04941147,0.2653843,-0.06608024,0.3331503,0.2939782,-10.36198,0,0,30.31888,1,1,7973,996
6496,2023-01-20 11:09:00.759595,175054196,0,0.04044956,0.1124299,-0.05536569,0.5301292,0.3095342,-10.36468,0,0,30.32074,1,1,7973,996
6504,2023-01-20 11:09:00.800402,175094990,0,0.01870073,-0.02999036,-0.09895886,0.6450927,0.2043702,-10.38116,0,0,30.32264,1,1,7973,996
6530,2023-01-20 11:09:00.839561,175134159,0,0.1444478,0.02433816,-0.1158188,0.590966,0.2660244,-10.31206,0,0,30.32432,1,1,7973,996
6531,2023-01-20 11:09:00.879566,175174173,0,0.1983798,0.07604669,-0.1143856,0.4767055,0.3334988,-10.23542,0,0,30.32561,1,1,7973,996
6561,2023-01-20 11:09:00.919544,175214161,0,0.2953257,0.01870708,-0.04732295,0.4895818,0.5499842,-10.06502,0,0,30.32704,1,1,7973,996
6563,2023-01-20 11:09:00.959554,175254180,0,0.5894365,0.09469467,-0.03064656,0.5558285,0.5785269,-9.919256,0,0,30.32883,1,1,7973,996
6569,2023-01-20 11:09:01.000214,175294850,0,0.6328392,0.2789022,-0.0585428,0.4892966,0.2436525,-10.06503,0,0,30.33104,1,1,7973,996
6595,2023-01-20 11:09:01.039551,175334157,0,0.4612854,0.2258569,-0.05904804,0.554599,0.2078832,-9.989854,0,0,30.33292,1,1,7973,996
6596,2023-01-20 11:09:01.079607,175374183,0,0.4038594,0.1440645,-0.03823183,0.6611121,0.2806526,-9.75986,0,0,30.33439,1,1,7973,996
6624,2023-01-20 11:09:01.119610,175414156,0,0.3476358,0.169335,-0.01549973,0.5628198,0.288488,-9.814318,0,0,30.33625,1,1,7973,996
6627,2023-01-20 11:09:01.159664,175454179,0,0.3467423,0.2034513,-0.03457485,0.6442305,0.369661,-9.600863,0,0,30.33893,1,1,7973,996
6634,2023-01-20 11:09:01.200478,175494963,0,0.3743675,0.1907056,-0.07156323,0.5942245,0.4572558,-9.549292,0,0,30.34192,1,1,7973,996
6659,2023-01-20 11:09:01.239660,175534172,0,0.2646658,0.1165758,-0.08085683,0.7228642,0.3964466,-9.506601,0,0,30.34445,1,1,7973,996
6661,2023-01-20 11:09:01.279677,175574216,0,0.2105725,0.1110086,-0.1095324,0.7091542,0.4431343,-9.66031,0,0,30.34634,1,1,7973,996
6689,2023-01-20 11:09:01.319599,175614165,0,0.1740284,0.05151907,-0.1274167,0.8459197,0.3609628,-9.690644,0,0,30.34822,1,1,7973,996
6691,2023-01-20 11:09:01.359571,175654164,0,0.1624503,0.004401621,-0.1497795,0.7570106,0.3701473,-9.769273,0,0,30.35011,1,1,7973,996
6697,2023-01-20 11:09:01.400252,175694873,0,0.1941253,0.01592322,-0.1587226,0.6433492,0.4483725,-9.605587,0,0,30.3521,1,1,7973,996
6724,2023-01-20 11:09:01.439574,175734206,0,0.2031801,0.09524127,-0.1693076,0.4890559,0.4868738,-9.481745,0,0,30.35444,1,1,7973,996
6726,2023-01-20 11:09:01.479548,175774190,0,0.0662466,0.1020883,-0.1454944,0.6017076,0.402061,-9.314174,0,0,30.35707,1,1,7973,996
6754,2023-01-20 11:09:01.519515,175814168,0,0.08248479,0.1534854,-0.1538424,0.5386444,0.4379786,-9.341555,0,0,30.35931,1,1,7973,996
6756,2023-01-20 11:09:01.559516,175854180,0,0.0996091,0.1457189,-0.1621493,0.5768875,0.4424929,-9.42406,0,0,30.36144,1,1,7973,996
6762,2023-01-20 11:09:01.600279,175894954,0,0.1660974,0.1791852,-0.1656424,0.6237537,0.399359,-9.646038,0,0,30.36291,1,1,7973,996
6787,2023-01-20 11:09:01.639532,175934205,0,0.218529,0.04501658,-0.1760025,0.7279726,0.3782046,-9.833468,0,0,30.36416,1,1,7973,996
6789,2023-01-20 11:09:01.679487,175974158,0,0.06558179,-0.1622963,-0.1554898,0.7926707,0.2379822,-9.730933,0,0,30.36504,1,1,7973,996
6818,2023-01-20 11:09:01.719484,176014152,0,0.01724051,-0.06210924,-0.1267338,0.6679376,0.1725896,-9.683001,0,0,30.36597,1,1,7973,996
6820,2023-01-20 11:09:01.759507,176054173,0,-0.0491666,-0.006720054,-0.1346705,0.5642405,0.2217655,-9.818994,0,0,30.36714,1,1,7973,996
6828,2023-01-20 11:09:01.800415,176095079,0,-0.1447575,-0.1066839,-0.1179919,0.6230583,0.3279497,-9.880063,0,0,30.36816,1,1,7973,996
6853,2023-01-20 11:09:01.839504,176134166,0,-0.1603904,-0.08810488,-0.1303753,0.6623949,0.2650225,-9.844143,0,0,30.36963,1,1,7973,996
6855,2023-01-20 11:09:01.879530,176174191,0,-0.1649166,0.03768444,-0.1537994,0.5199784,0.30687,-10.04438,0,0,30.37036,1,1,7973,996
6885,2023-01-20 11:09:01.919514,176214173,0,-0.3221671,0.1610207,-0.1556306,0.4010157,0.228833,-10.24132,0,0,30.36978,1,1,7973,996
6887,2023-01-20 11:09:01.959565,176254223,0,-0.4680282,0.03841416,-0.1279212,0.6758752,0.1533967,-10.09948,0,0,30.36884,1,1,7973,996
6893,2023-01-20 11:09:02.000289,176294945,0,-0.3942893,-0.02316612,-0.105693,0.8300654,0.2134478,-9.923837,0,0,30.36789,1,1,7973,996
6918,2023-01-20 11:09:02.039498,176334149,0,-0.2037789,-0.06530931,-0.08735712,0.7214984,0.3613633,-9.770194,0,0,30.36672,1,1,7973,996
6920,2023-01-20 11:09:02.079519,176374165,0,-0.0668284,-0.05748522,-0.04133894,0.6035398,0.4931491,-9.69252,0,0,30.36596,1,1,7973,996
6948,2023-01-20 11:09:02.119568,176414210,0,-0.03700903,-0.1401935,0.007167435,0.6825395,0.4051742,-9.594295,0,0,30.36555,1,1,7973,996
6951,2023-01-20 11:09:02.159541,176454178,0,-0.1438034,-0.1143156,-0.007227818,0.8003648,0.184003,-9.675714,0,0,30.36555,1,1,7973,996
6958,2023-01-20 11:09:02.200488,176495120,0,-0.1144991,0.008442009,-0.03653636,0.6126717,0.2493905,-9.671305,0,0,30.3655,1,1,7973,996
6983,2023-01-20 11:09:02.239509,176534140,0,-0.06164944,0.0369341,-0.05929362,0.5467302,0.427086,-9.758366,0,0,30.36583,1,1,7973,996
6985,2023-01-20 11:09:02.279586,176574215,0,-0.02102089,-0.02757083,-0.07263653,0.5794122,0.3783319,-9.813853,0,0,30.36702,1,1,7973,996
7013,2023-01-20 11:09:02.319549,176614177,0,0.0002068264,-0.08884043,-0.07146864,0.5940931,0.3158025,-9.68413,0,0,30.36855,1,1,7973,996
7015,2023-01-20 11:09:02.359539,176654165,0,0.09595261,-0.05970971,-0.07873037,0.6370642,0.2842811,-9.76422,0,0,30.37068,1,1,7973,996
7021,2023-01-20 11:09:02.400209,176694834,0,0.2028464,-0.009038796,-0.09824438,0.5466242,0.4097999,-9.958785,0,0,30.37278,1,1,7973,996
7048,2023-01-20 11:09:02.439564,176734208,0,0.1698457,-0.01833396,-0.0989442,0.4750486,0.4196365,-10.25025,0,0,30.37527,1,1,7973,996
7050,2023-01-20 11:09:02.479529,176774193,0,0.1291414,-0.009919843,-0.07880571,0.4187034,0.4874241,-10.27556,0,0,30.37752,1,1,7973,996
7078,2023-01-20 11:09:02.519495,176814179,0,0.08782915,0.002519387,-0.06033287,0.3927557,0.4836846,-10.18792,0,0,30.3795,1,1,7973,996
7080,2023-01-20 11:09:02.559484,176854187,0,0.06693013,-0.06614748,-0.059063,0.5066265,0.4228589,-10.0544,0,0,30.38156,1,1,7973,996
7086,2023-01-20 11:09:02.600264,176894987,0,0.03657661,-0.1518244,-0.07333726,0.5171663,0.3799367,-10.08175,0,0,30.38373,1,1,7973,996
7111,2023-01-20 11:09:02.639473,176934178,0,-0.04831482,-0.2398662,-0.07911156,0.5687042,0.2351894,-10.13967,0,0,30.3857,1,1,7973,996
7113,2023-01-20 11:09:02.679477,176974164,0,-0.1573831,-0.2595722,-0.08111362,0.5970201,0.1789711,-10.04155,0,0,30.3878,1,1,7973,996
7141,2023-01-20 11:09:02.719491,177014160,0,-0.07649325,-0.2788428,-0.09935827,0.6161813,0.4046924,-9.752689,0,0,30.3895,1,1,7973,996
7143,2023-01-20 11:09:02.759551,177054202,0,0.047591,-0.3687386,-0.1077882,0.6923156,0.3606836,-9.720556,0,0,30.39098,1,1,7973,996
7151,2023-01-20 11:09:02.800402,177095035,0,0.01813376,-0.3820652,-0.1140158,0.6140565,0.2266531,-10.15329,0,0,30.3919,1,1,7973,996
7176,2023-01-20 11:09:02.839516,177134151,0,0.07089212,-0.2939934,-0.1097252,0.4972323,0.3823019,-10.03467,0,0,30.39294,1,1,7973,996
7178,2023-01-20 11:09:02.879552,177174189,0,0.1445627,-0.3041158,-0.1040789,0.6145907,0.4316378,-9.933261,0,0,30.39447,1,1,7973,996
7208,2023-01-20 11:09:02.919577,177214215,0,0.06576698,-0.3400773,-0.07512284,0.6726907,0.2620037,-10.15806,0,0,30.39608,1,1,7973,996
7210,2023-01-20 11:09:02.959537,177254177,0,0.0004985128,-0.4174928,-0.04275699,0.6881666,0.3038882,-10.30908,0,0,30.39748,1,1,7973,996
7216,2023-01-20 11:09:03.000234,177294876,0,-0.02156057,-0.5280058,0.01360417,0.7597436,0.3828999,-10.26594,0,0,30.39852,1,1,7973,996
7241,2023-01-20 11:09:03.039532,177334179,0,-0.0424665,-0.4352159,0.04926816,0.524752,0.406478,-10.25068,0,0,30.39935,1,1,7973,996
7243,2023-01-20 11:09:03.079570,177374221,0,0.08012491,-0.2437036,0.04158467,0.4632025,0.6162027,-10.11958,0,0,30.40074,1,1,7973,996
7271,2023-01-20 11:09:03.119504,177414160,0,0.1598965,-0.2024733,0.03151309,0.5519698,0.6570095,-9.85294,0,0,30.40181,1,1,7973,996
7274,2023-01-20 11:09:03.159516,177454176,0,0.1269132,-0.142394,0.04012974,0.4404587,0.6170523,-9.589028,0,0,30.40252,1,1,7973,996
7281,2023-01-20 11:09:03.200483,177495148,0,0.00466671,-0.2017742,0.06667632,0.6046525,0.5035215,-9.395092,0,0,30.40347,1,1,7973,996
7306,2023-01-20 11:09:03.239551,177534218,0,-0.04514595,-0.09466635,0.04023383,0.5895866,0.377883,-9.426872,0,0,30.40483,1,1,7973,996
7308,2023-01-20 11:09:03.279506,177574175,0,-0.1053463,-0.1025627,0.01904731,0.5452075,0.4620621,-9.774568,0,0,30.40597,1,1,7973,996
7336,2023-01-20 11:09:03.319490,177614160,0,-0.06745329,-0.1120833,0.05604722,0.4883821,0.650739,-9.928897,0,0,30.40678,1,1,7973,996
7338,2023-01-20 11:09:03.359504,177654176,0,-0.02525947,0.04728623,0.06982578,0.4503189,0.420829,-10.13067,0,0,30.40794,1,1,7973,996
7344,2023-01-20 11:09:03.400279,177694953,0,-0.1242189,0.09118828,0.1103005,0.4730634,0.4266528,-10.21034,0,0,30.40842,1,1,7973,996
7371,2023-01-20 11:09:03.439481,177734155,0,-0.2266984,0.08555168,0.1216747,0.5807729,0.4431967,-10.04946,0,0,30.40826,1,1,7973,996
7373,2023-01-20 11:09:03.479515,177774188,0,-0.1448806,0.1763495,0.110503,0.5088489,0.4735111,-10.04999,0,0,30.40818,1,1,7973,996
7401,2023-01-20 11:09:03.519489,177814162,0,-0.07361972,0.1051936,0.09626525,0.6244725,0.6075296,-9.804368,0,0,30.40758,1,1,7973,996
7403,2023-01-20 11:09:03.559575,177854247,0,-0.1133193,0.1284417,0.07793525,0.6844618,0.4136572,-9.551405,0,0,30.40705,1,1,7973,996
7409,2023-01-20 11:09:03.600291,177894963,0,-0.08139638,0.157849,0.03364514,0.544393,0.4436788,-9.454528,0,0,30.40619,1,1,7973,996
7434,2023-01-20 11:09:03.639500,177934167,0,-0.09076539,0.1174745,0.01558903,0.6006023,0.331394,-9.473646,0,0,30.40551,1,1,7973,996
7436,2023-01-20 11:09:03.679500,177974162,0,-0.2050182,0.09393363,0.04054596,0.6782157,0.2948325,-9.465866,0,0,30.40506,1,1,7973,996
7465,2023-01-20 11:09:03.719559,178014216,0,-0.2234379,0.112392,0.07198743,0.7449703,0.129431,-9.527694,0,0,30.40444,1,1,7973,996
7467,2023-01-20 11:09:03.759518,178054170,0,-0.2861725,0.09048545,0.0692436,0.6328592,0.1099335,-9.472667,0,0,30.4044,1,1,7973,996
7475,2023-01-20 11:09:03.800394,178095041,0,-0.3151903,0.1029753,0.07681268,0.6738148,0.06575986,-9.300717,0,0,30.40489,1,1,7973,996
7500,2023-01-20 11:09:03.839499,178134151,0,-0.1415014,0.1593657,0.04617106,0.5430937,0.2339571,-9.233045,0,0,30.40573,1,1,7973,996
7502,2023-01-20 11:09:03.879572,178174229,0,0.04629038,0.07603551,0.03631194,0.5419697,0.4362963,-9.29508,0,0,30.40714,1,1,7973,996
7532,2023-01-20 11:09:03.919503,178214165,0,-0.05228207,-0.1124236,0.0433757,0.8181005,0.07219311,-9.495222,0,0,30.40852,1,1,7973,996
7534,2023-01-20 11:09:03.959518,178254185,0,-0.04938825,-0.1232722,0.02928553,0.6224203,0.001778105,-9.653103,0,0,30.40959,1,1,7973,996
7540,2023-01-20 11:09:04.000266,178294938,0,-0.0463136,-0.2114547,0.03174103,0.5985152,0.2333251,-9.635538,0,0,30.41026,1,1,7973,996
7565,2023-01-20 11:09:04.039507,178334182,0,-0.00742985,-0.2210133,0.01336114,0.6096765,0.2344794,-9.730847,0,0,30.41139,1,1,7973,996
7567,2023-01-20 11:09:04.079506,178374185,0,0.1148433,0.08000249,-0.02987181,0.4859088,0.1937185,-9.912751,0,0,30.41197,1,1,7973,996
7596,2023-01-20 11:09:04.119491,178414173,0,0.2880654,0.09535196,-0.06176031,0.5544732,0.2752874,-9.825779,0,0,30.41169,1,1,7973,996
7598,2023-01-20 11:09:04.159486,178454171,0,0.2486573,-0.08084094,-0.09115651,0.6747494,0.1590251,-9.742046,0,0,30.41163,1,1,7973,996
7606,2023-01-20 11:09:04.200470,178495159,0,0.1890901,-0.01176916,-0.1256309,0.5807199,0.0861042,-9.748827,0,0,30.41159,1,1,7973,996
7631,2023-01-20 11:09:04.239470,178534150,0,0.1140047,0.08067893,-0.1394701,0.4579692,0.1227467,-9.86667,0,0,30.41168,1,1,7973,996
7633,2023-01-20 11:09:04.279500,178574170,0,0.01182137,0.1007374,-0.14734,0.5501583,0.06435838,-9.781898,0,0,30.41253,1,1,7973,996
7661,2023-01-20 11:09:04.319511,178614172,0,0.008149491,0.1773928,-0.1620462,0.4593082,0.05007682,-9.794615,0,0,30.41349,1,1,7973,996
7663,2023-01-20 11:09:04.359554,178654205,0,-0.105164,0.1403407,-0.1604397,0.4278749,0.02552163,-9.717448,0,0,30.41453,1,1,7973,996
7669,2023-01-20 11:09:04.400205,178694847,0,-0.1236665,0.04201034,-0.1698425,0.4778327,0.1072838,-9.6766,0,0,30.41565,1,1,7973,996
7696,2023-01-20 11:09:04.439510,178734158,0,0.008969653,0.07584639,-0.1788563,0.4294982,0.166988,-9.680045,0,0,30.41707,1,1,7973,996
7698,2023-01-20 11:09:04.479530,178774185,0,-0.009361455,0.09129583,-0.1924663,0.3507665,0.1793315,-9.686245,0,0,30.41806,1,1,7973,996
7726,2023-01-20 11:09:04.519558,178814219,0,-0.05496598,0.05052628,-0.2022201,0.3693009,0.2116511,-9.822605,0,0,30.41916,1,1,7973,996
7728,2023-01-20 11:09:04.559512,178854180,0,-0.09473259,-0.04165146,-0.2018756,0.5637069,0.1473773,-9.778674,0,0,30.42099,1,1,7973,996
7734,2023-01-20 11:09:04.600263,178894937,0,-0.06699678,-0.0773668,-0.1817732,0.5663742,0.120714,-9.845698,0,0,30.42311,1,1,7973,996
7759,2023-01-20 11:09:04.639491,178934155,0,-0.0526358,-0.02352168,-0.1770519,0.5415248,0.1049107,-9.83146,0,0,30.42553,1,1,7973,996
7761,2023-01-20 11:09:04.679561,178974216,0,-0.04896523,0.03224149,-0.1759177,0.4978625,0.1165748,-9.988143,0,0,30.42868,1,1,7973,996
7789,2023-01-20 11:09:04.719524,179014169,0,0.06291258,0.0599593,-0.1593844,0.4797589,0.2719294,-9.916284,0,0,30.43185,1,1,7973,996
7790,2023-01-20 11:09:04.759528,179054163,0,0.1090864,0.1354929,-0.1355398,0.4101374,0.1960089,-9.939502,0,0,30.43476,1,1,7973,996
7799,2023-01-20 11:09:04.800398,179095023,0,-0.01915068,0.2976706,-0.1058521,0.3213688,0.04391628,-10.01779,0,0,30.43767,1,1,7973,996
7824,2023-01-20 11:09:04.839571,179134211,0,-0.1728394,0.3289239,-0.04787254,0.3969318,0.07445389,-9.874314,0,0,30.44,1,1,7973,996
7826,2023-01-20 11:09:04.879529,179174183,0,-0.3194821,0.3042065,-0.0004088484,0.5051311,0.08011752,-9.748329,0,0,30.4424,1,1,7973,996
7856,2023-01-20 11:09:04.919511,179214180,0,-0.2980239,0.2949527,0.01768927,0.6644388,0.1579585,-9.451945,0,0,30.44479,1,1,7973,996
7857,2023-01-20 11:09:04.959494,179254177,0,-0.2540054,0.3361504,0.01937288,0.702927,0.15867,-9.365211,0,0,30.44748,1,1,7973,996
7864,2023-01-20 11:09:05.000265,179294963,0,-0.1783276,0.356363,0.01536531,0.6176037,0.09550959,-9.327058,0,0,30.45071,1,1,7973,996
7889,2023-01-20 11:09:05.039481,179334170,0,-0.05080764,0.291054,0.01004011,0.4821896,0.1528522,-9.179131,0,0,30.45354,1,1,7973,996
7891,2023-01-20 11:09:05.079501,179374181,0,0.04635797,-0.05265276,0.03415965,0.6665874,0.2867512,-9.028507,0,0,30.45676,1,1,7973,996
7919,2023-01-20 11:09:05.119505,179414176,0,0.1666787,-0.5149665,0.05542145,0.959537,0.3972875,-8.883401,0,0,30.46089,1,1,7973,996
