LineNo,UTC_Approx,TimeUS,I,MagX,MagY,MagZ,OfsX,OfsY,OfsZ,MOX,MOY,MOZ,Health,S
1019,2023-01-20 11:08:47.514239,161773838,0,-214,-55,399,-236,6,-63,0,0,0,1,161773834
1136,2023-01-20 11:08:47.627383,161890090,0,-214,-54,397,-236,6,-63,0,0,0,1,161890086
1398,2023-01-20 11:08:47.736845,161993930,0,-215,-53,398,-236,6,-63,0,0,0,1,161993926
1818,2023-01-20 11:08:47.840461,162094400,0,-215,-54,398,-236,6,-63,0,0,0,1,162094396
1864,2023-01-20 11:08:47.940338,162194519,0,-214,-55,398,-236,6,-63,0,0,0,1,162194507
1912,2023-01-20 11:08:48.040091,162294415,0,-214,-53,398,-236,6,-63,0,0,0,1,162294411
1957,2023-01-20 11:08:48.140087,162394407,0,-216,-53,397,-236,6,-63,0,0,0,1,162394403
2011,2023-01-20 11:08:48.240107,162494411,0,-214,-54,399,-236,6,-63,0,0,0,1,162494407
2053,2023-01-20 11:08:48.340137,162594408,0,-215,-54,398,-236,6,-63,0,0,0,1,162594404
2108,2023-01-20 11:08:48.436518,162694399,0,-215,-54,398,-236,6,-63,0,0,0,1,162694395
2167,2023-01-20 11:08:48.527489,162794413,0,-215,-53,398,-236,6,-63,0,0,0,1,162794409
2229,2023-01-20 11:08:48.620270,162894397,0,-216,-53,398,-236,6,-63,0,0,0,1,162894394
2281,2023-01-20 11:08:48.720300,162994408,0,-214,-54,398,-236,6,-63,0,0,0,1,162994405
2333,2023-01-20 11:08:48.820287,163094379,0,-213,-53,397,-236,6,-63,0,0,0,1,163094375
2391,2023-01-20 11:08:48.920372,163194463,0,-215,-55,397,-236,6,-63,0,0,0,1,163194459
2434,2023-01-20 11:08:49.020325,163294418,0,-214,-54,397,-236,6,-63,0,0,0,1,163294408
2479,2023-01-20 11:08:49.120288,163394398,0,-215,-54,398,-236,6,-63,0,0,0,1,163394395
2520,2023-01-20 11:08:49.222522,163494406,0,-215,-54,398,-236,6,-63,0,0,0,1,163494402
2561,2023-01-20 11:08:49.333555,163594404,0,-214,-55,397,-236,6,-63,0,0,0,1,163594401
2600,2023-01-20 11:08:49.440176,163694447,0,-214,-54,398,-236,6,-63,0,0,0,1,163694443
2642,2023-01-20 11:08:49.540079,163794415,0,-223,-56,408,-236,6,-63,0,0,0,1,163794411
2681,2023-01-20 11:08:49.636437,163894404,0,-226,-55,412,-236,6,-63,0,0,0,1,163894400
2720,2023-01-20 11:08:49.727461,163994401,0,-225,-56,410,-236,6,-63,0,0,0,1,163994397
2759,2023-01-20 11:08:49.820305,164094401,0,-222,-57,407,-236,6,-63,0,0,0,1,164094397
2801,2023-01-20 11:08:49.920357,164194476,0,-224,-58,407,-236,6,-63,0,0,0,1,164194472
2842,2023-01-20 11:08:50.020285,164294415,0,-222,-57,406,-236,6,-63,0,0,0,1,164294411
2882,2023-01-20 11:08:50.120360,164394453,0,-223,-57,405,-236,6,-63,0,0,0,1,164394450
2923,2023-01-20 11:08:50.220338,164494409,0,-222,-56,405,-236,6,-63,0,0,0,1,164494405
2962,2023-01-20 11:08:50.320287,164594399,0,-223,-57,406,-236,6,-63,0,0,0,1,164594395
3002,2023-01-20 11:08:50.420249,164694403,0,-222,-57,406,-236,6,-63,0,0,0,1,164694399
3045,2023-01-20 11:08:50.520260,164794461,0,-223,-58,408,-236,6,-63,0,0,0,1,164794457
3084,2023-01-20 11:08:50.620178,164894405,0,-230,-58,417,-236,6,-63,0,0,0,1,164894390
3123,2023-01-20 11:08:50.720235,164994404,0,-248,-56,444,-236,6,-63,0,0,0,1,164994401
3161,2023-01-20 11:08:50.820275,165094411,0,-240,-55,429,-236,6,-63,0,0,0,1,165094407
3202,2023-01-20 11:08:50.920228,165194428,0,-235,-56,424,-236,6,-63,0,0,0,1,165194424
3243,2023-01-20 11:08:51.020170,165294419,0,-232,-53,423,-236,6,-63,0,0,0,1,165294415
3282,2023-01-20 11:08:51.120177,165394411,0,-236,-57,421,-236,6,-63,0,0,0,1,165394407
3324,2023-01-20 11:08:51.220187,165494419,0,-232,-58,419,-236,6,-63,0,0,0,1,165494415
3362,2023-01-20 11:08:51.320109,165594385,0,-234,-54,423,-236,6,-63,0,0,0,1,165594381
3402,2023-01-20 11:08:51.420092,165694406,0,-232,-55,422,-236,6,-63,0,0,0,1,165694403
3442,2023-01-20 11:08:51.520133,165794464,0,-235,-57,425,-236,6,-63,0,0,0,1,165794460
3483,2023-01-20 11:08:51.620057,165894400,0,-232,-53,421,-236,6,-63,0,0,0,1,165894396
3521,2023-01-20 11:08:51.720070,165994406,0,-231,-57,420,-236,6,-63,0,0,0,1,165994403
3561,2023-01-20 11:08:51.820123,166094454,0,-233,-55,423,-236,6,-63,0,0,0,1,166094450
3601,2023-01-20 11:08:51.920088,166194422,0,-235,-56,425,-236,6,-63,0,0,0,1,166194418
3643,2023-01-20 11:08:52.020077,166294412,0,-234,-56,421,-236,6,-63,0,0,0,1,166294408
3680,2023-01-20 11:08:52.120077,166394405,0,-238,-58,423,-236,6,-63,0,0,0,1,166394401
3714,2023-01-20 11:08:52.220093,166494415,0,-234,-56,422,-236,6,-63,0,0,0,1,166494412
3745,2023-01-20 11:08:52.320089,166594414,0,-234,-54,422,-236,6,-63,0,0,0,1,166594410
3777,2023-01-20 11:08:52.420077,166694409,0,-233,-55,423,-236,6,-63,0,0,0,1,166694405
3810,2023-01-20 11:08:52.520069,166794427,0,-233,-55,420,-236,6,-63,0,0,0,1,166794424
3842,2023-01-20 11:08:52.620029,166894401,0,-234,-55,423,-236,6,-63,0,0,0,1,166894397
3873,2023-01-20 11:08:52.720068,166994406,0,-238,-56,425,-236,6,-63,0,0,0,1,166994402
3905,2023-01-20 11:08:52.820148,167094460,0,-235,-53,422,-236,6,-63,0,0,0,1,167094456
3938,2023-01-20 11:08:52.920123,167194433,0,-233,-57,422,-236,6,-63,0,0,0,1,167194429
3972,2023-01-20 11:08:53.020105,167294420,0,-229,-53,420,-236,6,-63,0,0,0,1,167294416
4003,2023-01-20 11:08:53.120105,167394451,0,-234,-53,421,-236,6,-63,0,0,0,1,167394447
4037,2023-01-20 11:08:53.220090,167494459,0,-236,-57,424,-236,6,-63,0,0,0,1,167494455
4068,2023-01-20 11:08:53.320108,167594467,0,-239,-56,430,-236,6,-63,0,0,0,1,167594463
4100,2023-01-20 11:08:53.420141,167694500,0,-274,-53,476,-236,6,-63,0,0,0,1,167694497
4133,2023-01-20 11:08:53.520080,167794480,0,-322,-53,535,-236,6,-63,0,0,0,1,167794474
4165,2023-01-20 11:08:53.620029,167894455,0,-340,-39,575,-236,6,-63,0,0,0,1,167894451
4196,2023-01-20 11:08:53.720107,167994501,0,-381,-49,623,-236,6,-63,0,0,0,1,167994497
4228,2023-01-20 11:08:53.820086,168094457,0,-418,-41,690,-236,6,-63,0,0,0,1,168094453
4261,2023-01-20 11:08:53.920088,168194476,0,-469,-47,737,-236,6,-63,0,0,0,1,168194469
4296,2023-01-20 11:08:54.020074,168294478,0,-511,-40,810,-236,6,-63,0,0,0,1,168294474
4328,2023-01-20 11:08:54.120051,168394468,0,-542,-24,827,-236,6,-63,0,0,0,1,168394456
4362,2023-01-20 11:08:54.220029,168494451,0,-498,-35,775,-236,6,-63,0,0,0,1,168494448
4393,2023-01-20 11:08:54.320050,168594448,0,-452,-36,719,-236,6,-63,0,0,0,1,168594444
4425,2023-01-20 11:08:54.420076,168694461,0,-428,-42,709,-236,6,-63,0,0,0,1,168694457
4458,2023-01-20 11:08:54.520058,168794481,0,-451,-45,733,-236,6,-63,0,0,0,1,168794477
4490,2023-01-20 11:08:54.620018,168894468,0,-475,-43,768,-236,6,-63,0,0,0,1,168894465
4521,2023-01-20 11:08:54.720022,168994455,0,-467,-57,759,-236,6,-63,0,0,0,1,168994451
4553,2023-01-20 11:08:54.820045,169094463,0,-443,-50,716,-236,6,-63,0,0,0,1,169094460
4586,2023-01-20 11:08:54.920078,169194485,0,-454,-66,738,-236,6,-63,0,0,0,1,169194481
4620,2023-01-20 11:08:55.020084,169294480,0,-475,-57,743,-236,6,-63,0,0,0,1,169294477
4651,2023-01-20 11:08:55.120069,169394455,0,-487,-58,756,-236,6,-63,0,0,0,1,169394452
4685,2023-01-20 11:08:55.220072,169494451,0,-490,-57,753,-236,6,-63,0,0,0,1,169494447
4716,2023-01-20 11:08:55.320075,169594459,0,-494,-54,751,-236,6,-63,0,0,0,1,169594455
4748,2023-01-20 11:08:55.420113,169694507,0,-531,-55,789,-236,6,-63,0,0,0,1,169694503
4783,2023-01-20 11:08:55.520050,169794472,0,-509,-61,786,-236,6,-63,0,0,0,1,169794469
4815,2023-01-20 11:08:55.620017,169894455,0,-502,-61,775,-236,6,-63,0,0,0,1,169894451
4846,2023-01-20 11:08:55.720041,169994450,0,-521,-58,789,-236,6,-63,0,0,0,1,169994446
4878,2023-01-20 11:08:55.820058,170094445,0,-536,-69,780,-236,6,-63,0,0,0,1,170094441
4911,2023-01-20 11:08:55.920084,170194474,0,-495,-59,743,-236,6,-63,0,0,0,1,170194470
4945,2023-01-20 11:08:56.020095,170294486,0,-501,-75,738,-236,6,-63,0,0,0,1,170294482
4976,2023-01-20 11:08:56.120075,170394459,0,-513,-79,744,-236,6,-63,0,0,0,1,170394455
5010,2023-01-20 11:08:56.220120,170494499,0,-513,-69,747,-236,6,-63,0,0,0,1,170494496
5041,2023-01-20 11:08:56.320071,170594452,0,-516,-68,760,-236,6,-63,0,0,0,1,170594448
5073,2023-01-20 11:08:56.420078,170694467,0,-520,-55,782,-236,6,-63,0,0,0,1,170694463
5106,2023-01-20 11:08:56.520059,170794480,0,-515,-55,776,-236,6,-63,0,0,0,1,170794476
5138,2023-01-20 11:08:56.620013,170894453,0,-508,-54,766,-236,6,-63,0,0,0,1,170894449
5169,2023-01-20 11:08:56.720102,170994508,0,-505,-44,767,-236,6,-63,0,0,0,1,170994496
5201,2023-01-20 11:08:56.820082,171094463,0,-507,-32,759,-236,6,-63,0,0,0,1,171094459
5234,2023-01-20 11:08:56.920090,171194479,0,-520,-36,772,-236,6,-63,0,0,0,1,171194475
5268,2023-01-20 11:08:57.020132,171294525,0,-519,-36,781,-236,6,-63,0,0,0,1,171294522
5300,2023-01-20 11:08:57.120069,171394454,0,-503,-40,759,-236,6,-63,0,0,0,1,171394451
5334,2023-01-20 11:08:57.220086,171494465,0,-488,-24,742,-236,6,-63,0,0,0,1,171494461
5365,2023-01-20 11:08:57.320090,171594466,0,-547,-35,808,-236,6,-63,0,0,0,1,171594454
5397,2023-01-20 11:08:57.420093,171694475,0,-563,-22,830,-236,6,-63,0,0,0,1,171694471
5430,2023-01-20 11:08:57.520100,171794518,0,-557,-15,827,-236,6,-63,0,0,0,1,171794514
5462,2023-01-20 11:08:57.620017,171894457,0,-542,-8,810,-236,6,-63,0,0,0,1,171894453
5493,2023-01-20 11:08:57.720058,171994466,0,-519,-13,794,-236,6,-63,0,0,0,1,171994462
5525,2023-01-20 11:08:57.820075,172094457,0,-516,-16,772,-236,6,-63,0,0,0,1,172094453
5558,2023-01-20 11:08:57.920097,172194484,0,-484,-5,740,-236,6,-63,0,0,0,1,172194480
5594,2023-01-20 11:08:58.020058,172294448,0,-486,-7,728,-236,6,-63,0,0,0,1,172294444
5625,2023-01-20 11:08:58.120040,172394427,0,-474,5,745,-236,6,-63,0,0,0,1,172394423
5659,2023-01-20 11:08:58.220041,172494426,0,-451,6,703,-236,6,-63,0,0,0,1,172494423
5690,2023-01-20 11:08:58.320055,172594441,0,-401,9,677,-236,6,-63,0,0,0,1,172594437
5722,2023-01-20 11:08:58.420074,172694467,0,-393,-4,684,-236,6,-63,0,0,0,1,172694463
5755,2023-01-20 11:08:58.520013,172794441,0,-407,-15,705,-236,6,-63,0,0,0,1,172794437
5787,2023-01-20 11:08:58.619982,172894431,0,-407,-13,722,-236,6,-63,0,0,0,1,172894427
5818,2023-01-20 11:08:58.720060,172994472,0,-448,-25,771,-236,6,-63,0,0,0,1,172994468
5850,2023-01-20 11:08:58.820036,173094422,0,-473,-28,798,-236,6,-63,0,0,0,1,173094418
5883,2023-01-20 11:08:58.920050,173194452,0,-450,-42,764,-236,6,-63,0,0,0,1,173194448
5917,2023-01-20 11:08:59.018236,173294477,0,-435,-40,734,-236,6,-63,0,0,0,1,173294473
5949,2023-01-20 11:08:59.109087,173394426,0,-434,-44,704,-236,6,-63,0,0,0,1,173394422
5983,2023-01-20 11:08:59.200088,173494532,0,-457,-54,725,-236,6,-63,0,0,0,1,173494528
6014,2023-01-20 11:08:59.299984,173594425,0,-452,-66,714,-236,6,-63,0,0,0,1,173594422
6046,2023-01-20 11:08:59.400102,173694530,0,-454,-71,748,-236,6,-63,0,0,0,1,173694527
6079,2023-01-20 11:08:59.511127,173794447,0,-444,-79,767,-236,6,-63,0,0,0,1,173794444
6111,2023-01-20 11:08:59.618274,173894531,0,-430,-88,756,-236,6,-63,0,0,0,1,173894527
6142,2023-01-20 11:08:59.709125,173994472,0,-419,-101,760,-236,6,-63,0,0,0,1,173994468
6174,2023-01-20 11:08:59.800092,174094532,0,-414,-107,767,-236,6,-63,0,0,0,1,174094528
6208,2023-01-20 11:08:59.899978,174194448,0,-411,-120,760,-236,6,-63,0,0,0,1,174194445
6242,2023-01-20 11:09:00.000088,174294588,0,-428,-130,737,-236,6,-63,0,0,0,1,174294585
6273,2023-01-20 11:09:00.099864,174394437,0,-439,-121,740,-236,6,-63,0,0,0,1,174394433
6307,2023-01-20 11:09:00.200096,174494743,0,-453,-122,741,-236,6,-63,0,0,0,1,174494739
6338,2023-01-20 11:09:00.299829,174594425,0,-449,-123,718,-236,6,-63,0,0,0,1,174594421
6370,2023-01-20 11:09:00.400088,174694632,0,-471,-110,723,-236,6,-63,0,0,0,1,174694629
6405,2023-01-20 11:09:00.500101,174794700,0,-488,-120,744,-236,6,-63,0,0,0,1,174794696
6437,2023-01-20 11:09:00.600088,174894741,0,-515,-119,755,-236,6,-63,0,0,0,1,174894738
6468,2023-01-20 11:09:00.699804,174994425,0,-523,-122,747,-236,6,-63,0,0,0,1,174994421
6501,2023-01-20 11:09:00.800096,175094684,0,-525,-133,750,-236,6,-63,0,0,0,1,175094680
6534,2023-01-20 11:09:00.899842,175194454,0,-522,-124,728,-236,6,-63,0,0,0,1,175194450
6568,2023-01-20 11:09:01.000095,175294731,0,-514,-119,722,-236,6,-63,0,0,0,1,175294727
6599,2023-01-20 11:09:01.099911,175394472,0,-505,-99,700,-236,6,-63,0,0,0,1,175394468
6633,2023-01-20 11:09:01.200088,175494573,0,-520,-88,689,-236,6,-63,0,0,0,1,175494570
6664,2023-01-20 11:09:01.299882,175594435,0,-530,-74,701,-236,6,-63,0,0,0,1,175594432
6696,2023-01-20 11:09:01.400097,175694718,0,-534,-69,693,-236,6,-63,0,0,0,1,175694714
6729,2023-01-20 11:09:01.499808,175794456,0,-534,-71,673,-236,6,-63,0,0,0,1,175794452
6761,2023-01-20 11:09:01.600104,175894779,0,-560,-69,708,-236,6,-63,0,0,0,1,175894775
6792,2023-01-20 11:09:01.699754,175994423,0,-551,-61,700,-236,6,-63,0,0,0,1,175994420
6825,2023-01-20 11:09:01.800088,176094752,0,-575,-77,727,-236,6,-63,0,0,0,1,176094748
6858,2023-01-20 11:09:01.899802,176194462,0,-572,-87,721,-236,6,-63,0,0,0,1,176194458
6892,2023-01-20 11:09:02.000116,176294772,0,-559,-98,714,-236,6,-63,0,0,0,1,176294768
6923,2023-01-20 11:09:02.099790,176394434,0,-558,-108,712,-236,6,-63,0,0,0,1,176394430
6957,2023-01-20 11:09:02.200088,176494720,0,-569,-120,731,-236,6,-63,0,0,0,1,176494716
6988,2023-01-20 11:09:02.299802,176594430,0,-553,-117,722,-236,6,-63,0,0,0,1,176594426
7020,2023-01-20 11:09:02.400088,176694713,0,-565,-121,752,-236,6,-63,0,0,0,1,176694709
7053,2023-01-20 11:09:02.499774,176794448,0,-561,-115,757,-236,6,-63,0,0,0,1,176794444
7085,2023-01-20 11:09:02.600088,176894811,0,-568,-117,751,-236,6,-63,0,0,0,1,176894807
7116,2023-01-20 11:09:02.699755,176994433,0,-557,-117,737,-236,6,-63,0,0,0,1,176994430
7148,2023-01-20 11:09:02.800088,177094721,0,-556,-118,786,-236,6,-63,0,0,0,1,177094717
7181,2023-01-20 11:09:02.899807,177194445,0,-554,-119,770,-236,6,-63,0,0,0,1,177194442
7215,2023-01-20 11:09:03.000091,177294733,0,-546,-127,780,-236,6,-63,0,0,0,1,177294729
7246,2023-01-20 11:09:03.099784,177394437,0,-494,-124,751,-236,6,-63,0,0,0,1,177394433
7280,2023-01-20 11:09:03.200091,177494756,0,-461,-103,722,-236,6,-63,0,0,0,1,177494753
7311,2023-01-20 11:09:03.299765,177594434,0,-481,-107,759,-236,6,-63,0,0,0,1,177594430
7343,2023-01-20 11:09:03.400089,177694763,0,-464,-109,748,-236,6,-63,0,0,0,1,177694759
7376,2023-01-20 11:09:03.499783,177794456,0,-449,-118,708,-236,6,-63,0,0,0,1,177794452
7408,2023-01-20 11:09:03.600092,177894764,0,-437,-109,711,-236,6,-63,0,0,0,1,177894760
7440,2023-01-20 11:09:03.699826,177994485,0,-457,-114,716,-236,6,-63,0,0,0,1,177994481
7472,2023-01-20 11:09:03.800088,178094735,0,-465,-121,708,-236,6,-63,0,0,0,1,178094731
7505,2023-01-20 11:09:03.899781,178194441,0,-492,-131,744,-236,6,-63,0,0,0,1,178194437
7539,2023-01-20 11:09:04.000089,178294761,0,-502,-124,765,-236,6,-63,0,0,0,1,178294757
7570,2023-01-20 11:09:04.099754,178394434,0,-496,-131,747,-236,6,-63,0,0,0,1,178394430
7605,2023-01-20 11:09:04.200091,178494780,0,-487,-116,748,-236,6,-63,0,0,0,1,178494776
7636,2023-01-20 11:09:04.299762,178594427,0,-486,-119,746,-236,6,-63,0,0,0,1,178594423
7668,2023-01-20 11:09:04.400088,178694730,0,-498,-123,759,-236,6,-63,0,0,0,1,178694727
7701,2023-01-20 11:09:04.499790,178794448,0,-497,-125,746,-236,6,-63,0,0,0,1,178794445
7733,2023-01-20 11:09:04.600092,178894766,0,-514,-132,760,-236,6,-63,0,0,0,1,178894763
7764,2023-01-20 11:09:04.699821,178994471,0,-525,-145,775,-236,6,-63,0,0,0,1,178994467
7796,2023-01-20 11:09:04.800093,179094718,0,-511,-152,776,-236,6,-63,0,0,0,1,179094714
7829,2023-01-20 11:09:04.899791,179194453,0,-509,-155,731,-236,6,-63,0,0,0,1,179194449
7863,2023-01-20 11:09:05.000088,179294786,0,-493,-160,706,-236,6,-63,0,0,0,1,179294782
7894,2023-01-20 11:09:05.099762,179394437,0,-486,-169,664,-236,6,-63,0,0,0,1,179394433
7928,2023-01-20 11:09:05.200096,179494748,0,-493,-159,697,-236,6,-63,0,0,0,1,179494744
7959,2023-01-20 11:09:05.299833,179594471,0,-486,-153,721,-236,6,-63,0,0,0,1,179594467
7992,2023-01-20 11:09:05.400088,179694712,0,-461,-152,714,-236,6,-63,0,0,0,1,179694708
8027,2023-01-20 11:09:05.500008,179794688,0,-432,-144,699,-236,6,-63,0,0,0,1,179794681
8059,2023-01-20 11:09:05.600092,179894828,0,-410,-147,671,-236,6,-63,0,0,0,1,179894824
8090,2023-01-20 11:09:05.699760,179994436,0,-410,-142,659,-236,6,-63,0,0,0,1,179994433
8122,2023-01-20 11:09:05.800093,180094708,0,-423,-148,656,-236,6,-63,0,0,0,1,180094704
8155,2023-01-20 11:09:05.899846,180194501,0,-445,-157,683,-236,6,-63,0,0,0,1,180194497
8189,2023-01-20 11:09:06.000103,180294798,0,-443,-180,699,-236,6,-63,0,0,0,1,180294795
8220,2023-01-20 11:09:06.099754,180394440,0,-442,-200,689,-236,6,-63,0,0,0,1,180394436
8254,2023-01-20 11:09:06.200095,180494772,0,-446,-224,693,-236,6,-63,0,0,0,1,180494769
8285,2023-01-20 11:09:06.299752,180594431,0,-450,-251,682,-236,6,-63,0,0,0,1,180594427
8317,2023-01-20 11:09:06.400089,180694771,0,-460,-275,697,-236,6,-63,0,0,0,1,180694767
8350,2023-01-20 11:09:06.499772,180794446,0,-465,-298,710,-236,6,-63,0,0,0,1,180794443
8382,2023-01-20 11:09:06.600089,180894755,0,-459,-319,701,-236,6,-63,0,0,0,1,180894751
8413,2023-01-20 11:09:06.699763,180994433,0,-443,-332,697,-236,6,-63,0,0,0,1,180994430
8445,2023-01-20 11:09:06.800092,181094766,0,-425,-344,701,-236,6,-63,0,0,0,1,181094763
8478,2023-01-20 11:09:06.899781,181194442,0,-407,-363,685,-236,6,-63,0,0,0,1,181194439
8512,2023-01-20 11:09:07.000088,181294737,0,-425,-369,684,-236,6,-63,0,0,0,1,181294733
8543,2023-01-20 11:09:07.099785,181394431,0,-436,-384,709,-236,6,-63,0,0,0,1,181394427
8577,2023-01-20 11:09:07.200089,181494733,0,-453,-396,734,-236,6,-63,0,0,0,1,181494729
8608,2023-01-20 11:09:07.299786,181594428,0,-468,-403,779,-236,6,-63,0,0,0,1,181594425
8641,2023-01-20 11:09:07.400093,181694734,0,-462,-396,783,-236,6,-63,0,0,0,1,181694730
8674,2023-01-20 11:09:07.499797,181794450,0,-452,-398,777,-236,6,-63,0,0,0,1,181794446
8706,2023-01-20 11:09:07.600097,181894762,0,-433,-387,783,-236,6,-63,0,0,0,1,181894758
8737,2023-01-20 11:09:07.699787,181994432,0,-429,-382,775,-236,6,-63,0,0,0,1,181994428
8769,2023-01-20 11:09:07.800088,182094712,0,-399,-379,758,-236,6,-63,0,0,0,1,182094708
8802,2023-01-20 11:09:07.899862,182194498,0,-402,-377,778,-236,6,-63,0,0,0,1,182194494
8836,2023-01-20 11:09:08.000096,182294744,0,-385,-396,775,-236,6,-63,0,0,0,1,182294741
8867,2023-01-20 11:09:08.099771,182394437,0,-349,-379,756,-236,6,-63,0,0,0,1,182394433
8900,2023-01-20 11:09:08.200088,182494772,0,-357,-384,767,-236,6,-63,0,0,0,1,182494769
8932,2023-01-20 11:09:08.299780,182594441,0,-372,-382,782,-236,6,-63,0,0,0,1,182594437
8964,2023-01-20 11:09:08.400092,182694730,0,-385,-389,804,-236,6,-63,0,0,0,1,182694726
8997,2023-01-20 11:09:08.499774,182794444,0,-371,-385,769,-236,6,-63,0,0,0,1,182794440
9029,2023-01-20 11:09:08.600088,182894789,0,-379,-387,786,-236,6,-63,0,0,0,1,182894785
9060,2023-01-20 11:09:08.699772,182994441,0,-390,-394,792,-236,6,-63,0,0,0,1,182994438
9092,2023-01-20 11:09:08.800088,183094724,0,-351,-391,764,-236,6,-63,0,0,0,1,183094720
9127,2023-01-20 11:09:08.899837,183194486,0,-342,-399,759,-236,6,-63,0,0,0,1,183194483
9161,2023-01-20 11:09:09.000080,183294750,0,-360,-399,779,-236,6,-63,0,0,0,1,183294746
9192,2023-01-20 11:09:09.090879,183394426,0,-351,-410,791,-236,6,-63,0,0,0,1,183394423
9223,2023-01-20 11:09:09.182259,183494739,0,-343,-414,774,-236,6,-63,0,0,0,1,183494735
9258,2023-01-20 11:09:09.280198,183594423,0,-333,-406,787,-236,6,-63,0,0,0,1,183594419
9288,2023-01-20 11:09:09.380407,183694645,0,-323,-408,771,-236,6,-63,0,0,0,1,183694641
9323,2023-01-20 11:09:09.480249,183794486,0,-319,-410,779,-236,6,-63,0,0,0,1,183794479
9353,2023-01-20 11:09:09.580461,183894694,0,-342,-411,800,-236,6,-63,0,0,0,1,183894690
9387,2023-01-20 11:09:09.680230,183994446,0,-338,-406,793,-236,6,-63,0,0,0,1,183994443
9417,2023-01-20 11:09:09.780503,184094700,0,-341,-412,796,-236,6,-63,0,0,0,1,184094695
9453,2023-01-20 11:09:09.880286,184194498,0,-343,-405,787,-236,6,-63,0,0,0,1,184194494
9485,2023-01-20 11:09:09.980425,184294660,0,-349,-396,795,-236,6,-63,0,0,0,1,184294652
9518,2023-01-20 11:09:10.080189,184394433,0,-363,-414,800,-236,6,-63,0,0,0,1,184394429
9549,2023-01-20 11:09:10.180404,184494652,0,-330,-398,789,-236,6,-63,0,0,0,1,184494649
9583,2023-01-20 11:09:10.280237,184594486,0,-336,-404,785,-236,6,-63,0,0,0,1,184594482
9613,2023-01-20 11:09:10.380351,184694601,0,-326,-396,762,-236,6,-63,0,0,0,1,184694598
9648,2023-01-20 11:09:10.480106,184794445,0,-330,-408,776,-236,6,-63,0,0,0,1,184794441
9680,2023-01-20 11:09:10.580063,184894513,0,-332,-412,795,-236,6,-63,0,0,0,1,184894509
9713,2023-01-20 11:09:10.680023,184994442,0,-311,-409,776,-236,6,-63,0,0,0,1,184994438
9743,2023-01-20 11:09:10.780223,185094575,0,-304,-409,758,-236,6,-63,0,0,0,1,185094571
9778,2023-01-20 11:09:10.880101,185194458,0,-309,-416,768,-236,6,-63,0,0,0,1,185194455
9810,2023-01-20 11:09:10.980154,185294533,0,-267,-411,753,-236,6,-63,0,0,0,1,185294529
9844,2023-01-20 11:09:11.080079,185394469,0,-290,-422,759,-236,6,-63,0,0,0,1,185394466
9874,2023-01-20 11:09:11.180140,185494537,0,-282,-415,756,-236,6,-63,0,0,0,1,185494533
9908,2023-01-20 11:09:11.280026,185594436,0,-278,-419,765,-236,6,-63,0,0,0,1,185594432
9938,2023-01-20 11:09:11.380085,185694509,0,-313,-429,790,-236,6,-63,0,0,0,1,185694505
9973,2023-01-20 11:09:11.480028,185794452,0,-284,-419,762,-236,6,-63,0,0,0,1,185794438
10003,2023-01-20 11:09:11.580103,185894523,0,-271,-422,756,-236,6,-63,0,0,0,1,185894519
10036,2023-01-20 11:09:11.680046,185994449,0,-285,-429,752,-236,6,-63,0,0,0,1,185994441
10066,2023-01-20 11:09:11.780056,186094439,0,-287,-423,760,-236,6,-63,0,0,0,1,186094427
10101,2023-01-20 11:09:11.880188,186194571,0,-287,-423,757,-236,6,-63,0,0,0,1,186194567
10133,2023-01-20 11:09:11.980063,186294452,0,-286,-425,758,-236,6,-63,0,0,0,1,186294446
10166,2023-01-20 11:09:12.080017,186394431,0,-291,-424,749,-236,6,-63,0,0,0,1,186394427
10197,2023-01-20 11:09:12.180003,186494447,0,-282,-413,772,-236,6,-63,0,0,0,1,186494443
10231,2023-01-20 11:09:12.280009,186594432,0,-285,-420,751,-236,6,-63,0,0,0,1,186594429
10262,2023-01-20 11:09:12.380032,186694422,0,-304,-421,775,-236,6,-63,0,0,0,1,186694418
10297,2023-01-20 11:09:12.480044,186794447,0,-276,-423,754,-236,6,-63,0,0,0,1,186794444
10327,2023-01-20 11:09:12.580012,186894438,0,-271,-420,741,-236,6,-63,0,0,0,1,186894435
10360,2023-01-20 11:09:12.680075,186994481,0,-273,-424,732,-236,6,-63,0,0,0,1,186994478
10390,2023-01-20 11:09:12.780045,187094420,0,-264,-418,723,-236,6,-63,0,0,0,1,187094416
10425,2023-01-20 11:09:12.880078,187194452,0,-233,-419,703,-236,6,-63,0,0,0,1,187194448
10457,2023-01-20 11:09:12.980106,187294487,0,-211,-420,661,-236,6,-63,0,0,0,1,187294483
10490,2023-01-20 11:09:13.080042,187394430,0,-173,-421,625,-236,6,-63,0,0,0,1,187394426
10521,2023-01-20 11:09:13.180056,187494451,0,-186,-425,612,-236,6,-63,0,0,0,1,187494447
10555,2023-01-20 11:09:13.280086,187594472,0,-195,-423,634,-236,6,-63,0,0,0,1,187594469
10585,2023-01-20 11:09:13.380056,187694430,0,-203,-424,643,-236,6,-63,0,0,0,1,187694426
10620,2023-01-20 11:09:13.480044,187794439,0,-201,-424,629,-236,6,-63,0,0,0,1,187794435
10650,2023-01-20 11:09:13.580007,187894431,0,-209,-421,635,-236,6,-63,0,0,0,1,187894427
10683,2023-01-20 11:09:13.680021,187994432,0,-226,-422,654,-236,6,-63,0,0,0,1,187994429
10713,2023-01-20 11:09:13.780041,188094428,0,-226,-409,662,-236,6,-63,0,0,0,1,188094425
10748,2023-01-20 11:09:13.880113,188194491,0,-230,-417,672,-236,6,-63,0,0,0,1,188194487
10780,2023-01-20 11:09:13.980100,188294474,0,-248,-403,698,-236,6,-63,0,0,0,1,188294470
10813,2023-01-20 11:09:14.080037,188394418,0,-239,-391,702,-236,6,-63,0,0,0,1,188394415
10844,2023-01-20 11:09:14.180058,188494450,0,-246,-391,700,-236,6,-63,0,0,0,1,188494446
10878,2023-01-20 11:09:14.280092,188594479,0,-245,-393,705,-236,6,-63,0,0,0,1,188594475
10910,2023-01-20 11:09:14.380049,188694427,0,-260,-403,697,-236,6,-63,0,0,0,1,188694424
10945,2023-01-20 11:09:14.480052,188794451,0,-254,-406,711,-236,6,-63,0,0,0,1,188794447
10975,2023-01-20 11:09:14.580010,188894438,0,-248,-400,710,-236,6,-63,0,0,0,1,188894431
11008,2023-01-20 11:09:14.680005,188994415,0,-230,-402,722,-236,6,-63,0,0,0,1,188994411
11038,2023-01-20 11:09:14.780058,189094437,0,-235,-411,727,-236,6,-63,0,0,0,1,189094434
11073,2023-01-20 11:09:14.880059,189194449,0,-240,-418,722,-236,6,-63,0,0,0,1,189194445
11105,2023-01-20 11:09:14.980030,189294440,0,-234,-408,683,-236,6,-63,0,0,0,1,189294437
11138,2023-01-20 11:09:15.080022,189394428,0,-258,-422,728,-236,6,-63,0,0,0,1,189394424
11169,2023-01-20 11:09:15.180041,189494436,0,-273,-426,739,-236,6,-63,0,0,0,1,189494432
11203,2023-01-20 11:09:15.280064,189594442,0,-246,-411,712,-236,6,-63,0,0,0,1,189594438
11236,2023-01-20 11:09:15.380054,189694414,0,-236,-428,699,-236,6,-63,0,0,0,1,189694410
11271,2023-01-20 11:09:15.480070,189794464,0,-252,-432,710,-236,6,-63,0,0,0,1,189794461
11303,2023-01-20 11:09:15.579976,189894417,0,-260,-428,721,-236,6,-63,0,0,0,1,189894414
11336,2023-01-20 11:09:15.679989,189994403,0,-272,-433,716,-236,6,-63,0,0,0,1,189994399
11366,2023-01-20 11:09:15.780034,190094404,0,-271,-425,710,-236,6,-63,0,0,0,1,190094401
11401,2023-01-20 11:09:15.880114,190194475,0,-278,-440,718,-236,6,-63,0,0,0,1,190194471
11433,2023-01-20 11:09:15.980064,190294425,0,-290,-443,726,-236,6,-63,0,0,0,1,190294421
11466,2023-01-20 11:09:16.080089,190394453,0,-297,-446,720,-236,6,-63,0,0,0,1,190394450
11497,2023-01-20 11:09:16.180056,190494423,0,-295,-449,719,-236,6,-63,0,0,0,1,190494416
11531,2023-01-20 11:09:16.280044,190594411,0,-286,-445,717,-236,6,-63,0,0,0,1,190594407
11561,2023-01-20 11:09:16.380043,190694408,0,-295,-454,736,-236,6,-63,0,0,0,1,190694404
11596,2023-01-20 11:09:16.480040,190794419,0,-285,-450,704,-236,6,-63,0,0,0,1,190794415
11626,2023-01-20 11:09:16.580009,190894406,0,-257,-458,685,-236,6,-63,0,0,0,1,190894402
11659,2023-01-20 11:09:16.680022,190994411,0,-235,-457,668,-236,6,-63,0,0,0,1,190994408
11689,2023-01-20 11:09:16.780078,191094452,0,-216,-461,665,-236,6,-63,0,0,0,1,191094448
11724,2023-01-20 11:09:16.880053,191194420,0,-180,-458,653,-236,6,-63,0,0,0,1,191194417
11756,2023-01-20 11:09:16.980055,191294417,0,-154,-458,663,-236,6,-63,0,0,0,1,191294413
11789,2023-01-20 11:09:17.080040,191394404,0,-121,-451,651,-236,6,-63,0,0,0,1,191394400
11820,2023-01-20 11:09:17.180048,191494415,0,-68,-423,651,-236,6,-63,0,0,0,1,191494411
11854,2023-01-20 11:09:17.280044,191594407,0,-38,-408,652,-236,6,-63,0,0,0,1,191594403
11884,2023-01-20 11:09:17.380084,191694440,0,-4,-383,654,-236,6,-63,0,0,0,1,191694436
11919,2023-01-20 11:09:17.480028,191794410,0,43,-335,636,-236,6,-63,0,0,0,1,191794406
11949,2023-01-20 11:09:17.579987,191894402,0,74,-309,623,-236,6,-63,0,0,0,1,191894398
11982,2023-01-20 11:09:17.680001,191994396,0,73,-269,623,-236,6,-63,0,0,0,1,191994392
12012,2023-01-20 11:09:17.780017,192094379,0,93,-232,629,-236,6,-63,0,0,0,1,192094375
12047,2023-01-20 11:09:17.880092,192194450,0,95,-194,618,-236,6,-63,0,0,0,1,192194446
12079,2023-01-20 11:09:17.980057,192294419,0,75,-172,658,-236,6,-63,0,0,0,1,192294415
12113,2023-01-20 11:09:18.080063,192394442,0,44,-158,680,-236,6,-63,0,0,0,1,192394438
12144,2023-01-20 11:09:18.180019,192494417,0,33,-131,725,-236,6,-63,0,0,0,1,192494413
12178,2023-01-20 11:09:18.272818,192594395,0,19,-126,721,-236,6,-63,0,0,0,1,192594392
12208,2023-01-20 11:09:18.363853,192694400,0,23,-123,755,-236,6,-63,0,0,0,1,192694396
12243,2023-01-20 11:09:18.460266,192794417,0,8,-123,759,-236,6,-63,0,0,0,1,192794413
12273,2023-01-20 11:09:18.560171,192894393,0,-15,-140,769,-236,6,-63,0,0,0,1,192894389
12307,2023-01-20 11:09:18.660182,192994432,0,-22,-161,786,-236,6,-63,0,0,0,1,192994429
12337,2023-01-20 11:09:18.760146,193094395,0,-18,-169,766,-236,6,-63,0,0,0,1,193094391
12372,2023-01-20 11:09:18.860128,193194410,0,-13,-186,776,-236,6,-63,0,0,0,1,193194406
12404,2023-01-20 11:09:18.960072,193294410,0,-13,-196,749,-236,6,-63,0,0,0,1,193294406
12437,2023-01-20 11:09:19.060046,193394392,0,-10,-209,746,-236,6,-63,0,0,0,1,193394388
12467,2023-01-20 11:09:19.160082,193494405,0,24,-202,722,-236,6,-63,0,0,0,1,193494401
12502,2023-01-20 11:09:19.260138,193594393,0,1,-210,737,-236,6,-63,0,0,0,1,193594390
12533,2023-01-20 11:09:19.360286,193694444,0,4,-205,738,-236,6,-63,0,0,0,1,193694441
12569,2023-01-20 11:09:19.460206,193794417,0,40,-191,710,-236,6,-63,0,0,0,1,193794413
12599,2023-01-20 11:09:19.560029,193894393,0,34,-201,693,-236,6,-63,0,0,0,1,193894389
12633,2023-01-20 11:09:19.659973,193994377,0,32,-203,701,-236,6,-63,0,0,0,1,193994373
12663,2023-01-20 11:09:19.760020,194094390,0,42,-202,698,-236,6,-63,0,0,0,1,194094387
12699,2023-01-20 11:09:19.860069,194194431,0,20,-208,718,-236,6,-63,0,0,0,1,194194428
12731,2023-01-20 11:09:19.960042,194294415,0,4,-216,706,-236,6,-63,0,0,0,1,194294411
12764,2023-01-20 11:09:20.060012,194394382,0,25,-217,713,-236,6,-63,0,0,0,1,194394378
12794,2023-01-20 11:09:20.160049,194494407,0,36,-221,701,-236,6,-63,0,0,0,1,194494404
12829,2023-01-20 11:09:20.260030,194594389,0,27,-227,715,-236,6,-63,0,0,0,1,194594386
12860,2023-01-20 11:09:20.360003,194694372,0,-14,-245,754,-236,6,-63,0,0,0,1,194694369
12895,2023-01-20 11:09:20.460019,194794405,0,41,-245,702,-236,6,-63,0,0,0,1,194794401
12927,2023-01-20 11:09:20.559991,194894400,0,82,-251,633,-236,6,-63,0,0,0,1,194894396
12961,2023-01-20 11:09:20.660041,194994446,0,61,-256,659,-236,6,-63,0,0,0,1,194994443
12991,2023-01-20 11:09:20.760009,195094393,0,37,-261,688,-236,6,-63,0,0,0,1,195094389
13026,2023-01-20 11:09:20.860018,195194395,0,31,-261,682,-236,6,-63,0,0,0,1,195194392
13058,2023-01-20 11:09:20.960027,195294406,0,37,-261,710,-236,6,-63,0,0,0,1,195294402
13092,2023-01-20 11:09:21.060019,195394398,0,25,-265,684,-236,6,-63,0,0,0,1,195394395
13122,2023-01-20 11:09:21.160015,195494392,0,15,-271,677,-236,6,-63,0,0,0,1,195494388
13157,2023-01-20 11:09:21.260030,195594406,0,32,-271,684,-236,6,-63,0,0,0,1,195594403
13188,2023-01-20 11:09:21.360073,195694449,0,40,-279,668,-236,6,-63,0,0,0,1,195694445
13223,2023-01-20 11:09:21.460009,195794413,0,36,-290,667,-236,6,-63,0,0,0,1,195794409
13253,2023-01-20 11:09:21.559951,195894401,0,12,-301,681,-236,6,-63,0,0,0,1,195894398
13287,2023-01-20 11:09:21.659960,195994398,0,35,-295,686,-236,6,-63,0,0,0,1,195994394
13317,2023-01-20 11:09:21.760008,196094395,0,9,-304,702,-236,6,-63,0,0,0,1,196094391
13352,2023-01-20 11:09:21.860045,196194414,0,0,-298,726,-236,6,-63,0,0,0,1,196194411
13384,2023-01-20 11:09:21.960090,196294463,0,41,-297,710,-236,6,-63,0,0,0,1,196294460
13418,2023-01-20 11:09:22.060014,196394401,0,20,-291,708,-236,6,-63,0,0,0,1,196394397
13448,2023-01-20 11:09:22.160000,196494408,0,29,-285,719,-236,6,-63,0,0,0,1,196494404
13483,2023-01-20 11:09:22.259985,196594389,0,21,-294,718,-236,6,-63,0,0,0,1,196594385
13514,2023-01-20 11:09:22.360014,196694399,0,3,-298,750,-236,6,-63,0,0,0,1,196694396
13549,2023-01-20 11:09:22.460020,196794412,0,-4,-308,750,-236,6,-63,0,0,0,1,196794408
13579,2023-01-20 11:09:22.559984,196894400,0,-2,-306,747,-236,6,-63,0,0,0,1,196894396
13613,2023-01-20 11:09:22.660033,196994445,0,7,-315,747,-236,6,-63,0,0,0,1,196994438
13643,2023-01-20 11:09:22.760014,197094402,0,14,-310,740,-236,6,-63,0,0,0,1,197094399
13678,2023-01-20 11:09:22.860024,197194400,0,6,-305,758,-236,6,-63,0,0,0,1,197194396
13710,2023-01-20 11:09:22.960039,197294412,0,-1,-315,730,-236,6,-63,0,0,0,1,197294408
13744,2023-01-20 11:09:23.060034,197394404,0,13,-320,713,-236,6,-63,0,0,0,1,197394400
13774,2023-01-20 11:09:23.160046,197494413,0,-34,-320,773,-236,6,-63,0,0,0,1,197494409
13809,2023-01-20 11:09:23.260065,197594436,0,-56,-317,799,-236,6,-63,0,0,0,1,197594433
13840,2023-01-20 11:09:23.360017,197694397,0,-45,-317,779,-236,6,-63,0,0,0,1,197694393
13875,2023-01-20 11:09:23.460027,197794419,0,-26,-315,750,-236,6,-63,0,0,0,1,197794415
13905,2023-01-20 11:09:23.559986,197894391,0,-35,-319,756,-236,6,-63,0,0,0,1,197894388
13939,2023-01-20 11:09:23.659995,197994391,0,1,-314,715,-236,6,-63,0,0,0,1,197994387
13969,2023-01-20 11:09:23.760025,198094398,0,6,-309,726,-236,6,-63,0,0,0,1,198094394
14004,2023-01-20 11:09:23.860029,198194397,0,-16,-312,734,-236,6,-63,0,0,0,1,198194393
14036,2023-01-20 11:09:23.960080,198294454,0,-9,-318,733,-236,6,-63,0,0,0,1,198294444
14070,2023-01-20 11:09:24.060007,198394396,0,1,-318,703,-236,6,-63,0,0,0,1,198394392
14100,2023-01-20 11:09:24.160003,198494411,0,-10,-314,718,-236,6,-63,0,0,0,1,198494407
14135,2023-01-20 11:09:24.259995,198594395,0,-18,-319,725,-236,6,-63,0,0,0,1,198594391
14166,2023-01-20 11:09:24.360018,198694392,0,-13,-319,720,-236,6,-63,0,0,0,1,198694388
14201,2023-01-20 11:09:24.460030,198794410,0,-4,-328,709,-236,6,-63,0,0,0,1,198794406
14232,2023-01-20 11:09:24.560028,198894437,0,-11,-326,696,-236,6,-63,0,0,0,1,198894433
14266,2023-01-20 11:09:24.659981,198994399,0,-5,-335,717,-236,6,-63,0,0,0,1,198994395
14296,2023-01-20 11:09:24.759985,199094397,0,-16,-335,690,-236,6,-63,0,0,0,1,199094393
14331,2023-01-20 11:09:24.859989,199194388,0,-5,-333,683,-236,6,-63,0,0,0,1,199194380
14363,2023-01-20 11:09:24.960037,199294417,0,-1,-335,667,-236,6,-63,0,0,0,1,199294413
14397,2023-01-20 11:09:25.060024,199394396,0,18,-329,671,-236,6,-63,0,0,0,1,199394392
14427,2023-01-20 11:09:25.160037,199494408,0,10,-326,667,-236,6,-63,0,0,0,1,199494404
14462,2023-01-20 11:09:25.260073,199594438,0,5,-327,662,-236,6,-63,0,0,0,1,199594435
14493,2023-01-20 11:09:25.360044,199694400,0,7,-326,680,-236,6,-63,0,0,0,1,199694396
14528,2023-01-20 11:09:25.460042,199794416,0,-6,-321,700,-236,6,-63,0,0,0,1,199794412
14560,2023-01-20 11:09:25.559978,199894389,0,8,-320,658,-236,6,-63,0,0,0,1,199894385
14594,2023-01-20 11:09:25.659985,199994394,0,1,-324,694,-236,6,-63,0,0,0,1,199994390
14624,2023-01-20 11:09:25.760011,200094395,0,21,-321,682,-236,6,-63,0,0,0,1,200094391
14659,2023-01-20 11:09:25.860189,200194559,0,44,-312,650,-236,6,-63,0,0,0,1,200194555
14691,2023-01-20 11:09:25.960051,200294415,0,36,-317,650,-236,6,-63,0,0,0,1,200294411
14725,2023-01-20 11:09:26.060020,200394398,0,-11,-322,697,-236,6,-63,0,0,0,1,200394394
14755,2023-01-20 11:09:26.160004,200494408,0,0,-313,687,-236,6,-63,0,0,0,1,200494404
14790,2023-01-20 11:09:26.259992,200594391,0,-11,-317,717,-236,6,-63,0,0,0,1,200594387
14821,2023-01-20 11:09:26.360021,200694394,0,-20,-311,754,-236,6,-63,0,0,0,1,200694391
14856,2023-01-20 11:09:26.460042,200794423,0,-35,-321,746,-236,6,-63,0,0,0,1,200794419
14886,2023-01-20 11:09:26.560034,200894445,0,-38,-328,738,-236,6,-63,0,0,0,1,200894441
14920,2023-01-20 11:09:26.659971,200994392,0,-35,-327,735,-236,6,-63,0,0,0,1,200994388
14950,2023-01-20 11:09:26.759983,201094401,0,-48,-317,763,-236,6,-63,0,0,0,1,201094397
14985,2023-01-20 11:09:26.859997,201194395,0,-44,-324,760,-236,6,-63,0,0,0,1,201194391
15017,2023-01-20 11:09:26.960043,201294410,0,-63,-329,768,-236,6,-63,0,0,0,1,201294407
15051,2023-01-20 11:09:27.060043,201394404,0,-54,-330,781,-236,6,-63,0,0,0,1,201394400
15081,2023-01-20 11:09:27.160097,201494467,0,-48,-317,764,-236,6,-63,0,0,0,1,201494464
15116,2023-01-20 11:09:27.260007,201594388,0,-40,-327,745,-236,6,-63,0,0,0,1,201594385
15147,2023-01-20 11:09:27.360013,201694405,0,-11,-330,706,-236,6,-63,0,0,0,1,201694401
15182,2023-01-20 11:09:27.460028,201794419,0,-8,-333,695,-236,6,-63,0,0,0,1,201794415
15212,2023-01-20 11:09:27.560023,201894405,0,0,-329,680,-236,6,-63,0,0,0,1,201894401
15246,2023-01-20 11:09:27.660033,201994408,0,-7,-331,701,-236,6,-63,0,0,0,1,201994404
15276,2023-01-20 11:09:27.760036,202094406,0,-2,-333,692,-236,6,-63,0,0,0,1,202094402
15311,2023-01-20 11:09:27.860228,202194595,0,3,-342,679,-236,6,-63,0,0,0,1,202194591
15343,2023-01-20 11:09:27.960052,202294419,0,15,-338,659,-236,6,-63,0,0,0,1,202294415
15377,2023-01-20 11:09:28.060035,202394398,0,-6,-338,696,-236,6,-63,0,0,0,1,202394394
15407,2023-01-20 11:09:28.160048,202494404,0,1,-332,696,-236,6,-63,0,0,0,1,202494400
15442,2023-01-20 11:09:28.260041,202594399,0,31,-332,645,-236,6,-63,0,0,0,1,202594395
15473,2023-01-20 11:09:28.360043,202694406,0,47,-339,615,-236,6,-63,0,0,0,1,202694402
15508,2023-01-20 11:09:28.454647,202794466,0,36,-334,633,-236,6,-63,0,0,0,1,202794462
15538,2023-01-20 11:09:28.545504,202894389,0,18,-334,651,-236,6,-63,0,0,0,1,202894385
15572,2023-01-20 11:09:28.640072,202994394,0,70,-335,613,-236,6,-63,0,0,0,1,202994390
15602,2023-01-20 11:09:28.740082,203094403,0,57,-337,630,-236,6,-63,0,0,0,1,203094395
15637,2023-01-20 11:09:28.840067,203194388,0,16,-326,680,-236,6,-63,0,0,0,1,203194385
15669,2023-01-20 11:09:28.940091,203294413,0,0,-330,696,-236,6,-63,0,0,0,1,203294409
15703,2023-01-20 11:09:29.040061,203394382,0,-3,-333,706,-236,6,-63,0,0,0,1,203394374
15733,2023-01-20 11:09:29.140134,203494449,0,12,-332,670,-236,6,-63,0,0,0,1,203494445
15768,2023-01-20 11:09:29.240070,203594391,0,9,-338,683,-236,6,-63,0,0,0,1,203594388
15799,2023-01-20 11:09:29.340055,203694401,0,2,-329,693,-236,6,-63,0,0,0,1,203694397
15834,2023-01-20 11:09:29.440041,203794408,0,-22,-342,710,-236,6,-63,0,0,0,1,203794405
15864,2023-01-20 11:09:29.540029,203894411,0,-8,-342,704,-236,6,-63,0,0,0,1,203894407
15899,2023-01-20 11:09:29.640045,203994392,0,-14,-341,687,-236,6,-63,0,0,0,1,203994388
15929,2023-01-20 11:09:29.740217,204094453,0,-27,-341,691,-236,6,-63,0,0,0,1,204094449
15965,2023-01-20 11:09:29.840191,204194389,0,-32,-342,712,-236,6,-63,0,0,0,1,204194385
15998,2023-01-20 11:09:29.940153,204294421,0,-60,-346,753,-236,6,-63,0,0,0,1,204294417
16031,2023-01-20 11:09:30.040068,204394396,0,-48,-356,732,-236,6,-63,0,0,0,1,204394392
16061,2023-01-20 11:09:30.140036,204494409,0,-34,-349,719,-236,6,-63,0,0,0,1,204494405
16096,2023-01-20 11:09:30.240004,204594398,0,-32,-354,718,-236,6,-63,0,0,0,1,204594395
16127,2023-01-20 11:09:30.340019,204694397,0,-43,-358,725,-236,6,-63,0,0,0,1,204694394
16162,2023-01-20 11:09:30.440082,204794458,0,-45,-359,712,-236,6,-63,0,0,0,1,204794454
16194,2023-01-20 11:09:30.540019,204894414,0,-43,-358,709,-236,6,-63,0,0,0,1,204894410
16228,2023-01-20 11:09:30.639997,204994405,0,-41,-349,717,-236,6,-63,0,0,0,1,204994402
16258,2023-01-20 11:09:30.739986,205094400,0,-72,-360,737,-236,6,-63,0,0,0,1,205094397
16293,2023-01-20 11:09:30.839990,205194393,0,-44,-352,732,-236,6,-63,0,0,0,1,205194389
16349,2023-01-20 11:09:30.940058,205294426,0,-77,-353,746,-236,6,-63,0,0,0,1,205294422
16402,2023-01-20 11:09:31.040093,205394443,0,-65,-363,738,-236,6,-63,0,0,0,1,205394439
16432,2023-01-20 11:09:31.140056,205494412,0,-59,-368,724,-236,6,-63,0,0,0,1,205494408
16466,2023-01-20 11:09:31.240049,205594412,0,-58,-363,724,-236,6,-63,0,0,0,1,205594408
16497,2023-01-20 11:09:31.340027,205694397,0,-54,-362,711,-236,6,-63,0,0,0,1,205694393
16532,2023-01-20 11:09:31.440024,205794406,0,-38,-359,714,-236,6,-63,0,0,0,1,205794403
16562,2023-01-20 11:09:31.540008,205894406,0,-2,-364,646,-236,6,-63,0,0,0,1,205894403
16596,2023-01-20 11:09:31.640004,205994404,0,6,-359,643,-236,6,-63,0,0,0,1,205994400
16626,2023-01-20 11:09:31.740058,206094438,0,-47,-367,703,-236,6,-63,0,0,0,1,206094435
16661,2023-01-20 11:09:31.840024,206194391,0,-50,-356,735,-236,6,-63,0,0,0,1,206194387
16694,2023-01-20 11:09:31.940047,206294411,0,-53,-363,723,-236,6,-63,0,0,0,1,206294407
16727,2023-01-20 11:09:32.040030,206394391,0,-30,-349,687,-236,6,-63,0,0,0,1,206394387
16757,2023-01-20 11:09:32.140049,206494409,0,4,-358,651,-236,6,-63,0,0,0,1,206494405
16792,2023-01-20 11:09:32.240023,206594386,0,-10,-363,648,-236,6,-63,0,0,0,1,206594382
16823,2023-01-20 11:09:32.340056,206694425,0,-27,-357,696,-236,6,-63,0,0,0,1,206694421
16858,2023-01-20 11:09:32.440032,206794413,0,-56,-361,729,-236,6,-63,0,0,0,1,206794410
16888,2023-01-20 11:09:32.539991,206894392,0,-49,-362,725,-236,6,-63,0,0,0,1,206894388
16922,2023-01-20 11:09:32.639973,206994387,0,-38,-355,714,-236,6,-63,0,0,0,1,206994383
16952,2023-01-20 11:09:32.739974,207094390,0,-40,-368,699,-236,6,-63,0,0,0,1,207094386
16987,2023-01-20 11:09:32.839992,207194398,0,-36,-363,707,-236,6,-63,0,0,0,1,207194394
17020,2023-01-20 11:09:32.940041,207294418,0,-56,-364,709,-236,6,-63,0,0,0,1,207294414
17053,2023-01-20 11:09:33.040082,207394441,0,-25,-357,689,-236,6,-63,0,0,0,1,207394437
17083,2023-01-20 11:09:33.140074,207494432,0,-37,-362,691,-236,6,-63,0,0,0,1,207494429
17118,2023-01-20 11:09:33.240022,207594392,0,-50,-352,719,-236,6,-63,0,0,0,1,207594388
17149,2023-01-20 11:09:33.339995,207694397,0,-59,-363,723,-236,6,-63,0,0,0,1,207694393
17184,2023-01-20 11:09:33.439990,207794411,0,-48,-364,716,-236,6,-63,0,0,0,1,207794408
17214,2023-01-20 11:09:33.539975,207894394,0,-60,-366,725,-236,6,-63,0,0,0,1,207894390
17248,2023-01-20 11:09:33.640037,207994446,0,-61,-371,722,-236,6,-63,0,0,0,1,207994443
17278,2023-01-20 11:09:33.740006,208094393,0,-54,-366,704,-236,6,-63,0,0,0,1,208094389
17313,2023-01-20 11:09:33.840087,208194457,0,-35,-362,690,-236,6,-63,0,0,0,1,208194453
17346,2023-01-20 11:09:33.940039,208294402,0,-46,-368,697,-236,6,-63,0,0,0,1,208294399
17379,2023-01-20 11:09:34.040032,208394390,0,-49,-360,710,-236,6,-63,0,0,0,1,208394386
17409,2023-01-20 11:09:34.140060,208494416,0,-46,-355,719,-236,6,-63,0,0,0,1,208494411
17444,2023-01-20 11:09:34.240052,208594407,0,-65,-368,709,-236,6,-63,0,0,0,1,208594403
17475,2023-01-20 11:09:34.340076,208694432,0,-47,-356,715,-236,6,-63,0,0,0,1,208694428
17510,2023-01-20 11:09:34.440052,208794418,0,-47,-361,723,-236,6,-63,0,0,0,1,208794414
17540,2023-01-20 11:09:34.540011,208894402,0,-43,-355,719,-236,6,-63,0,0,0,1,208894399
17574,2023-01-20 11:09:34.640006,208994403,0,-47,-367,700,-236,6,-63,0,0,0,1,208994400
17605,2023-01-20 11:09:34.740029,209094407,0,-53,-362,707,-236,6,-63,0,0,0,1,209094403
17640,2023-01-20 11:09:34.840028,209194393,0,-47,-360,715,-236,6,-63,0,0,0,1,209194389
17673,2023-01-20 11:09:34.940090,209294451,0,-62,-358,720,-236,6,-63,0,0,0,1,209294447
17706,2023-01-20 11:09:35.040035,209394393,0,-45,-350,712,-236,6,-63,0,0,0,1,209394389
17736,2023-01-20 11:09:35.140062,209494421,0,-17,-360,680,-236,6,-63,0,0,0,1,209494417
17771,2023-01-20 11:09:35.240025,209594397,0,-34,-354,696,-236,6,-63,0,0,0,1,209594394
17802,2023-01-20 11:09:35.339986,209694388,0,-39,-357,717,-236,6,-63,0,0,0,1,209694384
17837,2023-01-20 11:09:35.440004,209794417,0,-62,-360,730,-236,6,-63,0,0,0,1,209794414
17869,2023-01-20 11:09:35.539998,209894393,0,-72,-359,731,-236,6,-63,0,0,0,1,209894390
17903,2023-01-20 11:09:35.640048,209994430,0,-75,-366,744,-236,6,-63,0,0,0,1,209994426
17933,2023-01-20 11:09:35.740034,210094407,0,-58,-356,710,-236,6,-63,0,0,0,1,210094404
17968,2023-01-20 11:09:35.840079,210194453,0,-59,-362,715,-236,6,-63,0,0,0,1,210194449
18001,2023-01-20 11:09:35.940013,210294403,0,-62,-359,730,-236,6,-63,0,0,0,1,210294399
18034,2023-01-20 11:09:36.040014,210394404,0,-84,-359,745,-236,6,-63,0,0,0,1,210394401
18064,2023-01-20 11:09:36.140052,210494419,0,-75,-366,741,-236,6,-63,0,0,0,1,210494415
18099,2023-01-20 11:09:36.240039,210594392,0,-87,-361,747,-236,6,-63,0,0,0,1,210594388
18130,2023-01-20 11:09:36.340063,210694416,0,-97,-367,751,-236,6,-63,0,0,0,1,210694413
18165,2023-01-20 11:09:36.436467,210794436,0,-78,-359,753,-236,6,-63,0,0,0,1,210794432
18195,2023-01-20 11:09:36.527416,210894402,0,-66,-355,749,-236,6,-63,0,0,0,1,210894398
18229,2023-01-20 11:09:36.620213,210994394,0,-81,-361,754,-236,6,-63,0,0,0,1,210994391
18259,2023-01-20 11:09:36.720226,211094404,0,-81,-362,774,-236,6,-63,0,0,0,1,211094400
18294,2023-01-20 11:09:36.820221,211194393,0,-83,-358,755,-236,6,-63,0,0,0,1,211194389
18327,2023-01-20 11:09:36.920308,211294466,0,-82,-364,749,-236,6,-63,0,0,0,1,211294462
18360,2023-01-20 11:09:37.020245,211394395,0,-78,-369,758,-236,6,-63,0,0,0,1,211394391
18390,2023-01-20 11:09:37.120235,211494402,0,-65,-369,733,-236,6,-63,0,0,0,1,211494399
18425,2023-01-20 11:09:37.220202,211594389,0,-64,-368,733,-236,6,-63,0,0,0,1,211594385
18456,2023-01-20 11:09:37.320180,211694399,0,-64,-372,716,-236,6,-63,0,0,0,1,211694395
18491,2023-01-20 11:09:37.422396,211794419,0,-57,-376,727,-236,6,-63,0,0,0,1,211794415
18521,2023-01-20 11:09:37.533394,211894403,0,-38,-369,711,-236,6,-63,0,0,0,1,211894399
18555,2023-01-20 11:09:37.636407,211994439,0,-63,-376,711,-236,6,-63,0,0,0,1,211994435
18585,2023-01-20 11:09:37.727315,212094415,0,-61,-371,725,-236,6,-63,0,0,0,1,212094412
18620,2023-01-20 11:09:37.820103,212194449,0,-51,-369,722,-236,6,-63,0,0,0,1,212194445
18653,2023-01-20 11:09:37.920080,212294408,0,-36,-376,705,-236,6,-63,0,0,0,1,212294405
18686,2023-01-20 11:09:38.020095,212394411,0,-41,-380,713,-236,6,-63,0,0,0,1,212394407
18716,2023-01-20 11:09:38.120086,212494414,0,-65,-381,722,-236,6,-63,0,0,0,1,212494407
18751,2023-01-20 11:09:38.220104,212594444,0,-62,-374,722,-236,6,-63,0,0,0,1,212594440
18782,2023-01-20 11:09:38.320047,212694404,0,-67,-388,730,-236,6,-63,0,0,0,1,212694401
18817,2023-01-20 11:09:38.420043,212794416,0,-53,-390,713,-236,6,-63,0,0,0,1,212794413
18847,2023-01-20 11:09:38.520010,212894399,0,-54,-380,708,-236,6,-63,0,0,0,1,212894395
18881,2023-01-20 11:09:38.620005,212994404,0,-47,-382,700,-236,6,-63,0,0,0,1,212994400
18911,2023-01-20 11:09:38.720030,213094416,0,-40,-378,705,-236,6,-63,0,0,0,1,213094413
18946,2023-01-20 11:09:38.820027,213194401,0,-36,-376,690,-236,6,-63,0,0,0,1,213194398
18979,2023-01-20 11:09:38.920092,213294454,0,-50,-374,692,-236,6,-63,0,0,0,1,213294451
19012,2023-01-20 11:09:39.020046,213394400,0,-36,-378,699,-236,6,-63,0,0,0,1,213394396
19042,2023-01-20 11:09:39.120050,213494408,0,-47,-380,700,-236,6,-63,0,0,0,1,213494404
19077,2023-01-20 11:09:39.220026,213594393,0,-47,-379,709,-236,6,-63,0,0,0,1,213594389
19108,2023-01-20 11:09:39.320004,213694395,0,-69,-383,721,-236,6,-63,0,0,0,1,213694391
19143,2023-01-20 11:09:39.420017,213794426,0,-49,-374,685,-236,6,-63,0,0,0,1,213794422
19173,2023-01-20 11:09:39.520027,213894432,0,-53,-381,715,-236,6,-63,0,0,0,1,213894429
19207,2023-01-20 11:09:39.619999,213994399,0,-34,-377,698,-236,6,-63,0,0,0,1,213994395
19237,2023-01-20 11:09:39.720018,214094405,0,-23,-367,682,-236,6,-63,0,0,0,1,214094401
19276,2023-01-20 11:09:39.820021,214194396,0,-23,-369,690,-236,6,-63,0,0,0,1,214194393
19309,2023-01-20 11:09:39.920055,214294418,0,-29,-369,687,-236,6,-63,0,0,0,1,214294414
19342,2023-01-20 11:09:40.020043,214394398,0,-49,-370,701,-236,6,-63,0,0,0,1,214394395
19372,2023-01-20 11:09:40.120057,214494416,0,-32,-371,686,-236,6,-63,0,0,0,1,214494413
19407,2023-01-20 11:09:40.220078,214594440,0,-42,-365,694,-236,6,-63,0,0,0,1,214594437
19438,2023-01-20 11:09:40.320032,214694397,0,-13,-365,677,-236,6,-63,0,0,0,1,214694393
19473,2023-01-20 11:09:40.420040,214794411,0,-33,-367,677,-236,6,-63,0,0,0,1,214794407
19505,2023-01-20 11:09:40.520002,214894394,0,-15,-359,669,-236,6,-63,0,0,0,1,214894390
19539,2023-01-20 11:09:40.620002,214994407,0,-41,-359,697,-236,6,-63,0,0,0,1,214994403
19569,2023-01-20 11:09:40.720012,215094400,0,-47,-365,707,-236,6,-63,0,0,0,1,215094397
19604,2023-01-20 11:09:40.820073,215194445,0,-39,-370,681,-236,6,-63,0,0,0,1,215194442
19637,2023-01-20 11:09:40.920059,215294419,0,-35,-371,678,-236,6,-63,0,0,0,1,215294415
19670,2023-01-20 11:09:41.020039,215394390,0,-25,-371,666,-236,6,-63,0,0,0,1,215394386
19700,2023-01-20 11:09:41.120059,215494412,0,-40,-373,677,-236,6,-63,0,0,0,1,215494408
19735,2023-01-20 11:09:41.220044,215594404,0,-32,-373,679,-236,6,-63,0,0,0,1,215594400
19766,2023-01-20 11:09:41.320007,215694399,0,-35,-375,676,-236,6,-63,0,0,0,1,215694395
19801,2023-01-20 11:09:41.420006,215794422,0,-38,-373,693,-236,6,-63,0,0,0,1,215794418
19831,2023-01-20 11:09:41.520030,215894439,0,-30,-376,678,-236,6,-63,0,0,0,1,215894435
19865,2023-01-20 11:09:41.620006,215994406,0,-39,-373,692,-236,6,-63,0,0,0,1,215994403
19895,2023-01-20 11:09:41.720005,216094397,0,-49,-375,703,-236,6,-63,0,0,0,1,216094394
19930,2023-01-20 11:09:41.820016,216194403,0,-32,-377,685,-236,6,-63,0,0,0,1,216194400
19963,2023-01-20 11:09:41.920019,216294410,0,-28,-378,679,-236,6,-63,0,0,0,1,216294407
19996,2023-01-20 11:09:42.020015,216394405,0,-37,-376,681,-236,6,-63,0,0,0,1,216394402
20026,2023-01-20 11:09:42.120085,216494459,0,-25,-367,682,-236,6,-63,0,0,0,1,216494456
20061,2023-01-20 11:09:42.220039,216594401,0,-31,-369,681,-236,6,-63,0,0,0,1,216594398
20092,2023-01-20 11:09:42.320024,216694394,0,-41,-379,687,-236,6,-63,0,0,0,1,216694390
20127,2023-01-20 11:09:42.420041,216794421,0,-35,-383,691,-236,6,-63,0,0,0,1,216794417
20157,2023-01-20 11:09:42.520013,216894407,0,-42,-379,684,-236,6,-63,0,0,0,1,216894403
20191,2023-01-20 11:09:42.619997,216994400,0,-51,-382,693,-236,6,-63,0,0,0,1,216994396
20221,2023-01-20 11:09:42.720017,217094411,0,-52,-380,695,-236,6,-63,0,0,0,1,217094407
20256,2023-01-20 11:09:42.820066,217194450,0,-28,-379,677,-236,6,-63,0,0,0,1,217194446
20289,2023-01-20 11:09:42.920046,217294413,0,-49,-388,684,-236,6,-63,0,0,0,1,217294409
20321,2023-01-20 11:09:43.020046,217394399,0,-40,-387,691,-236,6,-63,0,0,0,1,217394395
20351,2023-01-20 11:09:43.120056,217494410,0,-40,-384,673,-236,6,-63,0,0,0,1,217494407
20386,2023-01-20 11:09:43.220052,217594410,0,-45,-387,674,-236,6,-63,0,0,0,1,217594407
20417,2023-01-20 11:09:43.320041,217694412,0,-67,-395,696,-236,6,-63,0,0,0,1,217694409
20452,2023-01-20 11:09:43.420076,217794460,0,-73,-387,721,-236,6,-63,0,0,0,1,217794456
20482,2023-01-20 11:09:43.520010,217894404,0,-68,-379,726,-236,6,-63,0,0,0,1,217894401
20516,2023-01-20 11:09:43.619996,217994396,0,-88,-378,738,-236,6,-63,0,0,0,1,217994393
20546,2023-01-20 11:09:43.720006,218094395,0,-85,-378,747,-236,6,-63,0,0,0,1,218094391
20581,2023-01-20 11:09:43.820028,218194410,0,-102,-385,758,-236,6,-63,0,0,0,1,218194406
20614,2023-01-20 11:09:43.920022,218294415,0,-79,-384,740,-236,6,-63,0,0,0,1,218294412
20647,2023-01-20 11:09:44.020014,218394410,0,-76,-380,722,-236,6,-63,0,0,0,1,218394406
20677,2023-01-20 11:09:44.120092,218494466,0,-77,-382,730,-236,6,-63,0,0,0,1,218494462
20712,2023-01-20 11:09:44.220034,218594392,0,-82,-380,749,-236,6,-63,0,0,0,1,218594389
20743,2023-01-20 11:09:44.320030,218694398,0,-78,-379,740,-236,6,-63,0,0,0,1,218694394
20778,2023-01-20 11:09:44.420029,218794413,0,-95,-379,753,-236,6,-63,0,0,0,1,218794409
20808,2023-01-20 11:09:44.519984,218894406,0,-78,-378,747,-236,6,-63,0,0,0,1,218894402
20842,2023-01-20 11:09:44.619962,218994406,0,-93,-383,749,-236,6,-63,0,0,0,1,218994402
20872,2023-01-20 11:09:44.720033,219094436,0,-72,-372,727,-236,6,-63,0,0,0,1,219094432
20907,2023-01-20 11:09:44.820035,219194403,0,-71,-375,721,-236,6,-63,0,0,0,1,219194399
20941,2023-01-20 11:09:44.920059,219294418,0,-62,-369,731,-236,6,-63,0,0,0,1,219294410
20974,2023-01-20 11:09:45.020040,219394391,0,-61,-367,712,-236,6,-63,0,0,0,1,219394387
21004,2023-01-20 11:09:45.120067,219494417,0,-48,-366,725,-236,6,-63,0,0,0,1,219494414
21039,2023-01-20 11:09:45.220062,219594414,0,-57,-364,731,-236,6,-63,0,0,0,1,219594410
21070,2023-01-20 11:09:45.320032,219694397,0,-67,-374,732,-236,6,-63,0,0,0,1,219694393
21105,2023-01-20 11:09:45.420092,219794465,0,-62,-367,724,-236,6,-63,0,0,0,1,219794461
21137,2023-01-20 11:09:45.520144,219894508,0,-42,-368,710,-236,6,-63,0,0,0,1,219894505
21171,2023-01-20 11:09:45.618298,219994489,0,-80,-377,735,-236,6,-63,0,0,0,1,219994485
21201,2023-01-20 11:09:45.709101,220094395,0,-70,-368,709,-236,6,-63,0,0,0,1,220094391
21236,2023-01-20 11:09:45.800096,220194502,0,-64,-365,726,-236,6,-63,0,0,0,1,220194498
21269,2023-01-20 11:09:45.899971,220294415,0,-45,-365,708,-236,6,-63,0,0,0,1,220294411
21302,2023-01-20 11:09:46.000092,220394574,0,-43,-370,717,-236,6,-63,0,0,0,1,220394570
21332,2023-01-20 11:09:46.099974,220494422,0,-55,-365,713,-236,6,-63,0,0,0,1,220494418
21367,2023-01-20 11:09:46.200093,220594507,0,-52,-367,717,-236,6,-63,0,0,0,1,220594503
21398,2023-01-20 11:09:46.299963,220694391,0,-51,-372,717,-236,6,-63,0,0,0,1,220694388
21433,2023-01-20 11:09:46.400091,220794533,0,-50,-386,703,-236,6,-63,0,0,0,1,220794529
21463,2023-01-20 11:09:46.499948,220894400,0,-45,-380,689,-236,6,-63,0,0,0,1,220894392
21497,2023-01-20 11:09:46.600092,220994555,0,-43,-384,703,-236,6,-63,0,0,0,1,220994551
21527,2023-01-20 11:09:46.699992,221094447,0,-46,-383,707,-236,6,-63,0,0,0,1,221094444
21562,2023-01-20 11:09:46.800088,221194535,0,-56,-381,701,-236,6,-63,0,0,0,1,221194531
21595,2023-01-20 11:09:46.899945,221294413,0,-66,-382,722,-236,6,-63,0,0,0,1,221294409
21628,2023-01-20 11:09:47.000093,221394583,0,-60,-371,712,-236,6,-63,0,0,0,1,221394579
21658,2023-01-20 11:09:47.099919,221494415,0,-73,-383,719,-236,6,-63,0,0,0,1,221494411
21693,2023-01-20 11:09:47.200088,221594590,0,-61,-380,729,-236,6,-63,0,0,0,1,221594586
21724,2023-01-20 11:09:47.299920,221694448,0,-60,-381,712,-236,6,-63,0,0,0,1,221694444
21759,2023-01-20 11:09:47.400095,221794649,0,-20,-370,674,-236,6,-63,0,0,0,1,221794645
21789,2023-01-20 11:09:47.499813,221894404,0,-36,-372,683,-236,6,-63,0,0,0,1,221894400
21872,2023-01-20 11:09:47.600088,221994717,0,-59,-376,706,-236,6,-63,0,0,0,1,221994713
21902,2023-01-20 11:09:47.699792,222094402,0,-34,-371,686,-236,6,-63,0,0,0,1,222094398
21937,2023-01-20 11:09:47.800100,222194691,0,-23,-371,687,-236,6,-63,0,0,0,1,222194676
21970,2023-01-20 11:09:47.899871,222294429,0,-31,-382,675,-236,6,-63,0,0,0,1,222294425
22003,2023-01-20 11:09:48.000107,222394631,0,-14,-375,656,-236,6,-63,0,0,0,1,222394628
22033,2023-01-20 11:09:48.099855,222494419,0,-35,-382,652,-236,6,-63,0,0,0,1,222494416
22067,2023-01-20 11:09:48.200088,222594692,0,-13,-376,649,-236,6,-63,0,0,0,1,222594688
22099,2023-01-20 11:09:48.299786,222694397,0,-16,-375,648,-236,6,-63,0,0,0,1,222694393
22134,2023-01-20 11:09:48.400100,222794718,0,-29,-379,664,-236,6,-63,0,0,0,1,222794715
22164,2023-01-20 11:09:48.499737,222894391,0,-26,-373,668,-236,6,-63,0,0,0,1,222894387
22198,2023-01-20 11:09:48.600088,222994778,0,-33,-379,665,-236,6,-63,0,0,0,1,222994774
22228,2023-01-20 11:09:48.699740,223094389,0,-24,-378,661,-236,6,-63,0,0,0,1,223094386
22263,2023-01-20 11:09:48.800088,223194696,0,-19,-381,647,-236,6,-63,0,0,0,1,223194692
22296,2023-01-20 11:09:48.899807,223294414,0,-26,-385,659,-236,6,-63,0,0,0,1,223294410
22329,2023-01-20 11:09:49.000089,223394695,0,-30,-384,666,-236,6,-63,0,0,0,1,223394691
22359,2023-01-20 11:09:49.099813,223494417,0,-25,-383,646,-236,6,-63,0,0,0,1,223494414
22393,2023-01-20 11:09:49.200095,223594697,0,-26,-382,661,-236,6,-63,0,0,0,1,223594693
22425,2023-01-20 11:09:49.299834,223694444,0,-47,-388,673,-236,6,-63,0,0,0,1,223694440
22460,2023-01-20 11:09:49.400095,223794712,0,-55,-392,702,-236,6,-63,0,0,0,1,223794708
22490,2023-01-20 11:09:49.499766,223894398,0,-62,-390,714,-236,6,-63,0,0,0,1,223894394
22524,2023-01-20 11:09:49.600088,223994735,0,-67,-380,731,-236,6,-63,0,0,0,1,223994732
22554,2023-01-20 11:09:49.699776,224094408,0,-65,-383,710,-236,6,-63,0,0,0,1,224094404
22590,2023-01-20 11:09:49.800088,224194705,0,-74,-390,703,-236,6,-63,0,0,0,1,224194701
22623,2023-01-20 11:09:49.899848,224294457,0,-59,-387,696,-236,6,-63,0,0,0,1,224294454
22657,2023-01-20 11:09:50.000092,224394692,0,-79,-392,715,-236,6,-63,0,0,0,1,224394688
22687,2023-01-20 11:09:50.099824,224494428,0,-71,-396,714,-236,6,-63,0,0,0,1,224494425
22721,2023-01-20 11:09:50.200088,224594695,0,-56,-392,689,-236,6,-63,0,0,0,1,224594692
22753,2023-01-20 11:09:50.299795,224694414,0,-28,-391,665,-236,6,-63,0,0,0,1,224694410
22788,2023-01-20 11:09:50.400107,224794739,0,-82,-407,713,-236,6,-63,0,0,0,1,224794736
22820,2023-01-20 11:09:50.499979,224894650,0,-63,-388,693,-236,6,-63,0,0,0,1,224894646
22854,2023-01-20 11:09:50.600088,224994799,0,-65,-400,697,-236,6,-63,0,0,0,1,224994795
22884,2023-01-20 11:09:50.699746,225094412,0,-48,-387,684,-236,6,-63,0,0,0,1,225094409
22919,2023-01-20 11:09:50.800089,225194710,0,-49,-405,693,-236,6,-63,0,0,0,1,225194706
22952,2023-01-20 11:09:50.899806,225294421,0,-32,-394,675,-236,6,-63,0,0,0,1,225294417
22985,2023-01-20 11:09:51.000092,225394702,0,-38,-394,687,-236,6,-63,0,0,0,1,225394699
23015,2023-01-20 11:09:51.099791,225494416,0,-46,-394,699,-236,6,-63,0,0,0,1,225494412
23049,2023-01-20 11:09:51.200088,225594728,0,-49,-391,685,-236,6,-63,0,0,0,1,225594724
23081,2023-01-20 11:09:51.299766,225694404,0,-31,-386,676,-236,6,-63,0,0,0,1,225694400
23116,2023-01-20 11:09:51.400093,225794730,0,-47,-388,690,-236,6,-63,0,0,0,1,225794726
23146,2023-01-20 11:09:51.499778,225894415,0,-63,-386,708,-236,6,-63,0,0,0,1,225894411
23180,2023-01-20 11:09:51.600089,225994727,0,-53,-382,697,-236,6,-63,0,0,0,1,225994723
23210,2023-01-20 11:09:51.699781,226094397,0,-35,-379,691,-236,6,-63,0,0,0,1,226094393
23245,2023-01-20 11:09:51.800088,226194682,0,-49,-380,687,-236,6,-63,0,0,0,1,226194679
23278,2023-01-20 11:09:51.899857,226294461,0,-44,-376,690,-236,6,-63,0,0,0,1,226294457
23311,2023-01-20 11:09:52.000107,226394721,0,-50,-377,704,-236,6,-63,0,0,0,1,226394717
23341,2023-01-20 11:09:52.099797,226494410,0,-62,-386,719,-236,6,-63,0,0,0,1,226494406
23375,2023-01-20 11:09:52.200088,226594699,0,-45,-377,696,-236,6,-63,0,0,0,1,226594695
23407,2023-01-20 11:09:52.299784,226694408,0,-67,-378,728,-236,6,-63,0,0,0,1,226694405
23442,2023-01-20 11:09:52.400088,226794726,0,-60,-375,718,-236,6,-63,0,0,0,1,226794722
23472,2023-01-20 11:09:52.499764,226894413,0,-63,-382,730,-236,6,-63,0,0,0,1,226894409
23506,2023-01-20 11:09:52.600088,226994747,0,-49,-379,700,-236,6,-63,0,0,0,1,226994743
23536,2023-01-20 11:09:52.699780,227094403,0,-56,-390,702,-236,6,-63,0,0,0,1,227094399
23571,2023-01-20 11:09:52.800103,227194689,0,-59,-391,694,-236,6,-63,0,0,0,1,227194686
23604,2023-01-20 11:09:52.899813,227294418,0,-48,-379,712,-236,6,-63,0,0,0,1,227294415
23637,2023-01-20 11:09:53.000092,227394716,0,-49,-378,711,-236,6,-63,0,0,0,1,227394712
23667,2023-01-20 11:09:53.099769,227494397,0,-77,-390,725,-236,6,-63,0,0,0,1,227494393
23701,2023-01-20 11:09:53.200088,227594721,0,-63,-384,711,-236,6,-63,0,0,0,1,227594717
23733,2023-01-20 11:09:53.299780,227694401,0,-51,-384,704,-236,6,-63,0,0,0,1,227694394
23768,2023-01-20 11:09:53.400098,227794707,0,-69,-382,716,-236,6,-63,0,0,0,1,227794703
23798,2023-01-20 11:09:53.499779,227894403,0,-61,-380,713,-236,6,-63,0,0,0,1,227894399
23832,2023-01-20 11:09:53.600092,227994732,0,-45,-377,682,-236,6,-63,0,0,0,1,227994729
23862,2023-01-20 11:09:53.699755,228094399,0,-19,-375,667,-236,6,-63,0,0,0,1,228094396
23897,2023-01-20 11:09:53.800088,228194736,0,-34,-386,673,-236,6,-63,0,0,0,1,228194732
23930,2023-01-20 11:09:53.899830,228294456,0,-27,-388,694,-236,6,-63,0,0,0,1,228294453
23963,2023-01-20 11:09:54.000088,228394691,0,-15,-375,667,-236,6,-63,0,0,0,1,228394687
23993,2023-01-20 11:09:54.099807,228494405,0,-15,-378,652,-236,6,-63,0,0,0,1,228494402
24026,2023-01-20 11:09:54.200093,228594686,0,0,-376,648,-236,6,-63,0,0,0,1,228594682
24058,2023-01-20 11:09:54.299801,228694404,0,-8,-378,643,-236,6,-63,0,0,0,1,228694400
24093,2023-01-20 11:09:54.400091,228794705,0,-24,-379,659,-236,6,-63,0,0,0,1,228794701
24123,2023-01-20 11:09:54.499822,228894448,0,-29,-373,667,-236,6,-63,0,0,0,1,228894444
24157,2023-01-20 11:09:54.600092,228994730,0,-40,-380,661,-236,6,-63,0,0,0,1,228994727
24187,2023-01-20 11:09:54.699783,229094398,0,-21,-376,648,-236,6,-63,0,0,0,1,229094394
24222,2023-01-20 11:09:54.800089,229194680,0,-28,-378,675,-236,6,-63,0,0,0,1,229194676
24255,2023-01-20 11:09:54.899831,229294422,0,-52,-377,688,-236,6,-63,0,0,0,1,229294418
24288,2023-01-20 11:09:55.000103,229394695,0,-44,-373,689,-236,6,-63,0,0,0,1,229394691
24319,2023-01-20 11:09:55.099777,229494401,0,-41,-369,683,-236,6,-63,0,0,0,1,229494397
24353,2023-01-20 11:09:55.200089,229594746,0,-28,-371,671,-236,6,-63,0,0,0,1,229594742
24385,2023-01-20 11:09:55.299764,229694394,0,-36,-380,675,-236,6,-63,0,0,0,1,229694390
24420,2023-01-20 11:09:55.400091,229794693,0,-31,-373,681,-236,6,-63,0,0,0,1,229794689
24450,2023-01-20 11:09:55.499788,229894417,0,-37,-377,674,-236,6,-63,0,0,0,1,229894414
24486,2023-01-20 11:09:55.600101,229994758,0,-23,-378,665,-236,6,-63,0,0,0,1,229994754
24516,2023-01-20 11:09:55.699727,230094406,0,-23,-377,654,-236,6,-63,0,0,0,1,230094402
24551,2023-01-20 11:09:55.800080,230194790,0,-49,-381,704,-236,6,-63,0,0,0,1,230194787
24584,2023-01-20 11:09:55.890851,230294411,0,-51,-380,690,-236,6,-63,0,0,0,1,230294404
24615,2023-01-20 11:09:55.982136,230394595,0,-45,-384,697,-236,6,-63,0,0,0,1,230394591
24647,2023-01-20 11:09:56.080235,230494413,0,-17,-375,662,-236,6,-63,0,0,0,1,230494409
24679,2023-01-20 11:09:56.180489,230594639,0,-26,-375,675,-236,6,-63,0,0,0,1,230594636
24713,2023-01-20 11:09:56.280241,230694405,0,-52,-375,709,-236,6,-63,0,0,0,1,230694401
24746,2023-01-20 11:09:56.380470,230794657,0,-43,-380,696,-236,6,-63,0,0,0,1,230794650
