LineNo,UTC_Approx,TimeUS,chan,txp,rxp,rxdp,flags,ss,tf
1991,2023-01-20 11:08:48.165022,162419341,2,9838,258,0,6,0,0
2506,2023-01-20 11:08:49.147384,163421498,2,9922,259,0,6,0,0
2910,2023-01-20 11:08:50.149918,164424000,2,10003,260,0,6,0,0
3310,2023-01-20 11:08:51.149775,165424005,2,10084,261,0,6,0,0
3706,2023-01-20 11:08:52.152252,166426577,2,10165,262,0,6,0,0
4029,2023-01-20 11:08:53.154704,167429061,2,10246,263,0,6,0,0
4354,2023-01-20 11:08:54.157665,168432086,2,10327,264,0,6,0,0
4677,2023-01-20 11:08:55.159698,169434080,2,10408,265,0,6,0,0
5002,2023-01-20 11:08:56.162235,170436616,2,10490,266,0,6,0,0
5326,2023-01-20 11:08:57.164696,171439078,2,10571,267,0,6,0,0
5651,2023-01-20 11:08:58.167217,172441603,2,10653,268,0,6,0,0
5976,2023-01-20 11:08:59.154689,173444595,2,10734,269,0,6,0,0
6300,2023-01-20 11:09:00.151950,174446562,2,10815,270,0,6,0,0
6626,2023-01-20 11:09:01.154598,175449117,2,10896,271,0,6,0,0
6950,2023-01-20 11:09:02.156919,176451556,2,10977,272,0,6,0,0
7273,2023-01-20 11:09:03.159428,177454088,2,11058,273,0,6,0,0
7599,2023-01-20 11:09:04.162188,178456874,2,11139,274,0,6,0,0
7922,2023-01-20 11:09:05.164829,179459489,2,11220,275,0,6,0,0
8247,2023-01-20 11:09:06.166889,180461569,2,11302,276,0,6,0,0
8570,2023-01-20 11:09:07.169437,181464082,2,11383,277,0,6,0,0
8894,2023-01-20 11:09:08.171980,182466659,2,11464,278,0,6,0,0
9219,2023-01-20 11:09:09.159171,183469394,2,11547,279,0,6,0,0
9545,2023-01-20 11:09:10.157329,184471576,2,11628,280,0,6,0,0
9871,2023-01-20 11:09:11.159725,185474121,2,11709,281,0,6,0,0
10194,2023-01-20 11:09:12.162210,186476649,2,11790,282,0,6,0,0
10518,2023-01-20 11:09:13.164663,187479056,2,11871,283,0,6,0,0
10841,2023-01-20 11:09:14.167429,188481820,2,11952,284,0,6,0,0
11166,2023-01-20 11:09:15.169659,189484055,2,12039,285,0,6,0,0
11494,2023-01-20 11:09:16.172252,190486619,2,12128,286,0,6,0,0
11817,2023-01-20 11:09:17.174684,191489051,2,12211,287,0,6,0,0
12141,2023-01-20 11:09:18.177190,192491587,2,12294,288,0,6,0,0
12468,2023-01-20 11:09:19.160141,193494464,2,12377,289,0,6,0,0
12799,2023-01-20 11:09:20.162405,194496762,2,12460,290,0,6,0,0
13148,2023-01-20 11:09:21.164680,195499057,2,12543,291,0,6,0,0
13474,2023-01-20 11:09:22.167144,196501553,2,12626,292,0,6,0,0
13800,2023-01-20 11:09:23.169679,197504046,2,12709,293,0,6,0,0
14126,2023-01-20 11:09:24.172410,198506820,2,12792,294,0,6,0,0
14453,2023-01-20 11:09:25.174707,199509078,2,12875,295,0,6,0,0
14781,2023-01-20 11:09:26.177150,200511558,2,12959,296,0,6,0,0
15107,2023-01-20 11:09:27.179730,201514102,2,13042,297,0,6,0,0
15433,2023-01-20 11:09:28.182216,202516571,2,13125,298,0,6,0,0
15759,2023-01-20 11:09:29.165030,203519343,2,13208,299,0,6,0,0
16087,2023-01-20 11:09:30.167207,204521592,2,13294,300,0,6,0,0
16458,2023-01-20 11:09:31.169716,205524074,2,13377,301,0,6,0,0
16784,2023-01-20 11:09:32.172220,206526580,2,13460,302,0,6,0,0
17110,2023-01-20 11:09:33.174689,207529046,2,13543,303,0,6,0,0
17436,2023-01-20 11:09:34.177670,208532024,2,13626,304,0,6,0,0
17763,2023-01-20 11:09:35.179692,209534052,2,13709,305,0,6,0,0
18091,2023-01-20 11:09:36.182216,210536573,2,13793,306,0,6,0,0
18417,2023-01-20 11:09:37.164855,211539029,2,13876,307,0,6,0,0
18743,2023-01-20 11:09:38.167256,212541589,2,13959,308,0,6,0,0
19069,2023-01-20 11:09:39.172172,213546533,2,14042,309,0,6,0,0
19399,2023-01-20 11:09:40.174668,214549029,2,14127,310,0,6,0,0
19727,2023-01-20 11:09:41.177198,215551552,2,14210,311,0,6,0,0
20053,2023-01-20 11:09:42.179728,216554091,2,14293,312,0,6,0,0
20379,2023-01-20 11:09:43.182462,217556817,2,14376,313,0,6,0,0
20705,2023-01-20 11:09:44.185105,218559464,2,14459,314,0,6,0,0
21032,2023-01-20 11:09:45.187211,219561560,2,14542,315,0,6,0,0
21360,2023-01-20 11:09:46.169695,220564119,2,14626,316,0,6,0,0
21686,2023-01-20 11:09:47.172081,221566581,2,14709,317,0,6,0,0
22061,2023-01-20 11:09:48.174823,222569417,2,14792,318,0,6,0,0
22387,2023-01-20 11:09:49.176936,223571538,2,14875,319,0,6,0,0
22715,2023-01-20 11:09:50.179471,224574077,2,14958,320,0,6,0,0
23044,2023-01-20 11:09:51.181990,225576627,2,15041,321,0,6,0,0
23370,2023-01-20 11:09:52.184413,226579024,2,15124,322,0,6,0,0
23696,2023-01-20 11:09:53.187295,227581927,2,15207,323,0,6,0,0
24021,2023-01-20 11:09:54.189445,228584038,2,15290,324,0,6,0,0
24348,2023-01-20 11:09:55.191916,229586570,2,15373,325,0,6,0,0
24676,2023-01-20 11:09:56.174875,230589027,2,15457,326,0,6,0,0
25002,2023-01-20 11:09:57.177186,231591553,2,15540,327,0,6,0,0
25331,2023-01-20 11:09:58.180109,232594475,2,15623,328,0,6,0,0
25659,2023-01-20 11:09:59.182396,233596808,2,15706,329,0,6,0,0
26009,2023-01-20 11:10:00.184682,234599043,2,15789,330,0,6,0,0
26336,2023-01-20 11:10:01.187270,235601634,2,15872,331,0,6,0,0
26660,2023-01-20 11:10:02.189756,236604129,2,15955,332,0,6,0,0
26987,2023-01-20 11:10:03.192609,237606981,2,16041,333,0,6,0,0
27311,2023-01-20 11:10:04.194754,238609126,2,16124,334,0,6,0,0
27636,2023-01-20 11:10:05.179495,239611609,2,16207,335,0,6,0,0
27969,2023-01-20 11:10:06.200066,240614449,2,16296,336,0,6,0,0
28292,2023-01-20 11:10:07.182260,241616638,2,16379,337,0,6,0,0
28617,2023-01-20 11:10:08.185080,242619459,2,16463,338,0,6,0,0
28941,2023-01-20 11:10:09.187258,243621635,2,16549,339,0,6,0,0
29319,2023-01-20 11:10:10.189669,244624052,2,16635,340,0,6,0,0
29648,2023-01-20 11:10:11.192231,245626597,2,16718,341,0,6,0,0
29975,2023-01-20 11:10:12.194731,246629110,2,16802,342,0,6,0,0
30301,2023-01-20 11:10:13.197668,247632041,2,16885,343,0,6,0,0
30630,2023-01-20 11:10:14.200095,248634449,2,16969,344,0,6,0,0
30956,2023-01-20 11:10:15.202223,249636577,2,17052,345,0,6,0,0
31284,2023-01-20 11:10:16.184884,250639070,2,17137,346,0,6,0,0
31610,2023-01-20 11:10:17.187292,251641614,2,17220,347,0,6,0,0
31937,2023-01-20 11:10:18.192184,252646551,2,17304,348,0,6,0,0
32263,2023-01-20 11:10:19.194690,253649051,2,17387,349,0,6,0,0
32591,2023-01-20 11:10:20.197225,254651594,2,17471,350,0,6,0,0
32922,2023-01-20 11:10:21.200078,255654442,2,17554,351,0,6,0,0
33249,2023-01-20 11:10:22.203367,256657774,2,17637,352,0,6,0,0
33576,2023-01-20 11:10:23.205130,257659488,2,17721,353,0,6,0,0
33901,2023-01-20 11:10:24.207148,258661549,2,17804,354,0,6,0,0
34228,2023-01-20 11:10:25.208899,259664126,2,17888,355,0,6,0,0
34604,2023-01-20 11:10:26.192225,260666578,2,17972,356,0,6,0,0
34931,2023-01-20 11:10:27.195035,261669379,2,18056,357,0,6,0,0
35257,2023-01-20 11:10:28.197166,262671562,2,18139,358,0,6,0,0
35586,2023-01-20 11:10:29.200070,263674422,2,18223,359,0,6,0,0
35913,2023-01-20 11:10:30.202162,264676571,2,18306,360,0,6,0,0
36243,2023-01-20 11:10:31.204683,265679057,2,18390,361,0,6,0,0
36569,2023-01-20 11:10:32.208372,266682736,2,18473,362,0,6,0,0
36896,2023-01-20 11:10:33.209690,267684053,2,18557,363,0,6,0,0
37222,2023-01-20 11:10:34.211120,268686570,2,18640,364,0,6,0,0
37547,2023-01-20 11:10:35.194525,269689039,2,18724,365,0,6,0,0
37876,2023-01-20 11:10:36.196952,270691556,2,18808,366,0,6,0,0
38207,2023-01-20 11:10:37.200152,271694780,2,18891,367,0,6,0,0
38536,2023-01-20 11:10:38.202130,272696765,2,18975,368,0,6,0,0
38886,2023-01-20 11:10:39.204403,273699037,2,19058,369,0,6,0,0
39214,2023-01-20 11:10:40.206916,274701550,2,19142,370,0,6,0,0
39545,2023-01-20 11:10:41.209426,275704043,2,19227,371,0,6,0,0
39872,2023-01-20 11:10:42.213134,276707740,2,19311,372,0,6,0,0
40247,2023-01-20 11:10:43.214456,277709079,2,19394,373,0,6,0,0
40572,2023-01-20 11:10:44.197356,278711543,2,19478,374,0,6,0,0
40900,2023-01-20 11:10:45.217759,279714131,2,19561,375,0,6,0,0
41230,2023-01-20 11:10:46.202203,280716565,2,19646,376,0,6,0,0
41556,2023-01-20 11:10:47.205833,281720202,2,19729,377,0,6,0,0
41883,2023-01-20 11:10:48.207198,282721559,2,19818,378,0,6,0,0
42209,2023-01-20 11:10:49.209687,283724045,2,19903,379,0,6,0,0
42536,2023-01-20 11:10:50.212244,284726599,2,19988,380,0,6,0,0
42866,2023-01-20 11:10:51.214709,285729111,2,20075,381,0,6,0,0
43192,2023-01-20 11:10:52.217683,286732040,2,20158,382,0,6,0,0
43519,2023-01-20 11:10:53.219677,287734077,2,20242,383,0,6,0,0
43845,2023-01-20 11:10:54.202360,288736606,2,20325,384,0,6,0,0
44172,2023-01-20 11:10:55.204701,289739056,2,20409,385,0,6,0,0
44501,2023-01-20 11:10:56.207219,290741605,2,20493,386,0,6,0,0
44828,2023-01-20 11:10:57.212175,291746601,2,20583,387,0,6,0,0
45154,2023-01-20 11:10:58.214657,292749037,2,20670,388,0,6,0,0
45481,2023-01-20 11:10:59.217189,293751604,2,20756,389,0,6,0,0
45857,2023-01-20 11:11:00.219756,294754137,2,20839,390,0,6,0,0
46187,2023-01-20 11:11:01.223412,295757792,2,20923,391,0,6,0,0
46513,2023-01-20 11:11:02.225065,296759490,2,21006,392,0,6,0,0
46840,2023-01-20 11:11:03.208216,297761580,2,21090,393,0,6,0,0
47166,2023-01-20 11:11:04.209830,298764136,2,21173,394,0,6,0,0
47492,2023-01-20 11:11:05.212214,299766594,2,21256,395,0,6,0,0
47821,2023-01-20 11:11:06.215024,300769408,2,21341,396,0,6,0,0
48148,2023-01-20 11:11:07.217189,301771569,2,21424,397,0,6,0,0
48475,2023-01-20 11:11:08.219715,302774093,2,21508,398,0,6,0,0
48802,2023-01-20 11:11:09.222239,303776620,2,21591,399,0,6,0,0
49129,2023-01-20 11:11:10.224669,304779056,2,21675,400,0,6,0,0
49457,2023-01-20 11:11:11.227460,305781838,2,21758,401,0,6,0,0
49787,2023-01-20 11:11:12.208621,306782771,2,21844,402,0,6,0,0
50113,2023-01-20 11:11:13.209824,307784074,2,21927,403,0,6,0,0
50440,2023-01-20 11:11:14.212289,308786624,2,22011,404,0,6,0,0
50766,2023-01-20 11:11:15.214675,309789066,2,22094,405,0,6,0,0
51144,2023-01-20 11:11:16.217181,310791568,2,22179,406,0,6,0,0
51474,2023-01-20 11:11:17.220104,311794496,2,22262,407,0,6,0,0
51802,2023-01-20 11:11:18.222323,312796712,2,22345,408,0,6,0,0
52151,2023-01-20 11:11:19.224667,313799059,2,22429,409,0,6,0,0
52478,2023-01-20 11:11:20.227161,314801570,2,22512,410,0,6,0,0
52807,2023-01-20 11:11:21.229684,315804054,2,22596,411,0,6,0,0
53134,2023-01-20 11:11:22.213220,316807778,2,22679,412,0,6,0,0
53461,2023-01-20 11:11:23.214431,317809061,2,22763,413,0,6,0,0
53787,2023-01-20 11:11:24.217063,318811591,2,22846,414,0,6,0,0
54114,2023-01-20 11:11:25.219473,319814116,2,22930,415,0,6,0,0
54443,2023-01-20 11:11:26.221888,320816562,2,23014,416,0,6,0,0
54770,2023-01-20 11:11:27.224764,321819398,2,23098,417,0,6,0,0
55096,2023-01-20 11:11:28.226875,322821540,2,23184,418,0,6,0,0
55423,2023-01-20 11:11:29.229411,323824050,2,23268,419,0,6,0,0
55750,2023-01-20 11:11:30.231933,324826566,2,23351,420,0,6,0,0
56079,2023-01-20 11:11:31.214882,325829056,2,23435,421,0,6,0,0
56406,2023-01-20 11:11:32.217723,326832083,2,23518,422,0,6,0,0
56781,2023-01-20 11:11:33.219711,327834073,2,23601,423,0,6,0,0
57108,2023-01-20 11:11:34.222186,328836589,2,23685,424,0,6,0,0
57434,2023-01-20 11:11:35.224694,329839062,2,23768,425,0,6,0,0
57763,2023-01-20 11:11:36.227212,330841576,2,23853,426,0,6,0,0
58090,2023-01-20 11:11:37.232182,331846558,2,23936,427,0,6,0,0
58417,2023-01-20 11:11:38.234686,332849065,2,24020,428,0,6,0,0
58743,2023-01-20 11:11:39.237185,333851572,2,24103,429,0,6,0,0
59071,2023-01-20 11:11:40.236193,334854126,2,24187,430,0,6,0,0
59400,2023-01-20 11:11:41.223513,335857758,2,24270,431,0,6,0,0
59727,2023-01-20 11:11:42.227886,336859474,2,24354,432,0,6,0,0
60053,2023-01-20 11:11:43.227221,337861607,2,24439,433,0,6,0,0
60380,2023-01-20 11:11:44.229684,338864067,2,24525,434,0,6,0,0
60704,2023-01-20 11:11:45.232209,339866606,2,24608,435,0,6,0,0
61029,2023-01-20 11:11:46.235027,340869394,2,24692,436,0,6,0,0
61357,2023-01-20 11:11:47.237169,341871555,2,24778,437,0,6,0,0
61682,2023-01-20 11:11:48.239766,342874143,2,24862,438,0,6,0,0
62007,2023-01-20 11:11:49.242190,343876564,2,24945,439,0,6,0,0
62332,2023-01-20 11:11:50.240649,344879039,2,25028,440,0,6,0,0
62661,2023-01-20 11:11:51.227624,345881811,2,25112,441,0,6,0,0
62987,2023-01-20 11:11:52.229665,346884042,2,25195,442,0,6,0,0
63312,2023-01-20 11:11:53.232238,347886620,2,25278,443,0,6,0,0
63639,2023-01-20 11:11:54.234659,348889041,2,25364,444,0,6,0,0
63962,2023-01-20 11:11:55.237179,349891573,2,25447,445,0,6,0,0
64291,2023-01-20 11:11:56.240098,350894468,2,25531,446,0,6,0,0
64620,2023-01-20 11:11:57.242292,351896686,2,25615,447,0,6,0,0
64971,2023-01-20 11:11:58.244690,352899053,2,25703,448,0,6,0,0
65295,2023-01-20 11:11:59.242932,353901554,2,25786,449,0,6,0,0
65666,2023-01-20 11:12:00.229695,354904035,2,25869,450,0,6,0,0
65994,2023-01-20 11:12:01.232582,355906927,2,25953,451,0,6,0,0
66321,2023-01-20 11:12:02.234673,356909015,2,26036,452,0,6,0,0
66648,2023-01-20 11:12:03.237202,357911570,2,26119,453,0,6,0,0
66975,2023-01-20 11:12:04.239719,358914071,2,26203,454,0,6,0,0
67301,2023-01-20 11:12:05.242196,359916559,2,26286,455,0,6,0,0
67630,2023-01-20 11:12:06.244997,360919367,2,26371,456,0,6,0,0
67956,2023-01-20 11:12:07.247180,361921539,2,26457,457,0,6,0,0
68284,2023-01-20 11:12:08.249685,362924052,2,26541,458,0,6,0,0
68610,2023-01-20 11:12:09.252224,363926578,2,26624,459,0,6,0,0
68938,2023-01-20 11:12:10.234542,364929059,2,26708,460,0,6,0,0
69266,2023-01-20 11:12:11.237503,365932086,2,26791,461,0,6,0,0
69593,2023-01-20 11:12:12.239477,366934085,2,26876,462,0,6,0,0
69923,2023-01-20 11:12:13.241998,367936591,2,26961,463,0,6,0,0
70250,2023-01-20 11:12:14.244462,368939064,2,27045,464,0,6,0,0
70575,2023-01-20 11:12:15.246948,369941545,2,27128,465,0,6,0,0
70904,2023-01-20 11:12:16.252015,370946609,2,27213,466,0,6,0,0
71279,2023-01-20 11:12:17.254440,371949039,2,27296,467,0,6,0,0
71606,2023-01-20 11:12:18.256947,372951542,2,27379,468,0,6,0,0
71933,2023-01-20 11:12:19.239896,373954090,2,27463,469,0,6,0,0
72260,2023-01-20 11:12:20.242508,374956808,2,27546,470,0,6,0,0
72589,2023-01-20 11:12:21.245210,375959491,2,27630,471,0,6,0,0
72915,2023-01-20 11:12:22.247271,376961632,2,27718,472,0,6,0,0
73243,2023-01-20 11:12:23.249703,377964062,2,27806,473,0,6,0,0
73569,2023-01-20 11:12:24.252234,378966595,2,27889,474,0,6,0,0
73896,2023-01-20 11:12:25.255028,379969385,2,27973,475,0,6,0,0
74224,2023-01-20 11:12:26.257205,380971591,2,28057,476,0,6,0,0
74551,2023-01-20 11:12:27.259781,381974143,2,28141,477,0,6,0,0
74879,2023-01-20 11:12:28.242424,382976571,2,28224,478,0,6,0,0
75206,2023-01-20 11:12:29.258830,383979058,2,28308,479,0,6,0,0
75533,2023-01-20 11:12:30.247414,384981814,2,28391,480,0,6,0,0
75862,2023-01-20 11:12:31.249669,385984034,2,28475,481,0,6,0,0
76188,2023-01-20 11:12:32.252162,386986562,2,28558,482,0,6,0,0
76514,2023-01-20 11:12:33.254684,387989045,2,28641,483,0,6,0,0
76890,2023-01-20 11:12:34.257152,388991560,2,28725,484,0,6,0,0
77219,2023-01-20 11:12:35.260097,389994462,2,28808,485,0,6,0,0
77550,2023-01-20 11:12:36.262320,390996692,2,28893,486,0,6,0,0
77898,2023-01-20 11:12:37.264641,391999034,2,28976,487,0,6,0,0
78226,2023-01-20 11:12:38.247346,393001572,2,29060,488,0,6,0,0
78552,2023-01-20 11:12:39.249784,394004054,2,29143,489,0,6,0,0
78880,2023-01-20 11:12:40.252509,395006875,2,29227,490,0,6,0,0
79208,2023-01-20 11:12:41.254674,396009053,2,29310,491,0,6,0,0
79535,2023-01-20 11:12:42.257183,397011553,2,29394,492,0,6,0,0
79862,2023-01-20 11:12:43.259693,398014074,2,29477,493,0,6,0,0
80192,2023-01-20 11:12:44.262182,399016551,2,29563,494,0,6,0,0
80518,2023-01-20 11:12:45.265006,400019384,2,29646,495,0,6,0,0
80846,2023-01-20 11:12:46.267153,401021523,2,29733,496,0,6,0,0
81173,2023-01-20 11:12:47.269686,402024041,2,29817,497,0,6,0,0
81500,2023-01-20 11:12:48.252268,403026580,2,29900,498,0,6,0,0
81826,2023-01-20 11:12:49.254720,404029049,2,29984,499,0,6,0,0
82202,2023-01-20 11:12:50.257664,405032027,2,30067,500,0,6,0,0
82531,2023-01-20 11:12:51.259682,406034062,2,30151,501,0,6,0,0
82857,2023-01-20 11:12:52.262235,407036591,2,30234,502,0,6,0,0
83185,2023-01-20 11:12:53.264718,408039086,2,30318,503,0,6,0,0
83511,2023-01-20 11:12:54.267181,409041545,2,30401,504,0,6,0,0
83838,2023-01-20 11:12:55.272171,410046542,2,30485,505,0,6,0,0
84166,2023-01-20 11:12:56.274743,411049087,2,30569,506,0,6,0,0
84493,2023-01-20 11:12:57.257079,412051549,2,30653,507,0,6,0,0
84820,2023-01-20 11:12:58.259595,413054088,2,30736,508,0,6,0,0
85147,2023-01-20 11:12:59.262195,414056800,2,30819,509,0,6,0,0
85475,2023-01-20 11:13:00.264863,415059462,2,30903,510,0,6,0,0
85803,2023-01-20 11:13:01.266967,416061617,2,30986,511,0,6,0,0
86130,2023-01-20 11:13:02.269456,417064061,2,31070,512,0,6,0,0
86456,2023-01-20 11:13:03.271931,418066577,2,31153,513,0,6,0,0
86784,2023-01-20 11:13:04.274777,419069365,2,31237,514,0,6,0,0
87110,2023-01-20 11:13:05.276963,420071579,2,31320,515,0,6,0,0
87438,2023-01-20 11:13:06.279505,421074101,2,31405,516,0,6,0,0
87813,2023-01-20 11:13:07.262397,422076580,2,31488,517,0,6,0,0
88140,2023-01-20 11:13:08.264825,423079043,2,31572,518,0,6,0,0
88467,2023-01-20 11:13:09.267445,424081817,2,31655,519,0,6,0,0
88795,2023-01-20 11:13:10.269637,425084004,2,31739,520,0,6,0,0
89123,2023-01-20 11:13:11.272206,426086565,2,31822,521,0,6,0,0
89450,2023-01-20 11:13:12.274665,427089044,2,31906,522,0,6,0,0
89776,2023-01-20 11:13:13.277208,428091566,2,31989,523,0,6,0,0
90109,2023-01-20 11:13:14.280251,429094630,2,32073,524,0,6,0,0
90440,2023-01-20 11:13:15.282317,430096683,2,32158,525,0,6,0,0
90790,2023-01-20 11:13:16.277075,431099041,2,32242,526,0,6,0,0
91117,2023-01-20 11:13:17.267286,432101536,2,32326,527,0,6,0,0
91443,2023-01-20 11:13:18.269662,433104055,2,32409,528,0,6,0,0
91772,2023-01-20 11:13:19.272466,434106828,2,32493,529,0,6,0,0
92098,2023-01-20 11:13:20.274655,435109048,2,32576,530,0,6,0,0
92426,2023-01-20 11:13:21.277184,436111559,2,32660,531,0,6,0,0
92752,2023-01-20 11:13:22.279707,437114095,2,32743,532,0,6,0,0
93079,2023-01-20 11:13:23.282185,438116557,2,32827,533,0,6,0,0
93455,2023-01-20 11:13:24.284961,439119342,2,32910,534,0,6,0,0
93782,2023-01-20 11:13:25.287179,440121546,2,32998,535,0,6,0,0
94110,2023-01-20 11:13:26.289639,441124040,2,33081,536,0,6,0,0
94437,2023-01-20 11:13:27.272436,442126633,2,33165,537,0,6,0,0
94763,2023-01-20 11:13:28.274691,443129060,2,33248,538,0,6,0,0
95091,2023-01-20 11:13:29.277665,444132034,2,33331,539,0,6,0,0
95418,2023-01-20 11:13:30.279707,445134079,2,33415,540,0,6,0,0
95747,2023-01-20 11:13:31.282213,446136594,2,33498,541,0,6,0,0
96074,2023-01-20 11:13:32.284713,447139111,2,33582,542,0,6,0,0
96399,2023-01-20 11:13:33.287184,448141557,2,33665,543,0,6,0,0
96726,2023-01-20 11:13:34.292149,449146546,2,33749,544,0,6,0,0
97053,2023-01-20 11:13:35.294720,450149095,2,33836,545,0,6,0,0
97379,2023-01-20 11:13:36.277357,451151553,2,33919,546,0,6,0,0
97703,2023-01-20 11:13:37.279818,452154090,2,34002,547,0,6,0,0
98027,2023-01-20 11:13:38.282434,453156815,2,34085,548,0,6,0,0
98356,2023-01-20 11:13:39.285116,454159475,2,34171,549,0,6,0,0
98679,2023-01-20 11:13:40.287207,455161600,2,34254,550,0,6,0,0
99007,2023-01-20 11:13:41.289704,456164078,2,34338,551,0,6,0,0
99331,2023-01-20 11:13:42.292204,457166590,2,34421,552,0,6,0,0
99656,2023-01-20 11:13:43.294979,458169380,2,34504,553,0,6,0,0
99982,2023-01-20 11:13:44.297183,459171552,2,34588,554,0,6,0,0
100311,2023-01-20 11:13:45.290625,460174080,2,34677,555,0,6,0,0
100638,2023-01-20 11:13:46.282088,461176573,2,34760,556,0,6,0,0
100962,2023-01-20 11:13:47.284532,462179055,2,34843,557,0,6,0,0
101286,2023-01-20 11:13:48.287251,463181879,2,34926,558,0,6,0,0
101617,2023-01-20 11:13:49.289381,464184026,2,35014,559,0,6,0,0
101942,2023-01-20 11:13:50.291930,465186557,2,35097,560,0,6,0,0
102313,2023-01-20 11:13:51.294404,466189050,2,35180,561,0,6,0,0
102640,2023-01-20 11:13:52.296959,467191574,2,35264,562,0,6,0,0
102969,2023-01-20 11:13:53.299940,468194574,2,35347,563,0,6,0,0
103298,2023-01-20 11:13:54.302091,469196712,2,35430,564,0,6,0,0
103649,2023-01-20 11:13:55.284847,470199041,2,35515,565,0,6,0,0
103977,2023-01-20 11:13:56.287391,471201550,2,35603,566,0,6,0,0
104304,2023-01-20 11:13:57.289708,472204073,2,35691,567,0,6,0,0
104629,2023-01-20 11:13:58.292478,473206848,2,35774,568,0,6,0,0
104958,2023-01-20 11:13:59.294694,474209057,2,35858,569,0,6,0,0
105285,2023-01-20 11:14:00.297246,475211613,2,35941,570,0,6,0,0
105614,2023-01-20 11:14:01.299786,476214154,2,36025,571,0,6,0,0
105941,2023-01-20 11:14:02.302216,477216586,2,36108,572,0,6,0,0
106268,2023-01-20 11:14:03.304985,478219370,2,36192,573,0,6,0,0
106594,2023-01-20 11:14:04.307183,479221552,2,36278,574,0,6,0,0
106922,2023-01-20 11:14:05.299780,480224076,2,36363,575,0,6,0,0
107250,2023-01-20 11:14:06.292266,481226634,2,36446,576,0,6,0,0
107577,2023-01-20 11:14:07.294644,482229048,2,36530,577,0,6,0,0
107952,2023-01-20 11:14:08.297660,483232038,2,36613,578,0,6,0,0
108279,2023-01-20 11:14:09.299668,484234072,2,36696,579,0,6,0,0
108607,2023-01-20 11:14:10.302240,485236604,2,36780,580,0,6,0,0
108935,2023-01-20 11:14:11.304703,486239099,2,36863,581,0,6,0,0
109261,2023-01-20 11:14:12.307201,487241579,2,36947,582,0,6,0,0
109587,2023-01-20 11:14:13.312245,488246622,2,37037,583,0,6,0,0
109914,2023-01-20 11:14:14.314714,489249103,2,37124,584,0,6,0,0
110241,2023-01-20 11:14:15.297302,490251570,2,37210,585,0,6,0,0
110572,2023-01-20 11:14:16.299744,491254108,2,37296,586,0,6,0,0
110899,2023-01-20 11:14:17.302485,492256847,2,37379,587,0,6,0,0
111226,2023-01-20 11:14:18.305109,493259490,2,37463,588,0,6,0,0
111553,2023-01-20 11:14:19.307190,494261555,2,37546,589,0,6,0,0
111881,2023-01-20 11:14:20.309687,495264070,2,37630,590,0,6,0,0
112209,2023-01-20 11:14:21.312225,496266589,2,37713,591,0,6,0,0
112536,2023-01-20 11:14:22.315096,497269454,2,37797,592,0,6,0,0
112862,2023-01-20 11:14:23.306708,498271594,2,37880,593,0,6,0,0
113237,2023-01-20 11:14:24.299922,499274097,2,37963,594,0,6,0,0
113565,2023-01-20 11:14:25.302299,500276603,2,38048,595,0,6,0,0
113893,2023-01-20 11:14:26.304782,501279072,2,38131,596,0,6,0,0
114220,2023-01-20 11:14:27.307572,502281938,2,38215,597,0,6,0,0
114546,2023-01-20 11:14:28.309664,503284030,2,38298,598,0,6,0,0
114874,2023-01-20 11:14:29.312197,504286561,2,38382,599,0,6,0,0
115200,2023-01-20 11:14:30.314694,505289065,2,38465,600,0,6,0,0
115529,2023-01-20 11:14:31.317199,506291570,2,38549,601,0,6,0,0
115858,2023-01-20 11:14:32.320133,507294492,2,38632,602,0,6,0,0
116188,2023-01-20 11:14:33.313710,508296715,2,38716,603,0,6,0,0
116536,2023-01-20 11:14:34.304585,509299057,2,38799,604,0,6,0,0
116864,2023-01-20 11:14:35.307069,510301613,2,38884,605,0,6,0,0
117192,2023-01-20 11:14:36.309475,511304079,2,38967,606,0,6,0,0
117519,2023-01-20 11:14:37.312195,512306836,2,39051,607,0,6,0,0
117845,2023-01-20 11:14:38.314362,513309009,2,39134,608,0,6,0,0
118172,2023-01-20 11:14:39.316901,514311543,2,39217,609,0,6,0,0
118500,2023-01-20 11:14:40.319484,515314120,2,39301,610,0,6,0,0
118877,2023-01-20 11:14:41.321942,516316587,2,39384,611,0,6,0,0
119204,2023-01-20 11:14:42.324750,517319367,2,39468,612,0,6,0,0
119530,2023-01-20 11:14:43.315644,518321556,2,39554,613,0,6,0,0
119857,2023-01-20 11:14:44.309815,519324047,2,39638,614,0,6,0,0
120184,2023-01-20 11:14:45.312241,520326601,2,39722,615,0,6,0,0
120513,2023-01-20 11:14:46.314680,521329062,2,39806,616,0,6,0,0
120841,2023-01-20 11:14:47.317687,522332048,2,39891,617,0,6,0,0
121168,2023-01-20 11:14:48.319703,523334063,2,39975,618,0,6,0,0
121495,2023-01-20 11:14:49.322183,524336569,2,40058,619,0,6,0,0
121823,2023-01-20 11:14:50.324671,525339033,2,40142,620,0,6,0,0
122151,2023-01-20 11:14:51.327159,526341551,2,40225,621,0,6,0,0
122478,2023-01-20 11:14:52.320321,527346566,2,40309,622,0,6,0,0
122804,2023-01-20 11:14:53.322592,528349085,2,40392,623,0,6,0,0
123130,2023-01-20 11:14:54.317334,529351575,2,40475,624,0,6,0,0
123458,2023-01-20 11:14:55.319709,530354094,2,40560,625,0,6,0,0
123786,2023-01-20 11:14:56.322566,531356945,2,40643,626,0,6,0,0
124113,2023-01-20 11:14:57.325067,532359470,2,40727,627,0,6,0,0
124488,2023-01-20 11:14:58.327180,533361543,2,40810,628,0,6,0,0
124816,2023-01-20 11:14:59.329681,534364057,2,40894,629,0,6,0,0
125142,2023-01-20 11:15:00.324691,535366588,2,40977,630,0,6,0,0
125472,2023-01-20 11:15:01.335051,536369430,2,41061,631,0,6,0,0
125798,2023-01-20 11:15:02.337155,537371563,2,41144,632,0,6,0,0
126125,2023-01-20 11:15:03.319875,538374068,2,41228,633,0,6,0,0
126452,2023-01-20 11:15:04.322203,539376567,2,41311,634,0,6,0,0
126779,2023-01-20 11:15:05.324729,540379039,2,41396,635,0,6,0,0
127107,2023-01-20 11:15:06.327575,541381943,2,41479,636,0,6,0,0
127434,2023-01-20 11:15:07.329646,542384018,2,41563,637,0,6,0,0
127760,2023-01-20 11:15:08.332196,543386557,2,41646,638,0,6,0,0
128087,2023-01-20 11:15:09.334665,544389038,2,41729,639,0,6,0,0
128414,2023-01-20 11:15:10.337173,545391539,2,41813,640,0,6,0,0
128746,2023-01-20 11:15:11.340101,546394478,2,41896,641,0,6,0,0
129075,2023-01-20 11:15:12.322579,547396723,2,41980,642,0,6,0,0
129423,2023-01-20 11:15:13.324734,548399050,2,42063,643,0,6,0,0
129799,2023-01-20 11:15:14.327214,549401589,2,42147,644,0,6,0,0
130125,2023-01-20 11:15:15.329653,550404049,2,42231,645,0,6,0,0
130455,2023-01-20 11:15:16.332460,551406845,2,42315,646,0,6,0,0
130781,2023-01-20 11:15:17.334658,552409043,2,42398,647,0,6,0,0
131110,2023-01-20 11:15:18.337142,553411552,2,42484,648,0,6,0,0
131437,2023-01-20 11:15:19.339764,554414139,2,42567,649,0,6,0,0
131765,2023-01-20 11:15:20.342172,555416592,2,42651,650,0,6,0,0
132093,2023-01-20 11:15:21.344983,556419373,2,42734,651,0,6,0,0
132419,2023-01-20 11:15:22.327074,557421560,2,42820,652,0,6,0,0
132746,2023-01-20 11:15:23.329550,558424092,2,42904,653,0,6,0,0
133070,2023-01-20 11:15:24.331939,559426630,2,42987,654,0,6,0,0
133394,2023-01-20 11:15:25.334412,560429060,2,43071,655,0,6,0,0
133725,2023-01-20 11:15:26.337390,561432048,2,43158,656,0,6,0,0
134049,2023-01-20 11:15:27.339472,562434123,2,43241,657,0,6,0,0
134373,2023-01-20 11:15:28.341951,563436573,2,43324,658,0,6,0,0
134701,2023-01-20 11:15:29.344452,564439062,2,43410,659,0,6,0,0
135025,2023-01-20 11:15:30.327405,565441589,2,43501,660,0,6,0,0
135352,2023-01-20 11:15:31.338454,566446599,2,43585,661,0,6,0,0
135678,2023-01-20 11:15:32.334748,567449110,2,43669,662,0,6,0,0
136002,2023-01-20 11:15:33.337206,568451577,2,43752,663,0,6,0,0
136326,2023-01-20 11:15:34.339738,569454113,2,43835,664,0,6,0,0
136652,2023-01-20 11:15:35.342574,570456945,2,43920,665,0,6,0,0
136982,2023-01-20 11:15:36.345135,571459497,2,44006,666,0,6,0,0
137306,2023-01-20 11:15:37.347201,572461557,2,44089,667,0,6,0,0
137630,2023-01-20 11:15:38.349729,573464099,2,44172,668,0,6,0,0
137955,2023-01-20 11:15:39.352257,574466609,2,44255,669,0,6,0,0
138284,2023-01-20 11:15:40.335242,575469419,2,44343,670,0,6,0,0
138611,2023-01-20 11:15:41.337300,576471582,2,44426,671,0,6,0,0
138981,2023-01-20 11:15:42.339725,577474097,2,44509,672,0,6,0,0
139308,2023-01-20 11:15:43.342246,578476610,2,44593,673,0,6,0,0
139634,2023-01-20 11:15:44.344664,579479049,2,44676,674,0,6,0,0
139961,2023-01-20 11:15:45.347444,580481812,2,44761,675,0,6,0,0
140290,2023-01-20 11:15:46.349680,581484062,2,44844,676,0,6,0,0
140617,2023-01-20 11:15:47.352207,582486576,2,44928,677,0,6,0,0
140943,2023-01-20 11:15:48.354684,583489048,2,45011,678,0,6,0,0
141272,2023-01-20 11:15:49.357127,584491541,2,45096,679,0,6,0,0
141602,2023-01-20 11:15:50.360074,585494458,2,45180,680,0,6,0,0
141934,2023-01-20 11:15:51.342520,586496692,2,45263,681,0,6,0,0
142283,2023-01-20 11:15:52.344689,587499033,2,45347,682,0,6,0,0
142608,2023-01-20 11:15:53.347196,588501588,2,45430,683,0,6,0,0
142935,2023-01-20 11:15:54.349695,589504052,2,45514,684,0,6,0,0
143261,2023-01-20 11:15:55.352413,590506805,2,45598,685,0,6,0,0
143591,2023-01-20 11:15:56.354699,591509061,2,45682,686,0,6,0,0
143917,2023-01-20 11:15:57.357217,592511576,2,45765,687,0,6,0,0
144244,2023-01-20 11:15:58.359780,593514144,2,45849,688,0,6,0,0
144620,2023-01-20 11:15:59.362210,594516575,2,45932,689,0,6,0,0
144947,2023-01-20 11:16:00.345104,595519349,2,46016,690,0,6,0,0
145275,2023-01-20 11:16:01.347202,596521546,2,46102,691,0,6,0,0
145603,2023-01-20 11:16:02.349710,597524049,2,46186,692,0,6,0,0
145929,2023-01-20 11:16:03.352218,598526579,2,46269,693,0,6,0,0
146255,2023-01-20 11:16:04.354682,599529044,2,46352,694,0,6,0,0
146581,2023-01-20 11:16:05.357668,600532029,2,46437,695,0,6,0,0
146909,2023-01-20 11:16:06.359754,601534114,2,46520,696,0,6,0,0
147238,2023-01-20 11:16:07.362235,602536600,2,46604,697,0,6,0,0
147564,2023-01-20 11:16:08.364665,603539025,2,46687,698,0,6,0,0
147892,2023-01-20 11:16:09.347073,604541545,2,46771,699,0,6,0,0
148219,2023-01-20 11:16:10.352026,605546569,2,46854,700,0,6,0,0
148548,2023-01-20 11:16:11.354475,606549076,2,46938,701,0,6,0,0
148875,2023-01-20 11:16:12.356938,607551549,2,47021,702,0,6,0,0
149202,2023-01-20 11:16:13.359476,608554083,2,47105,703,0,6,0,0
149528,2023-01-20 11:16:14.362272,609556879,2,47188,704,0,6,0,0
149903,2023-01-20 11:16:15.364855,610559464,2,47273,705,0,6,0,0
150231,2023-01-20 11:16:16.366935,611561548,2,47356,706,0,6,0,0
150559,2023-01-20 11:16:17.369459,612564059,2,47440,707,0,6,0,0
150885,2023-01-20 11:16:18.352441,613566573,2,47523,708,0,6,0,0
151212,2023-01-20 11:16:19.359152,614569400,2,47606,709,0,6,0,0
151541,2023-01-20 11:16:20.357236,615571596,2,47692,710,0,6,0,0
151869,2023-01-20 11:16:21.359736,616574097,2,47775,711,0,6,0,0
152198,2023-01-20 11:16:22.362223,617576582,2,47859,712,0,6,0,0
152524,2023-01-20 11:16:23.364698,618579063,2,47942,713,0,6,0,0
152851,2023-01-20 11:16:24.367406,619581802,2,48026,714,0,6,0,0
153177,2023-01-20 11:16:25.369658,620584015,2,48110,715,0,6,0,0
153506,2023-01-20 11:16:26.372144,621586544,2,48194,716,0,6,0,0
153833,2023-01-20 11:16:27.374727,622589089,2,48277,717,0,6,0,0
154160,2023-01-20 11:16:28.374694,623591562,2,48361,718,0,6,0,0
154490,2023-01-20 11:16:29.360281,624594469,2,48444,719,0,6,0,0
154818,2023-01-20 11:16:30.362307,625596720,2,48528,720,0,6,0,0
155168,2023-01-20 11:16:31.364676,626599048,2,48611,721,0,6,0,0
155545,2023-01-20 11:16:32.367199,627601609,2,48695,722,0,6,0,0
155871,2023-01-20 11:16:33.369668,628604047,2,48778,723,0,6,0,0
156197,2023-01-20 11:16:34.372422,629606794,2,48861,724,0,6,0,0
156524,2023-01-20 11:16:35.374671,630609036,2,48946,725,0,6,0,0
156852,2023-01-20 11:16:36.377178,631611557,2,49029,726,0,6,0,0
157180,2023-01-20 11:16:37.379727,632614102,2,49113,727,0,6,0,0
157507,2023-01-20 11:16:38.362372,633616558,2,49196,728,0,6,0,0
157835,2023-01-20 11:16:39.364986,634619347,2,49281,729,0,6,0,0
158161,2023-01-20 11:16:40.367233,635621585,2,49367,730,0,6,0,0
158489,2023-01-20 11:16:41.369803,636624058,2,49451,731,0,6,0,0
158816,2023-01-20 11:16:42.372211,637626575,2,49534,732,0,6,0,0
159143,2023-01-20 11:16:43.374697,638629056,2,49618,733,0,6,0,0
159469,2023-01-20 11:16:44.377680,639632042,2,49701,734,0,6,0,0
159796,2023-01-20 11:16:45.379751,640634110,2,49786,735,0,6,0,0
160124,2023-01-20 11:16:46.382235,641636589,2,49869,736,0,6,0,0
160452,2023-01-20 11:16:47.384723,642639052,2,49953,737,0,6,0,0
160778,2023-01-20 11:16:48.370372,643641544,2,50036,738,0,6,0,0
161154,2023-01-20 11:16:49.372212,644646550,2,50119,739,0,6,0,0
161481,2023-01-20 11:16:50.374753,645649118,2,50203,740,0,6,0,0
161811,2023-01-20 11:16:51.377179,646651548,2,50288,741,0,6,0,0
162139,2023-01-20 11:16:52.379733,647654088,2,50372,742,0,6,0,0
162466,2023-01-20 11:16:53.382483,648656845,2,50455,743,0,6,0,0
162793,2023-01-20 11:16:54.385116,649659472,2,50539,744,0,6,0,0
163119,2023-01-20 11:16:55.387149,650661556,2,50623,745,0,6,0,0
163448,2023-01-20 11:16:56.389748,651664077,2,50707,746,0,6,0,0
163774,2023-01-20 11:16:57.374696,652666584,2,50790,747,0,6,0,0
164102,2023-01-20 11:16:58.374793,653669369,2,50874,748,0,6,0,0
164429,2023-01-20 11:16:59.376910,654671565,2,50957,749,0,6,0,0
164755,2023-01-20 11:17:00.379494,655674096,2,51041,750,0,6,0,0
165083,2023-01-20 11:17:01.381960,656676614,2,51124,751,0,6,0,0
165410,2023-01-20 11:17:02.384427,657679036,2,51208,752,0,6,0,0
165737,2023-01-20 11:17:03.387208,658681821,2,51299,753,0,6,0,0
166063,2023-01-20 11:17:04.389432,659684041,2,51383,754,0,6,0,0
166439,2023-01-20 11:17:05.391957,660686584,2,51468,755,0,6,0,0
166767,2023-01-20 11:17:06.374981,661689125,2,51551,756,0,6,0,0
167094,2023-01-20 11:17:07.396696,662691628,2,51635,757,0,6,0,0
167424,2023-01-20 11:17:08.380392,663694637,2,51718,758,0,6,0,0
167755,2023-01-20 11:17:09.382435,664696807,2,51802,759,0,6,0,0
168105,2023-01-20 11:17:10.384733,665699120,2,51885,760,0,6,0,0
168434,2023-01-20 11:17:11.387308,666701693,2,51969,761,0,6,0,0
168760,2023-01-20 11:17:12.389723,667704111,2,52052,762,0,6,0,0
169088,2023-01-20 11:17:13.392596,668706979,2,52136,763,0,6,0,0
169413,2023-01-20 11:17:14.394756,669709125,2,52219,764,0,6,0,0
169737,2023-01-20 11:17:15.397289,670711629,2,52303,765,0,6,0,0
170068,2023-01-20 11:17:16.400069,671714425,2,52389,766,0,6,0,0
170390,2023-01-20 11:17:17.382364,672716590,2,52473,767,0,6,0,0
170715,2023-01-20 11:17:18.385026,673719402,2,52556,768,0,6,0,0
171043,2023-01-20 11:17:19.387263,674721644,2,52645,769,0,6,0,0
171367,2023-01-20 11:17:20.389678,675724058,2,52728,770,0,6,0,0
171693,2023-01-20 11:17:21.392233,676726605,2,52811,771,0,6,0,0
172020,2023-01-20 11:17:22.394692,677729062,2,52896,772,0,6,0,0
172348,2023-01-20 11:17:23.397653,678732030,2,52980,773,0,6,0,0
172675,2023-01-20 11:17:24.400076,679734501,2,53063,774,0,6,0,0
173000,2023-01-20 11:17:25.402232,680736580,2,53147,775,0,6,0,0
173328,2023-01-20 11:17:26.386116,681739059,2,53234,776,0,6,0,0
173652,2023-01-20 11:17:27.387216,682741565,2,53317,777,0,6,0,0
173977,2023-01-20 11:17:28.392288,683746639,2,53406,778,0,6,0,0
174302,2023-01-20 11:17:29.394655,684749042,2,53493,779,0,6,0,0
174631,2023-01-20 11:17:30.397142,685751577,2,53582,780,0,6,0,0
174960,2023-01-20 11:17:31.400072,686754459,2,53666,781,0,6,0,0
175284,2023-01-20 11:17:32.403360,687757796,2,53749,782,0,6,0,0
175656,2023-01-20 11:17:33.405108,688759487,2,53833,783,0,6,0,0
175982,2023-01-20 11:17:34.407189,689761559,2,53916,784,0,6,0,0
176307,2023-01-20 11:17:35.390877,690764117,2,54001,785,0,6,0,0
176635,2023-01-20 11:17:36.392172,691766584,2,54084,786,0,6,0,0
176962,2023-01-20 11:17:37.395035,692769408,2,54168,787,0,6,0,0
177289,2023-01-20 11:17:38.397156,693771573,2,54251,788,0,6,0,0
177618,2023-01-20 11:17:39.400069,694774447,2,54334,789,0,6,0,0
177946,2023-01-20 11:17:40.402234,695776612,2,54418,790,0,6,0,0
178274,2023-01-20 11:17:41.404679,696779058,2,54501,791,0,6,0,0
178601,2023-01-20 11:17:42.408376,697782761,2,54585,792,0,6,0,0
178928,2023-01-20 11:17:43.409698,698784084,2,54668,793,0,6,0,0
179255,2023-01-20 11:17:44.412192,699786570,2,54752,794,0,6,0,0
179579,2023-01-20 11:17:45.395086,700789094,2,54836,795,0,6,0,0
179908,2023-01-20 11:17:46.397121,701791575,2,54920,796,0,6,0,0
180239,2023-01-20 11:17:47.400155,702794746,2,55003,797,0,6,0,0
180569,2023-01-20 11:17:48.402112,703796745,2,55087,798,0,6,0,0
180966,2023-01-20 11:17:49.404411,704799061,2,55170,799,0,6,0,0
181293,2023-01-20 11:17:50.406941,705801576,2,55254,800,0,6,0,0
181621,2023-01-20 11:17:51.409422,706804075,2,55337,801,0,6,0,0
181948,2023-01-20 11:17:52.413149,707807786,2,55421,802,0,6,0,0
182277,2023-01-20 11:17:53.414416,708809086,2,55506,803,0,6,0,0
182604,2023-01-20 11:17:54.416942,709811580,2,55589,804,0,6,0,0
182931,2023-01-20 11:17:55.400118,710814361,2,55674,805,0,6,0,0
183260,2023-01-20 11:17:56.402236,711816571,2,55757,806,0,6,0,0
183587,2023-01-20 11:17:57.405906,712820275,2,55841,807,0,6,0,0
183913,2023-01-20 11:17:58.407236,713821600,2,55927,808,0,6,0,0
184242,2023-01-20 11:17:59.409648,714824051,2,56011,809,0,6,0,0
184568,2023-01-20 11:18:00.412214,715826576,2,56094,810,0,6,0,0
184897,2023-01-20 11:18:01.414654,716829060,2,56178,811,0,6,0,0
185223,2023-01-20 11:18:02.417698,717832062,2,56261,812,0,6,0,0
185550,2023-01-20 11:18:03.419730,718834117,2,56345,813,0,6,0,0
185876,2023-01-20 11:18:04.422225,719836583,2,56428,814,0,6,0,0
186203,2023-01-20 11:18:05.404815,720839043,2,56513,815,0,6,0,0
186580,2023-01-20 11:18:06.407240,721841609,2,56596,816,0,6,0,0
186907,2023-01-20 11:18:07.412185,722846596,2,56680,817,0,6,0,0
187233,2023-01-20 11:18:08.414652,723849030,2,56763,818,0,6,0,0
187561,2023-01-20 11:18:09.417163,724851585,2,56846,819,0,6,0,0
187888,2023-01-20 11:18:10.419708,725854099,2,56930,820,0,6,0,0
188217,2023-01-20 11:18:11.423378,726857765,2,57013,821,0,6,0,0
188544,2023-01-20 11:18:12.425091,727859474,2,57097,822,0,6,0,0
188870,2023-01-20 11:18:13.427175,728861544,2,57180,823,0,6,0,0
189198,2023-01-20 11:18:14.410998,729864105,2,57264,824,0,6,0,0
189524,2023-01-20 11:18:15.412379,730866572,2,57348,825,0,6,0,0
189853,2023-01-20 11:18:16.415021,731869390,2,57432,826,0,6,0,0
190179,2023-01-20 11:18:17.417223,732871579,2,57515,827,0,6,0,0
190506,2023-01-20 11:18:18.419717,733874092,2,57599,828,0,6,0,0
190834,2023-01-20 11:18:19.422256,734876609,2,57682,829,0,6,0,0
191161,2023-01-20 11:18:20.424669,735879040,2,57766,830,0,6,0,0
191488,2023-01-20 11:18:21.427458,736881823,2,57849,831,0,6,0,0
191863,2023-01-20 11:18:22.429662,737884033,2,57932,832,0,6,0,0
192190,2023-01-20 11:18:23.413779,738886558,2,58016,833,0,6,0,0
192519,2023-01-20 11:18:24.414914,739889053,2,58101,834,0,6,0,0
192846,2023-01-20 11:18:25.433868,740891575,2,58186,835,0,6,0,0
193177,2023-01-20 11:18:26.420110,741894483,2,58269,836,0,6,0,0
193507,2023-01-20 11:18:27.422393,742896762,2,58353,837,0,6,0,0
193855,2023-01-20 11:18:28.424683,743899049,2,58436,838,0,6,0,0
194184,2023-01-20 11:18:29.427194,744901562,2,58520,839,0,6,0,0
194510,2023-01-20 11:18:30.429642,745904045,2,58603,840,0,6,0,0
194839,2023-01-20 11:18:31.432466,746906833,2,58687,841,0,6,0,0
195165,2023-01-20 11:18:32.434704,747909101,2,58770,842,0,6,0,0
195492,2023-01-20 11:18:33.417108,748911552,2,58854,843,0,6,0,0
195819,2023-01-20 11:18:34.419546,749914091,2,58937,844,0,6,0,0
196146,2023-01-20 11:18:35.422014,750916585,2,59022,845,0,6,0,0
196474,2023-01-20 11:18:36.424711,751919379,2,59110,846,0,6,0,0
196800,2023-01-20 11:18:37.426944,752921564,2,59197,847,0,6,0,0
197126,2023-01-20 11:18:38.429384,753924049,2,59284,848,0,6,0,0
197503,2023-01-20 11:18:39.431941,754926564,2,59367,849,0,6,0,0
197830,2023-01-20 11:18:40.434422,755929043,2,59451,850,0,6,0,0
198158,2023-01-20 11:18:41.437411,756932047,2,59534,851,0,6,0,0
198485,2023-01-20 11:18:42.439477,757934093,2,59619,852,0,6,0,0
198812,2023-01-20 11:18:43.422301,758936594,2,59702,853,0,6,0,0
199140,2023-01-20 11:18:44.424819,759939049,2,59786,854,0,6,0,0
199466,2023-01-20 11:18:45.427233,760941622,2,59870,855,0,6,0,0
199795,2023-01-20 11:18:46.432211,761946603,2,59954,856,0,6,0,0
200121,2023-01-20 11:18:47.434690,762949079,2,60037,857,0,6,0,0
200448,2023-01-20 11:18:48.437236,763951623,2,60121,858,0,6,0,0
200776,2023-01-20 11:18:49.439725,764954110,2,60204,859,0,6,0,0
201103,2023-01-20 11:18:50.442493,765956873,2,60288,860,0,6,0,0
201431,2023-01-20 11:18:51.445107,766959491,2,60371,861,0,6,0,0
201757,2023-01-20 11:18:52.447189,767961564,2,60454,862,0,6,0,0
202083,2023-01-20 11:18:53.429882,768964116,2,60538,863,0,6,0,0
202409,2023-01-20 11:18:54.432332,769966599,2,60621,864,0,6,0,0
202739,2023-01-20 11:18:55.435030,770969401,2,60708,865,0,6,0,0
203116,2023-01-20 11:18:56.437207,771971578,2,60791,866,0,6,0,0
203443,2023-01-20 11:18:57.439727,772974105,2,60875,867,0,6,0,0
203770,2023-01-20 11:18:58.442210,773976583,2,60958,868,0,6,0,0
204098,2023-01-20 11:18:59.444614,774979035,2,61042,869,0,6,0,0
204425,2023-01-20 11:19:00.447454,775981832,2,61125,870,0,6,0,0
204754,2023-01-20 11:19:01.449690,776984105,2,61209,871,0,6,0,0
205080,2023-01-20 11:19:02.435961,777986566,2,61292,872,0,6,0,0
205407,2023-01-20 11:19:03.434721,778989067,2,61376,873,0,6,0,0
205731,2023-01-20 11:19:04.437317,779991560,2,61459,874,0,6,0,0
206063,2023-01-20 11:19:05.440123,780994552,2,61546,875,0,6,0,0
206391,2023-01-20 11:19:06.442374,781996755,2,61629,876,0,6,0,0
206737,2023-01-20 11:19:07.444631,782999065,2,61712,877,0,6,0,0
207062,2023-01-20 11:19:08.447159,784001550,2,61796,878,0,6,0,0
207389,2023-01-20 11:19:09.449671,785004045,2,61882,879,0,6,0,0
207713,2023-01-20 11:19:10.452424,786006823,2,61965,880,0,6,0,0
208040,2023-01-20 11:19:11.434789,787009079,2,62048,881,0,6,0,0
208364,2023-01-20 11:19:12.437207,788011565,2,62131,882,0,6,0,0
208690,2023-01-20 11:19:13.439713,789014093,2,62215,883,0,6,0,0
209015,2023-01-20 11:19:14.442202,790016584,2,62298,884,0,6,0,0
209341,2023-01-20 11:19:15.444957,791019342,2,62382,885,0,6,0,0
209672,2023-01-20 11:19:16.447163,792021541,2,62472,886,0,6,0,0
209995,2023-01-20 11:19:17.449672,793024033,2,62555,887,0,6,0,0
210319,2023-01-20 11:19:18.452173,794026563,2,62638,888,0,6,0,0
210644,2023-01-20 11:19:19.454714,795029091,2,62721,889,0,6,0,0
210974,2023-01-20 11:19:20.452386,796032031,2,62809,890,0,6,0,0
211301,2023-01-20 11:19:21.439638,797034085,2,62892,891,0,6,0,0
211625,2023-01-20 11:19:22.442026,798036594,2,62975,892,0,6,0,0
211952,2023-01-20 11:19:23.444436,799039046,2,63059,893,0,6,0,0
212323,2023-01-20 11:19:24.446987,800041596,2,63142,894,0,6,0,0
212651,2023-01-20 11:19:25.451934,801046537,2,63227,895,0,6,0,0
212981,2023-01-20 11:19:26.454417,802049052,2,63312,896,0,6,0,0
213308,2023-01-20 11:19:27.457008,803051607,2,63396,897,0,6,0,0
213634,2023-01-20 11:19:28.459448,804054066,2,63479,898,0,6,0,0
213962,2023-01-20 11:19:29.462216,805056807,2,63562,899,0,6,0,0
214290,2023-01-20 11:19:30.459046,806059467,2,63646,900,0,6,0,0
214617,2023-01-20 11:19:31.447340,807061564,2,63729,901,0,6,0,0
214944,2023-01-20 11:19:32.449759,808064106,2,63813,902,0,6,0,0
215270,2023-01-20 11:19:33.452186,809066564,2,63896,903,0,6,0,0
215597,2023-01-20 11:19:34.454958,810069372,2,63980,904,0,6,0,0
215924,2023-01-20 11:19:35.457191,811071571,2,64064,905,0,6,0,0
216253,2023-01-20 11:19:36.459681,812074083,2,64148,906,0,6,0,0
216579,2023-01-20 11:19:37.462198,813076579,2,64231,907,0,6,0,0
216906,2023-01-20 11:19:38.464655,814079034,2,64315,908,0,6,0,0
217233,2023-01-20 11:19:39.447693,815081838,2,64398,909,0,6,0,0
217561,2023-01-20 11:19:40.449750,816084065,2,64482,910,0,6,0,0
217938,2023-01-20 11:19:41.452181,817086567,2,64565,911,0,6,0,0
218265,2023-01-20 11:19:42.454631,818089052,2,64649,912,0,6,0,0
218591,2023-01-20 11:19:43.457187,819091565,2,64732,913,0,6,0,0
218922,2023-01-20 11:19:44.460217,820094602,2,64815,914,0,6,0,0
219253,2023-01-20 11:19:45.462323,821096727,2,64900,915,0,6,0,0
219603,2023-01-20 11:19:46.464655,822099049,2,64983,916,0,6,0,0
219930,2023-01-20 11:19:47.467166,823101573,2,65067,917,0,6,0,0
220257,2023-01-20 11:19:48.469659,824104052,2,65150,918,0,6,0,0
220584,2023-01-20 11:19:49.465879,825106812,2,65234,919,0,6,0,0
220911,2023-01-20 11:19:50.454821,826109094,2,65317,920,0,6,0,0
221240,2023-01-20 11:19:51.457153,827111549,2,65401,921,0,6,0,0
221566,2023-01-20 11:19:52.459724,828114101,2,65484,922,0,6,0,0
221893,2023-01-20 11:19:53.462183,829116577,2,32,923,0,6,0,0
222219,2023-01-20 11:19:54.464958,830119339,2,115,924,0,6,0,0
222546,2023-01-20 11:19:55.467173,831121559,2,203,925,0,6,0,0
222877,2023-01-20 11:19:56.469658,832124041,2,288,926,0,6,0,0
223253,2023-01-20 11:19:57.472194,833126570,2,372,927,0,6,0,0
223580,2023-01-20 11:19:58.474761,834129109,2,455,928,0,6,0,0
223906,2023-01-20 11:19:59.457779,835132009,2,538,929,0,6,0,0
224233,2023-01-20 11:20:00.459737,836134072,2,622,930,0,6,0,0
224563,2023-01-20 11:20:01.462232,837136583,2,705,931,0,6,0,0
224890,2023-01-20 11:20:02.464674,838139051,2,789,932,0,6,0,0
225216,2023-01-20 11:20:03.467202,839141579,2,872,933,0,6,0,0
225542,2023-01-20 11:20:04.472152,840146547,2,956,934,0,6,0,0
225868,2023-01-20 11:20:05.474626,841149040,2,1040,935,0,6,0,0
226198,2023-01-20 11:20:06.477225,842151603,2,1124,936,0,6,0,0
226524,2023-01-20 11:20:07.479676,843154083,2,1207,937,0,6,0,0
226852,2023-01-20 11:20:08.462317,844156813,2,1291,938,0,6,0,0
227178,2023-01-20 11:20:09.464945,845159491,2,1378,939,0,6,0,0
227505,2023-01-20 11:20:10.466942,846161592,2,1466,940,0,6,0,0
227834,2023-01-20 11:20:11.469427,847164076,2,1550,941,0,6,0,0
228161,2023-01-20 11:20:12.471979,848166603,2,1634,942,0,6,0,0
228487,2023-01-20 11:20:13.474739,849169376,2,1717,943,0,6,0,0
228862,2023-01-20 11:20:14.476941,850171583,2,1800,944,0,6,0,0
229189,2023-01-20 11:20:15.479475,851174108,2,1885,945,0,6,0,0
229519,2023-01-20 11:20:16.481984,852176637,2,1968,946,0,6,0,0
229845,2023-01-20 11:20:17.476917,853179035,2,2052,947,0,6,0,0
230172,2023-01-20 11:20:18.467469,854181816,2,2135,948,0,6,0,0
230499,2023-01-20 11:20:19.469742,855184120,2,2219,949,0,6,0,0
230825,2023-01-20 11:20:20.472196,856186589,2,2302,950,0,6,0,0
231155,2023-01-20 11:20:21.474705,857189079,2,2386,951,0,6,0,0
231481,2023-01-20 11:20:22.477175,858191571,2,2469,952,0,6,0,0
231811,2023-01-20 11:20:23.480089,859194466,2,2553,953,0,6,0,0
232139,2023-01-20 11:20:24.482382,860196755,2,2636,954,0,6,0,0
232490,2023-01-20 11:20:25.484655,861199030,2,2721,955,0,6,0,0
232819,2023-01-20 11:20:26.487196,862201571,2,2804,956,0,6,0,0
233148,2023-01-20 11:20:27.477490,863204072,2,2890,957,0,6,0,0
233475,2023-01-20 11:20:28.472517,864206806,2,2973,958,0,6,0,0
233801,2023-01-20 11:20:29.474620,865209011,2,3056,959,0,6,0,0
234177,2023-01-20 11:20:30.477157,866211544,2,3140,960,0,6,0,0
234506,2023-01-20 11:20:31.479719,867214119,2,3223,961,0,6,0,0
234834,2023-01-20 11:20:32.482223,868216626,2,3307,962,0,6,0,0
235159,2023-01-20 11:20:33.484939,869219336,2,3390,963,0,6,0,0
235486,2023-01-20 11:20:34.487117,870221538,2,3478,964,0,6,0,0
235812,2023-01-20 11:20:35.489649,871224052,2,3561,965,0,6,0,0
236142,2023-01-20 11:20:36.492172,872226579,2,3645,966,0,6,0,0
236468,2023-01-20 11:20:37.486218,873229113,2,3728,967,0,6,0,0
236796,2023-01-20 11:20:38.477652,874231991,2,3812,968,0,6,0,0
237122,2023-01-20 11:20:39.477641,875232022,2,3895,969,0,6,0,0
237449,2023-01-20 11:20:40.479660,876234064,2,3979,970,0,6,0,0
237778,2023-01-20 11:20:41.482183,877236575,2,4062,971,0,6,0,0
238105,2023-01-20 11:20:42.484626,878239038,2,4145,972,0,6,0,0
238431,2023-01-20 11:20:43.487158,879241547,2,4229,973,0,6,0,0
238757,2023-01-20 11:20:44.492203,880246585,2,4319,974,0,6,0,0
239084,2023-01-20 11:20:45.494631,881249026,2,4408,975,0,6,0,0
239413,2023-01-20 11:20:46.497188,882251562,2,4492,976,0,6,0,0
239789,2023-01-20 11:20:47.479759,883254100,2,4576,977,0,6,0,0
240117,2023-01-20 11:20:48.482576,884256837,2,4659,978,0,6,0,0
240444,2023-01-20 11:20:49.485101,885259489,2,4743,979,0,6,0,0
240770,2023-01-20 11:20:50.487230,886261633,2,4826,980,0,6,0,0
241099,2023-01-20 11:20:51.489688,887264115,2,4910,981,0,6,0,0
241426,2023-01-20 11:20:52.492233,888266634,2,4993,982,0,6,0,0
241752,2023-01-20 11:20:53.494967,889269387,2,5077,983,0,6,0,0
242076,2023-01-20 11:20:54.497186,890271582,2,5161,984,0,6,0,0
242403,2023-01-20 11:20:55.499860,891274247,2,5247,985,0,6,0,0
242729,2023-01-20 11:20:56.482033,892276578,2,5330,986,0,6,0,0
243054,2023-01-20 11:20:57.484445,893279046,2,5413,987,0,6,0,0
243381,2023-01-20 11:20:58.487198,894281814,2,5498,988,0,6,0,0
243709,2023-01-20 11:20:59.489412,895284028,2,5585,989,0,6,0,0
244033,2023-01-20 11:21:00.491985,896286635,2,5668,990,0,6,0,0
244360,2023-01-20 11:21:01.494403,897289050,2,5751,991,0,6,0,0
244687,2023-01-20 11:21:02.496936,898291578,2,5835,992,0,6,0,0
245015,2023-01-20 11:21:03.499896,899294549,2,5918,993,0,6,0,0
245343,2023-01-20 11:21:04.502064,900296719,2,6002,994,0,6,0,0
245692,2023-01-20 11:21:05.484882,901299052,2,6088,995,0,6,0,0
246019,2023-01-20 11:21:06.496820,902301564,2,6172,996,0,6,0,0
246345,2023-01-20 11:21:07.489699,903304088,2,6255,997,0,6,0,0
246670,2023-01-20 11:21:08.492561,904306952,2,6338,998,0,6,0,0
246998,2023-01-20 11:21:09.494615,905309023,2,6426,999,0,6,0,0
247322,2023-01-20 11:21:10.497170,906311552,2,6509,1000,0,6,0,0
247648,2023-01-20 11:21:11.499693,907314094,2,6592,1001,0,6,0,0
247976,2023-01-20 11:21:12.502187,908316575,2,6676,1002,0,6,0,0
248302,2023-01-20 11:21:13.505023,909319416,2,6759,1003,0,6,0,0
248673,2023-01-20 11:21:14.507147,910321526,2,6847,1004,0,6,0,0
248999,2023-01-20 11:21:15.489861,911324062,2,6930,1005,0,6,0,0
249327,2023-01-20 11:21:16.492263,912326580,2,7013,1006,0,6,0,0
249655,2023-01-20 11:21:17.494650,913329076,2,7097,1007,0,6,0,0
249982,2023-01-20 11:21:18.497641,914332047,2,7180,1008,0,6,0,0
250309,2023-01-20 11:21:19.499681,915334084,2,7264,1009,0,6,0,0
250638,2023-01-20 11:21:20.502176,916336597,2,7347,1010,0,6,0,0
250965,2023-01-20 11:21:21.504692,917339097,2,7431,1011,0,6,0,0
251292,2023-01-20 11:21:22.507128,918341555,2,7514,1012,0,6,0,0
251619,2023-01-20 11:21:23.512179,919346581,2,7598,1013,0,6,0,0
251945,2023-01-20 11:21:24.514680,920349102,2,7682,1014,0,6,0,0
252272,2023-01-20 11:21:25.506630,921351566,2,7766,1015,0,6,0,0
252599,2023-01-20 11:21:26.499835,922354110,2,7849,1016,0,6,0,0
252927,2023-01-20 11:21:27.511366,923356915,2,7933,1017,0,6,0,0
253254,2023-01-20 11:21:28.505038,924359487,2,8016,1018,0,6,0,0
253580,2023-01-20 11:21:29.507185,925361597,2,8101,1019,0,6,0,0
253909,2023-01-20 11:21:30.509671,926364083,2,8187,1020,0,6,0,0
254234,2023-01-20 11:21:31.512223,927366940,2,8271,1021,0,6,0,0
254559,2023-01-20 11:21:32.512158,928367204,2,8354,1022,0,6,0,0
254883,2023-01-20 11:21:33.504669,929370038,2,8437,1023,0,6,0,0
255207,2023-01-20 11:21:34.508146,930372254,2,8521,1024,0,6,0,0
255532,2023-01-20 11:21:35.500056,931375015,2,8604,1025,0,6,0,0
255861,2023-01-20 11:21:36.502180,932377205,2,8692,1026,0,6,0,0
256185,2023-01-20 11:21:37.504646,933379680,2,8775,1027,0,6,0,0
256509,2023-01-20 11:21:38.507464,934382503,2,8858,1028,0,6,0,0
256881,2023-01-20 11:21:39.509713,935384735,2,8941,1029,0,6,0,0
257207,2023-01-20 11:21:40.512144,936387179,2,9024,1030,0,6,0,0
257531,2023-01-20 11:21:41.514713,937389746,2,9107,1031,0,6,0,0
257857,2023-01-20 11:21:42.517145,938392194,2,9190,1032,0,6,0,0
258186,2023-01-20 11:21:43.520091,939395109,2,9273,1033,0,6,0,0
258514,2023-01-20 11:21:44.502210,940397387,2,9361,1034,0,6,0,0
258864,2023-01-20 11:21:45.516196,941399668,2,9449,1035,0,6,0,0
259190,2023-01-20 11:21:46.506817,942402171,2,9532,1036,0,6,0,0
259517,2023-01-20 11:21:47.509346,943404678,2,9615,1037,0,6,0,0
259844,2023-01-20 11:21:48.512151,944407516,2,9698,1038,0,6,0,0
260170,2023-01-20 11:21:49.514346,945409680,2,9781,1039,0,6,0,0
260498,2023-01-20 11:21:50.516858,946412188,2,9864,1040,0,6,0,0
260824,2023-01-20 11:21:51.519372,947414743,2,9947,1041,0,6,0,0
261151,2023-01-20 11:21:52.521895,948417255,2,10030,1042,0,6,0,0
261478,2023-01-20 11:21:53.513603,949420004,2,10113,1043,0,6,0,0
261804,2023-01-20 11:21:54.507346,950422161,2,10200,1044,0,6,0,0
262132,2023-01-20 11:21:55.509696,951424700,2,10283,1045,0,6,0,0
262458,2023-01-20 11:21:56.512141,952427189,2,10366,1046,0,6,0,0
262781,2023-01-20 11:21:57.514689,953429746,2,10449,1047,0,6,0,0
263107,2023-01-20 11:21:58.517629,954432655,2,10532,1048,0,6,0,0
263480,2023-01-20 11:21:59.519642,955434703,2,10617,1049,0,6,0,0
263805,2023-01-20 11:22:00.522199,956437220,2,10700,1050,0,6,0,0
264128,2023-01-20 11:22:01.524645,957439660,2,10783,1051,0,6,0,0
264451,2023-01-20 11:22:02.527149,958442165,2,10866,1052,0,6,0,0
264775,2023-01-20 11:22:03.520215,959447191,2,10949,1053,0,6,0,0
265098,2023-01-20 11:22:04.514627,960449681,2,11033,1054,0,6,0,0
265423,2023-01-20 11:22:05.517111,961452197,2,11115,1055,0,6,0,0
265746,2023-01-20 11:22:06.519668,962454727,2,11196,1056,0,6,0,0
266070,2023-01-20 11:22:07.522462,963457523,2,11277,1057,0,6,0,0
266396,2023-01-20 11:22:08.525109,964460166,2,11358,1058,0,6,0,0
266720,2023-01-20 11:22:09.527135,965462191,2,11439,1059,0,6,0,0
267046,2023-01-20 11:22:10.529671,966464725,2,11520,1060,0,6,0,0
267365,2023-01-20 11:22:11.532149,967467222,2,11601,1061,0,6,0,0
267689,2023-01-20 11:22:12.515229,968470040,2,11682,1062,0,6,0,0
268014,2023-01-20 11:22:13.517394,969472311,2,11763,1063,0,6,0,0
268338,2023-01-20 11:22:14.519733,970474734,2,11845,1064,0,6,0,0
268663,2023-01-20 11:22:15.522178,971477232,2,11926,1065,0,6,0,0
268987,2023-01-20 11:22:16.524659,972479697,2,12007,1066,0,6,0,0
269311,2023-01-20 11:22:17.527478,973482535,2,12088,1067,0,6,0,0
269636,2023-01-20 11:22:18.529685,974484734,2,12169,1068,0,6,0,0
269959,2023-01-20 11:22:19.532162,975487203,2,12250,1069,0,6,0,0
270285,2023-01-20 11:22:20.534629,976489699,2,12331,1070,0,6,0,0
270609,2023-01-20 11:22:21.537180,977492204,2,12412,1071,0,6,0,0
270935,2023-01-20 11:22:22.520204,978495090,2,12493,1072,0,6,0,0
271263,2023-01-20 11:22:23.522357,979497383,2,12574,1073,0,6,0,0
271609,2023-01-20 11:22:24.524772,980499685,2,12656,1074,0,6,0,0
271934,2023-01-20 11:22:25.527152,981502196,2,12737,1075,0,6,0,0
272258,2023-01-20 11:22:26.529676,982504745,2,12818,1076,0,6,0,0
272582,2023-01-20 11:22:27.532474,983507517,2,12899,1077,0,6,0,0
272907,2023-01-20 11:22:28.534583,984509660,2,12980,1078,0,6,0,0
273231,2023-01-20 11:22:29.537174,985512219,2,13061,1079,0,6,0,0
273559,2023-01-20 11:22:30.539662,986514712,2,13144,1080,0,6,0,0
273882,2023-01-20 11:22:31.529307,987517311,2,13225,1081,0,6,0,0
274205,2023-01-20 11:22:32.531610,988519995,2,13306,1082,0,6,0,0
274530,2023-01-20 11:22:33.526837,989522179,2,13390,1083,0,6,0,0
274853,2023-01-20 11:22:34.529332,990524713,2,13472,1084,0,6,0,0
275179,2023-01-20 11:22:35.531844,991527193,2,13553,1085,0,6,0,0
275502,2023-01-20 11:22:36.534404,992529746,2,13634,1086,0,6,0,0
275826,2023-01-20 11:22:37.537320,993532661,2,13715,1087,0,6,0,0
276151,2023-01-20 11:22:38.539402,994534728,2,13796,1088,0,6,0,0
276475,2023-01-20 11:22:39.541909,995537227,2,13877,1089,0,6,0,0
276800,2023-01-20 11:22:40.544312,996539675,2,13958,1090,0,6,0,0
277124,2023-01-20 11:22:41.546883,997542198,2,14039,1091,0,6,0,0
277447,2023-01-20 11:22:42.532304,998547221,2,14120,1092,0,6,0,0
277771,2023-01-20 11:22:43.534660,999549692,2,14201,1093,0,6,0,0
278094,2023-01-20 11:22:44.537128,1000552186,2,14283,1094,0,6,0,0
278419,2023-01-20 11:22:45.539689,1001554724,2,14364,1095,0,6,0,0
278743,2023-01-20 11:22:46.542462,1002557519,2,14445,1096,0,6,0,0
279066,2023-01-20 11:22:47.545120,1003560169,2,14526,1097,0,6,0,0
279390,2023-01-20 11:22:48.547133,1004562206,2,14607,1098,0,6,0,0
279715,2023-01-20 11:22:49.549686,1005564737,2,14689,1099,0,6,0,0
280040,2023-01-20 11:22:50.552185,1006567245,2,14770,1100,0,6,0,0
280363,2023-01-20 11:22:51.535157,1007570088,2,14851,1101,0,6,0,0
280685,2023-01-20 11:22:52.537151,1008572216,2,14932,1102,0,6,0,0
281009,2023-01-20 11:22:53.539671,1009574746,2,15013,1103,0,6,0,0
281334,2023-01-20 11:22:54.542134,1010577212,2,15095,1104,0,6,0,0
281659,2023-01-20 11:22:55.544629,1011579708,2,15176,1105,0,6,0,0
281983,2023-01-20 11:22:56.547449,1012582512,2,15257,1106,0,6,0,0
282306,2023-01-20 11:22:57.549608,1013584685,2,15338,1107,0,6,0,0
282631,2023-01-20 11:22:58.552140,1014587204,2,15419,1108,0,6,0,0
282950,2023-01-20 11:22:59.554624,1015589649,2,15501,1109,0,6,0,0
283255,2023-01-20 11:23:00.537384,1016592128,2,15582,1110,0,6,0,0
283563,2023-01-20 11:23:01.540240,1017595066,2,15665,1111,0,6,0,0
283868,2023-01-20 11:23:02.542406,1018597340,2,15746,1112,0,6,0,0
284191,2023-01-20 11:23:03.544689,1019599645,2,15827,1113,0,6,0,0
284495,2023-01-20 11:23:04.547156,1020602169,2,15909,1114,0,6,0,0
284800,2023-01-20 11:23:05.549615,1021604622,2,15990,1115,0,6,0,0
285103,2023-01-20 11:23:06.552442,1022607455,2,16071,1116,0,6,0,0
285406,2023-01-20 11:23:07.554642,1023609615,2,16152,1117,0,6,0,0
285710,2023-01-20 11:23:08.557157,1024612133,2,16233,1118,0,6,0,0
286013,2023-01-20 11:23:09.559689,1025614652,2,16314,1119,0,6,0,0
286319,2023-01-20 11:23:10.562146,1026617132,2,16395,1120,0,6,0,0
286622,2023-01-20 11:23:11.550114,1027619939,2,16477,1121,0,6,0,0
286927,2023-01-20 11:23:12.547194,1028622114,2,16562,1122,0,6,0,0
287230,2023-01-20 11:23:13.549687,1029624667,2,16643,1123,0,6,0,0
