LineNo,UTC_Approx,TimeUS,LiftMax,BatVolt,ThLimit,ThrAvMx,FailFlags
688,2023-01-20 11:08:47.422050,161676797,0.9883326,0.9929091,1,0.03700503,2
1039,2023-01-20 11:08:47.517025,161776770,0.988313,0.9928971,1,0.03700503,2
1155,2023-01-20 11:08:47.631630,161894119,0.9883568,0.9929238,1,0.03700503,2
1418,2023-01-20 11:08:47.739599,161996542,0.9883277,0.9929061,1,0.03700503,2
1837,2023-01-20 11:08:47.843114,162097060,0.9883239,0.9929037,1,0.03700503,2
1884,2023-01-20 11:08:47.942914,162197102,0.9883214,0.9929022,1,0.03700503,2
1929,2023-01-20 11:08:48.042741,162297065,0.988369,0.9929312,1,0.03700503,2
1975,2023-01-20 11:08:48.142735,162397055,0.9884058,0.9929537,1,0.03700503,2
2028,2023-01-20 11:08:48.242750,162497053,0.9883884,0.992943,1,0.03700503,2
2069,2023-01-20 11:08:48.342805,162597075,0.9883987,0.9929493,1,0.03700503,2
2127,2023-01-20 11:08:48.438972,162697097,0.9884065,0.9929541,1,0.03700503,2
2186,2023-01-20 11:08:48.529903,162797066,0.9884123,0.9929576,1,0.03700503,2
2246,2023-01-20 11:08:48.622960,162897087,0.9884141,0.9929587,1,0.03700503,2
2300,2023-01-20 11:08:48.722932,162997039,0.9883495,0.9929193,1,0.03700503,2
2356,2023-01-20 11:08:48.822972,163097064,0.9883253,0.9929046,1,0.03700503,2
2411,2023-01-20 11:08:48.923000,163197091,0.9883254,0.9929047,1,0.03700503,2
2451,2023-01-20 11:08:49.022956,163297050,0.9883301,0.9929075,1,0.03700503,2
2495,2023-01-20 11:08:49.122939,163397049,0.9883595,0.9929254,1,0.03700503,2
2537,2023-01-20 11:08:49.225448,163497042,0.9883825,0.9929395,1,0.03700503,2
2577,2023-01-20 11:08:49.336489,163597046,0.9884014,0.992951,1,0.03700503,2
2620,2023-01-20 11:08:49.442830,163697103,0.9884402,0.9929746,1,0.03700503,2
2658,2023-01-20 11:08:49.542775,163797113,0.9884057,0.9929536,1,0.03700503,2
2698,2023-01-20 11:08:49.638838,163897042,0.9877807,0.9925727,1,0.03700503,2
2736,2023-01-20 11:08:49.729892,163997072,0.9869009,0.9920362,1,0.03700503,2
2779,2023-01-20 11:08:49.822948,164097045,0.9864659,0.9917708,1,0.03700503,2
2819,2023-01-20 11:08:49.922977,164197097,0.9863288,0.9916872,1,0.03700503,2
2859,2023-01-20 11:08:50.022928,164297057,0.9862298,0.9916268,1,0.03700503,2
2898,2023-01-20 11:08:50.122955,164397047,0.9861997,0.9916084,1,0.03700503,2
2941,2023-01-20 11:08:50.223017,164497089,0.9861532,0.9915801,1,0.03700503,2
2979,2023-01-20 11:08:50.322944,164597057,0.9861416,0.991573,1,0.03700503,2
3021,2023-01-20 11:08:50.422931,164697086,0.9861354,0.9915692,1,0.03700503,2
3061,2023-01-20 11:08:50.522846,164797048,0.9861041,0.9915501,1,0.03700503,2
3101,2023-01-20 11:08:50.622821,164897047,0.9860241,0.9915013,1,0.03700503,2
3139,2023-01-20 11:08:50.722878,164997046,0.9855354,0.9912031,1,0.03700503,2
3180,2023-01-20 11:08:50.822904,165097042,0.9842,0.9903879,1,0.03700503,2
3220,2023-01-20 11:08:50.922941,165197143,0.9838074,0.9901481,1,0.03700503,2
3260,2023-01-20 11:08:51.022810,165297059,0.9836702,0.9900643,1,0.03700503,2
3298,2023-01-20 11:08:51.122815,165397049,0.9836187,0.9900328,1,0.03700503,2
3341,2023-01-20 11:08:51.222855,165497088,0.9836942,0.9900789,1,0.03700503,2
3379,2023-01-20 11:08:51.322782,165597059,0.9836665,0.990062,1,0.03700503,2
3421,2023-01-20 11:08:51.422788,165697103,0.9836529,0.9900537,1,0.03700503,2
3459,2023-01-20 11:08:51.522717,165797048,0.983636,0.9900433,1,0.03700503,2
3500,2023-01-20 11:08:51.622714,165897056,0.9836882,0.9900753,1,0.03700503,2
3537,2023-01-20 11:08:51.722713,165997049,0.9837421,0.9901082,1,0.03700503,2
3580,2023-01-20 11:08:51.822722,166097053,0.9837248,0.9900976,1,0.03700503,2
3620,2023-01-20 11:08:51.922771,166197105,0.9837132,0.9900905,1,0.03700503,2
3660,2023-01-20 11:08:52.022724,166297058,0.9836962,0.9900801,1,0.03700503,2
3696,2023-01-20 11:08:52.122722,166397049,0.9837123,0.99009,1,0.03700503,2
3731,2023-01-20 11:08:52.222779,166497101,0.9837075,0.9900871,1,0.03700503,2
3761,2023-01-20 11:08:52.322727,166597052,0.9836764,0.990068,1,0.03700503,2
3796,2023-01-20 11:08:52.422776,166697109,0.9836411,0.9900465,1,0.03700503,2
3826,2023-01-20 11:08:52.522758,166797116,0.9836107,0.9900279,1,0.03700503,2
3859,2023-01-20 11:08:52.622684,166897055,0.983655,0.990055,1,0.03700503,2
3889,2023-01-20 11:08:52.722706,166997044,0.9835782,0.9900081,1,0.03700503,2
3924,2023-01-20 11:08:52.822738,167097050,0.9835745,0.9900058,1,0.03700503,2
3956,2023-01-20 11:08:52.922788,167197098,0.9835737,0.9900053,1,0.03700503,2
3989,2023-01-20 11:08:53.022758,167297074,0.9835238,0.9899749,1,0.03700503,2
4019,2023-01-20 11:08:53.122710,167397057,0.9835342,0.9899812,1,0.03700503,2
4054,2023-01-20 11:08:53.222735,167497104,0.9835064,0.9899642,1,0.051637,2
4084,2023-01-20 11:08:53.322746,167597105,0.98347,0.989942,1,0.09666634,2
4119,2023-01-20 11:08:53.422772,167697132,0.9832838,0.9898282,1,0.1416962,2
4149,2023-01-20 11:08:53.522710,167797111,0.9817889,0.9889145,1,0.1867246,2
4182,2023-01-20 11:08:53.622687,167897112,0.9795732,0.9875591,1,0.2317483,2
4212,2023-01-20 11:08:53.722704,167997097,0.9770576,0.9860185,1,0.2767694,2
4247,2023-01-20 11:08:53.822734,168097106,0.9744861,0.9844417,1,0.3217773,2
4280,2023-01-20 11:08:53.922779,168197167,0.9718225,0.9828063,1,0.3667343,2
4313,2023-01-20 11:08:54.022750,168297154,0.9691517,0.9811643,1,0.4163022,2
4344,2023-01-20 11:08:54.122697,168397114,0.9665745,0.9795778,1,0.3537082,2
4379,2023-01-20 11:08:54.222673,168497094,0.9645848,0.9783517,1,0.3322037,2
4409,2023-01-20 11:08:54.322755,168597152,0.9641952,0.9781114,1,0.3289477,2
4444,2023-01-20 11:08:54.422751,168697138,0.9644352,0.9782594,1,0.336287,2
4474,2023-01-20 11:08:54.522704,168797128,0.9646981,0.9784215,1,0.34449,2
4507,2023-01-20 11:08:54.622698,168897147,0.9647684,0.9784648,1,0.348025,2
4537,2023-01-20 11:08:54.722670,168997103,0.9644036,0.9782399,1,0.3309546,2
4572,2023-01-20 11:08:54.822691,169097109,0.96437,0.9782192,1,0.3372777,2
4604,2023-01-20 11:08:54.922791,169197198,0.964568,0.9783413,1,0.3467933,2
4637,2023-01-20 11:08:55.022725,169297121,0.9644433,0.9782644,1,0.346617,2
4667,2023-01-20 11:08:55.122731,169397117,0.964224,0.9781291,1,0.3552784,2
4702,2023-01-20 11:08:55.222731,169497110,0.9639238,0.977944,1,0.3543471,2
4732,2023-01-20 11:08:55.322721,169597106,0.963504,0.977685,1,0.3648275,2
4767,2023-01-20 11:08:55.422749,169697144,0.9631521,0.977468,1,0.3606889,2
4799,2023-01-20 11:08:55.522697,169797120,0.9625632,0.9771045,1,0.3571565,2
4832,2023-01-20 11:08:55.622681,169897119,0.9623634,0.9769812,1,0.3671827,2
4862,2023-01-20 11:08:55.722767,169997175,0.9622538,0.9769136,1,0.3676214,2
4897,2023-01-20 11:08:55.822715,170097102,0.9618965,0.976693,1,0.3510139,2
4929,2023-01-20 11:08:55.922773,170197163,0.9617921,0.9766285,1,0.3429734,2
4962,2023-01-20 11:08:56.022745,170297136,0.9619963,0.9767545,1,0.3515575,2
4992,2023-01-20 11:08:56.122717,170397101,0.9621078,0.9768234,1,0.3511135,2
5027,2023-01-20 11:08:56.222733,170497112,0.9619498,0.9767259,1,0.3583,2
5057,2023-01-20 11:08:56.322751,170597132,0.9616776,0.9765578,1,0.3660799,2
5092,2023-01-20 11:08:56.422753,170697143,0.9612994,0.9763243,1,0.3623692,2
5122,2023-01-20 11:08:56.522739,170797161,0.9608406,0.9760409,1,0.3597026,2
5155,2023-01-20 11:08:56.622679,170897118,0.9605985,0.9758914,1,0.3578786,2
5185,2023-01-20 11:08:56.722705,170997110,0.9603637,0.9757463,1,0.3661701,2
5220,2023-01-20 11:08:56.822750,171097131,0.9601989,0.9756444,1,0.3636604,2
5252,2023-01-20 11:08:56.922786,171197175,0.9599364,0.9754822,1,0.3630477,2
5285,2023-01-20 11:08:57.022721,171297114,0.9597372,0.9753591,1,0.3554195,2
5316,2023-01-20 11:08:57.122713,171397098,0.9596172,0.9752849,1,0.3522611,2
5351,2023-01-20 11:08:57.222728,171497107,0.9596281,0.9752917,1,0.3774957,2
5381,2023-01-20 11:08:57.322776,171597152,0.9593955,0.9751479,1,0.4041582,2
5416,2023-01-20 11:08:57.422743,171697126,0.9587591,0.9747545,1,0.4044439,2
5446,2023-01-20 11:08:57.522689,171797108,0.9582005,0.974409,1,0.3964087,2
5479,2023-01-20 11:08:57.622678,171897118,0.9578391,0.9741854,1,0.3748184,2
5509,2023-01-20 11:08:57.722698,171997105,0.9576254,0.9740532,1,0.3646977,2
5544,2023-01-20 11:08:57.822776,172097158,0.9576265,0.9740539,1,0.3572725,2
5576,2023-01-20 11:08:57.922771,172197158,0.9576654,0.9740779,1,0.3498989,2
5611,2023-01-20 11:08:58.022745,172297135,0.9578084,0.9741665,1,0.3517157,2
5641,2023-01-20 11:08:58.122758,172397145,0.9579496,0.9742538,1,0.3351912,2
5676,2023-01-20 11:08:58.223009,172497394,0.9580108,0.9742916,1,0.324035,2
5706,2023-01-20 11:08:58.322734,172597120,0.9584392,0.9745566,1,0.3279492,2
5741,2023-01-20 11:08:58.422761,172697155,0.9588807,0.9748296,1,0.3270642,2
5771,2023-01-20 11:08:58.522699,172797128,0.9591035,0.9749674,1,0.333272,2
5804,2023-01-20 11:08:58.622696,172897144,0.9592032,0.9750291,1,0.3455324,2
5834,2023-01-20 11:08:58.722711,172997122,0.9591617,0.9750034,1,0.361008,2
5869,2023-01-20 11:08:58.822742,173097129,0.9587446,0.9747455,1,0.3461718,2
5901,2023-01-20 11:08:58.922776,173197179,0.9583951,0.9745293,1,0.3386874,2
5935,2023-01-20 11:08:59.020669,173297154,0.9583339,0.9744915,1,0.3308208,2
5966,2023-01-20 11:08:59.111582,173397171,0.9583631,0.9745095,1,0.3392782,2
6001,2023-01-20 11:08:59.202959,173497403,0.95837,0.9745138,1,0.3406107,2
6031,2023-01-20 11:08:59.302679,173597120,0.9581949,0.9744055,1,0.3452001,2
6066,2023-01-20 11:08:59.403068,173697199,0.9581063,0.9743508,1,0.3480398,2
6095,2023-01-20 11:08:59.514096,173797119,0.9577812,0.9741496,1,0.3431996,2
6128,2023-01-20 11:08:59.620635,173897128,0.9575818,0.9740262,1,0.3424262,2
6158,2023-01-20 11:08:59.711522,173997109,0.9574922,0.9739708,1,0.3425015,2
6194,2023-01-20 11:08:59.802690,174097131,0.9573131,0.97386,1,0.3389299,2
6226,2023-01-20 11:08:59.902682,174197153,0.9572235,0.9738045,1,0.3350652,2
6259,2023-01-20 11:09:00.002628,174297130,0.9571902,0.9737839,1,0.340543,2
6289,2023-01-20 11:09:00.102594,174397169,0.957207,0.9737943,1,0.3410557,2
6324,2023-01-20 11:09:00.202760,174497405,0.9570817,0.9737168,1,0.3340011,2
6354,2023-01-20 11:09:00.302510,174597104,0.9569439,0.9736315,1,0.3402607,2
6389,2023-01-20 11:09:00.402614,174697159,0.9568731,0.9735876,1,0.3499967,2
6421,2023-01-20 11:09:00.502504,174797104,0.9566283,0.9734361,1,0.3531703,2
6454,2023-01-20 11:09:00.602470,174897122,0.9563335,0.9732536,1,0.3574283,2
6484,2023-01-20 11:09:00.702494,174997114,0.9559298,0.9730037,1,0.3550381,2
6520,2023-01-20 11:09:00.802547,175097136,0.9556358,0.9728216,1,0.3503453,2
6552,2023-01-20 11:09:00.902604,175197217,0.9554914,0.9727322,1,0.3411164,2
6585,2023-01-20 11:09:01.002502,175297136,0.955512,0.9727449,1,0.3376876,2
6615,2023-01-20 11:09:01.102579,175397138,0.9555104,0.9727439,1,0.3413312,2
6650,2023-01-20 11:09:01.202955,175497442,0.9555779,0.9727858,1,0.3500386,2
6680,2023-01-20 11:09:01.302557,175597112,0.9554529,0.9727083,1,0.343829,2
6715,2023-01-20 11:09:01.402539,175697161,0.9552535,0.9725848,1,0.3376413,2
6745,2023-01-20 11:09:01.502455,175797104,0.9551919,0.9725466,1,0.3571137,2
6778,2023-01-20 11:09:01.602488,175897163,0.9550894,0.9724832,1,0.3545718,2
6809,2023-01-20 11:09:01.702472,175997142,0.9546764,0.9722273,1,0.3599768,2
6844,2023-01-20 11:09:01.802455,176097119,0.9545028,0.9721197,1,0.3588376,2
6876,2023-01-20 11:09:01.902502,176197162,0.9542016,0.9719331,1,0.3557789,2
6909,2023-01-20 11:09:02.002471,176297127,0.9540133,0.9718164,1,0.3478129,2
6939,2023-01-20 11:09:02.102505,176397149,0.9539357,0.9717683,1,0.3530919,2
6974,2023-01-20 11:09:02.202840,176497472,0.9539343,0.9717674,1,0.353207,2
7004,2023-01-20 11:09:02.302492,176597120,0.9538424,0.9717104,1,0.362309,2
7039,2023-01-20 11:09:02.402525,176697151,0.9537384,0.971646,1,0.3665543,2
7069,2023-01-20 11:09:02.502440,176797115,0.9533349,0.9713958,1,0.3576084,2
7102,2023-01-20 11:09:02.602393,176897115,0.9532685,0.9713546,1,0.360652,2
7132,2023-01-20 11:09:02.702429,176997106,0.9532343,0.9713334,1,0.3683711,2
7167,2023-01-20 11:09:02.802497,177097130,0.9530766,0.9712356,1,0.3632225,2
7199,2023-01-20 11:09:02.902596,177197234,0.9528815,0.9711146,1,0.3617643,2
7232,2023-01-20 11:09:03.002499,177297141,0.9528076,0.9710688,1,0.3481452,2
7262,2023-01-20 11:09:03.102479,177397133,0.9528463,0.9710928,1,0.3359765,2
7297,2023-01-20 11:09:03.202662,177497327,0.953001,0.9711888,1,0.352279,2
7327,2023-01-20 11:09:03.302449,177597119,0.953095,0.971247,1,0.3472332,2
7362,2023-01-20 11:09:03.402483,177697157,0.9530038,0.9711905,1,0.3308353,2
7392,2023-01-20 11:09:03.502460,177797133,0.9531192,0.971262,1,0.3296896,2
7425,2023-01-20 11:09:03.602441,177897113,0.9532865,0.9713658,1,0.3384042,2
7456,2023-01-20 11:09:03.702471,177997130,0.9533088,0.9713796,1,0.3414677,2
7491,2023-01-20 11:09:03.802469,178097116,0.9532729,0.9713573,1,0.3496001,2
7523,2023-01-20 11:09:03.902491,178197151,0.9531179,0.9712613,1,0.3569036,2
7556,2023-01-20 11:09:04.002462,178297134,0.9527928,0.9710596,1,0.3530772,2
7587,2023-01-20 11:09:04.102437,178397118,0.9525772,0.9709259,1,0.3469126,2
7622,2023-01-20 11:09:04.202643,178497331,0.9524854,0.970869,1,0.3499334,2
7652,2023-01-20 11:09:04.302454,178597119,0.9523942,0.9708124,1,0.3512776,2
7687,2023-01-20 11:09:04.402509,178697151,0.9522755,0.9707388,1,0.3517885,2
7717,2023-01-20 11:09:04.502492,178797150,0.9522054,0.9706953,1,0.3588944,2
7750,2023-01-20 11:09:04.602451,178897124,0.9520468,0.9705968,1,0.35949,2
7780,2023-01-20 11:09:04.702471,178997120,0.9518505,0.9704751,1,0.3538877,2
7815,2023-01-20 11:09:04.802493,179097119,0.9517166,0.970392,1,0.3425102,2
7847,2023-01-20 11:09:04.902495,179197157,0.9517209,0.9703947,1,0.3342258,2
7880,2023-01-20 11:09:05.002440,179297138,0.9518979,0.9705045,1,0.3322321,2
7910,2023-01-20 11:09:05.102434,179397108,0.9520202,0.9705804,1,0.3300244,2
7945,2023-01-20 11:09:05.202505,179497157,0.9521062,0.9706337,1,0.3366483,2
7975,2023-01-20 11:09:05.302475,179597113,0.9521216,0.9706433,1,0.3331153,2
8011,2023-01-20 11:09:05.402541,179697166,0.9521774,0.9706779,1,0.3288237,2
8043,2023-01-20 11:09:05.502444,179797125,0.952203,0.9706938,1,0.3193716,2
8076,2023-01-20 11:09:05.602412,179897147,0.9523242,0.9707689,1,0.3166967,2
8106,2023-01-20 11:09:05.702503,179997177,0.9525367,0.9709008,1,0.313691,2
8141,2023-01-20 11:09:05.802506,180097122,0.9527315,0.9710216,1,0.3266675,2
8173,2023-01-20 11:09:05.902498,180197154,0.9527912,0.9710587,1,0.3295006,2
8206,2023-01-20 11:09:06.002435,180297130,0.9526774,0.970988,1,0.3266489,2
8236,2023-01-20 11:09:06.102472,180397158,0.9526005,0.9709404,1,0.3273559,2
8271,2023-01-20 11:09:06.202467,180497144,0.9525334,0.9708987,1,0.335333,2
8301,2023-01-20 11:09:06.302432,180597111,0.952426,0.9708321,1,0.3342813,2
8336,2023-01-20 11:09:06.402466,180697148,0.9522915,0.9707487,1,0.3391215,2
8366,2023-01-20 11:09:06.502447,180797121,0.9521673,0.9706717,1,0.3424314,2
8399,2023-01-20 11:09:06.602449,180897115,0.9520813,0.9706183,1,0.3436352,2
8429,2023-01-20 11:09:06.702439,180997109,0.9519234,0.9705203,1,0.3433319,2
8464,2023-01-20 11:09:06.802455,181097129,0.9517514,0.9704136,1,0.3370117,2
8496,2023-01-20 11:09:06.902506,181197167,0.9516993,0.9703813,1,0.3463759,2
8529,2023-01-20 11:09:07.002459,181297108,0.9516295,0.9703379,1,0.3550627,2
8559,2023-01-20 11:09:07.102466,181397112,0.9514243,0.9702106,1,0.364822,2
8594,2023-01-20 11:09:07.202588,181497232,0.9511594,0.9700462,1,0.3823423,2
8624,2023-01-20 11:09:07.302492,181597134,0.9508224,0.969837,1,0.3882638,2
8660,2023-01-20 11:09:07.402525,181697166,0.9504591,0.9696114,1,0.3835014,2
8690,2023-01-20 11:09:07.502524,181797177,0.950288,0.9695052,1,0.3770242,2
8723,2023-01-20 11:09:07.602464,181897129,0.9501274,0.9694055,1,0.3727106,2
8753,2023-01-20 11:09:07.702477,181997121,0.9500368,0.9693491,1,0.3643864,2
8788,2023-01-20 11:09:07.802549,182097173,0.9499524,0.9692968,1,0.3675902,2
8820,2023-01-20 11:09:07.902527,182197163,0.9499039,0.9692667,1,0.3625794,2
8853,2023-01-20 11:09:08.002476,182297124,0.9498856,0.9692553,1,0.3501581,2
8883,2023-01-20 11:09:08.102487,182397153,0.9499007,0.9692647,1,0.3559304,2
8918,2023-01-20 11:09:08.202456,182497139,0.9499395,0.9692888,1,0.3738467,2
8948,2023-01-20 11:09:08.302465,182597125,0.9497386,0.969164,1,0.3716905,2
8983,2023-01-20 11:09:08.402555,182697194,0.9494482,0.9689835,1,0.3644678,2
9013,2023-01-20 11:09:08.502449,182797119,0.9493461,0.9689202,1,0.3675196,2
9046,2023-01-20 11:09:08.602422,182897122,0.9492963,0.9688892,1,0.3759501,2
9076,2023-01-20 11:09:08.702450,182997118,0.9491696,0.9688105,1,0.3625028,2
9111,2023-01-20 11:09:08.802485,183097121,0.9491186,0.9687788,1,0.360373,2
9145,2023-01-20 11:09:08.902524,183197173,0.949071,0.9687492,1,0.3640559,2
9178,2023-01-20 11:09:09.002252,183297134,0.9490045,0.9687079,1,0.3717314,2
9208,2023-01-20 11:09:09.093303,183397087,0.9488296,0.9685992,1,0.3644855,2
9241,2023-01-20 11:09:09.184455,183497150,0.9487582,0.9685549,1,0.3817798,2
9274,2023-01-20 11:09:09.282901,183597127,0.9485934,0.9684525,1,0.3694459,2
9307,2023-01-20 11:09:09.382934,183697173,0.9484286,0.96835,1,0.3652976,2
9339,2023-01-20 11:09:09.482897,183797134,0.9484432,0.9683591,1,0.3739916,2
9370,2023-01-20 11:09:09.582894,183897127,0.9483863,0.9683236,1,0.3739243,2
9403,2023-01-20 11:09:09.682891,183997107,0.9482331,0.9682285,1,0.3814721,2
9437,2023-01-20 11:09:09.782923,184097119,0.9481032,0.9681477,1,0.3807752,2
9471,2023-01-20 11:09:09.882947,184197160,0.9480194,0.9680956,1,0.3847822,2
9502,2023-01-20 11:09:09.982916,184297152,0.9479393,0.9680458,1,0.3868299,2
9534,2023-01-20 11:09:10.082908,184397152,0.9477815,0.9679477,1,0.3730879,2
9566,2023-01-20 11:09:10.182895,184497143,0.9477738,0.9679429,1,0.3853753,2
9599,2023-01-20 11:09:10.282876,184597125,0.9476411,0.9678604,1,0.3720945,2
9632,2023-01-20 11:09:10.382933,184697183,0.9477046,0.9678999,1,0.3688905,2
9664,2023-01-20 11:09:10.482806,184797148,0.9475839,0.9678248,1,0.3802814,2
9697,2023-01-20 11:09:10.582804,184897257,0.9475195,0.9677848,1,0.3795957,2
9729,2023-01-20 11:09:10.682688,184997105,0.9474189,0.9677222,1,0.3654062,2
9762,2023-01-20 11:09:10.782874,185097224,0.9473865,0.9677021,1,0.3657848,2
9796,2023-01-20 11:09:10.882849,185197207,0.9472603,0.9676236,1,0.3609187,2
9827,2023-01-20 11:09:10.982864,185297244,0.9471445,0.9675516,1,0.3609016,2
9860,2023-01-20 11:09:11.082740,185397130,0.9471439,0.9675512,1,0.3636764,2
9892,2023-01-20 11:09:11.182855,185497253,0.9469971,0.9674599,1,0.3659912,2
9925,2023-01-20 11:09:11.282701,185597111,0.9469039,0.9674019,1,0.3857057,2
9958,2023-01-20 11:09:11.382926,185697351,0.946602,0.9672141,1,0.3663211,2
9989,2023-01-20 11:09:11.482689,185797113,0.9464799,0.9671382,1,0.365684,2
10020,2023-01-20 11:09:11.582815,185897235,0.946446,0.9671171,1,0.3629689,2
10052,2023-01-20 11:09:11.682751,185997154,0.9463931,0.9670842,1,0.3679537,2
10085,2023-01-20 11:09:11.782830,186097212,0.9463457,0.9670547,1,0.367763,2
10119,2023-01-20 11:09:11.882785,186197169,0.9461359,0.9669241,1,0.3616478,2
10150,2023-01-20 11:09:11.982830,186297219,0.9460326,0.9668598,1,0.3647399,2
10182,2023-01-20 11:09:12.082700,186397115,0.945984,0.9668296,1,0.3735757,2
10214,2023-01-20 11:09:12.182907,186497352,0.9458449,0.9667431,1,0.3653443,2
10247,2023-01-20 11:09:12.282680,186597103,0.9458027,0.9667168,1,0.3733744,2
10281,2023-01-20 11:09:12.382850,186697240,0.9457431,0.9666796,1,0.3608596,2
10313,2023-01-20 11:09:12.482773,186797176,0.9455955,0.9665878,1,0.3598483,2
10344,2023-01-20 11:09:12.582795,186897222,0.9455377,0.9665518,1,0.355177,2
10376,2023-01-20 11:09:12.682698,186997103,0.9455708,0.9665724,1,0.3527403,2
10409,2023-01-20 11:09:12.782836,187097210,0.9455103,0.9665348,1,0.3444733,2
10443,2023-01-20 11:09:12.882784,187197158,0.9455114,0.9665354,1,0.3244524,2
10474,2023-01-20 11:09:12.982735,187297116,0.9456762,0.966638,1,0.3106984,2
10506,2023-01-20 11:09:13.082726,187397114,0.9458596,0.9667522,1,0.3061091,2
10538,2023-01-20 11:09:13.182751,187497146,0.9462156,0.9669737,1,0.3158483,2
10571,2023-01-20 11:09:13.282717,187597103,0.9464071,0.9670929,1,0.3152324,2
10604,2023-01-20 11:09:13.382827,187697201,0.9465247,0.967166,1,0.3130927,2
10636,2023-01-20 11:09:13.482713,187797109,0.9466545,0.9672468,1,0.3183175,2
10667,2023-01-20 11:09:13.582686,187897111,0.9468044,0.9673401,1,0.3255126,2
10699,2023-01-20 11:09:13.682748,187997158,0.9468891,0.9673927,1,0.3271098,2
10732,2023-01-20 11:09:13.782720,188097106,0.9468687,0.96738,1,0.3310494,2
10766,2023-01-20 11:09:13.882784,188197162,0.9468868,0.9673913,1,0.333128,2
10797,2023-01-20 11:09:13.982752,188297126,0.9468594,0.9673743,1,0.3357891,2
10829,2023-01-20 11:09:14.082732,188397114,0.9468659,0.9673783,1,0.3352078,2
10861,2023-01-20 11:09:14.182774,188497166,0.9468285,0.9673551,1,0.3384792,2
10895,2023-01-20 11:09:14.282743,188597130,0.9467919,0.9673322,1,0.340925,2
10929,2023-01-20 11:09:14.382775,188697152,0.9466718,0.9672576,1,0.342361,2
10961,2023-01-20 11:09:14.482707,188797107,0.9466189,0.9672247,1,0.3471524,2
10992,2023-01-20 11:09:14.582691,188897120,0.946592,0.9672079,1,0.3484906,2
11024,2023-01-20 11:09:14.682743,188997152,0.946523,0.9671649,1,0.3496134,2
11057,2023-01-20 11:09:14.782723,189097101,0.9464062,0.9670923,1,0.3470021,2
11091,2023-01-20 11:09:14.882773,189197163,0.9463691,0.9670692,1,0.3446565,2
11122,2023-01-20 11:09:14.982749,189297160,0.9463362,0.9670487,1,0.3473314,2
11154,2023-01-20 11:09:15.082699,189397104,0.9463403,0.9670513,1,0.3560876,2
11186,2023-01-20 11:09:15.182736,189497131,0.946224,0.9669789,1,0.3535225,2
11219,2023-01-20 11:09:15.282727,189597105,0.946142,0.9669279,1,0.3470275,2
11255,2023-01-20 11:09:15.382771,189697130,0.9461911,0.9669585,1,0.3504941,2
11287,2023-01-20 11:09:15.482731,189797126,0.9461284,0.9669195,1,0.350096,2
11320,2023-01-20 11:09:15.582699,189897141,0.9460263,0.9668559,1,0.3560812,2
11352,2023-01-20 11:09:15.682677,189997090,0.9459668,0.9668189,1,0.3537292,2
11385,2023-01-20 11:09:15.782719,190097088,0.9458331,0.9667357,1,0.3537231,2
11419,2023-01-20 11:09:15.882761,190197122,0.9458091,0.9667208,1,0.3679872,2
11450,2023-01-20 11:09:15.982756,190297117,0.945727,0.9666696,1,0.3599095,2
11482,2023-01-20 11:09:16.082734,190397098,0.945583,0.96658,1,0.3571121,2
11514,2023-01-20 11:09:16.182783,190497150,0.9455534,0.9665616,1,0.3566526,2
11547,2023-01-20 11:09:16.282716,190597083,0.945514,0.9665371,1,0.36582,2
11580,2023-01-20 11:09:16.382766,190697131,0.9453683,0.9664463,1,0.356424,2
11612,2023-01-20 11:09:16.482718,190797098,0.9453169,0.9664143,1,0.3542019,2
11643,2023-01-20 11:09:16.582686,190897083,0.9453379,0.9664274,1,0.3505646,2
11675,2023-01-20 11:09:16.682703,190997091,0.9452022,0.966343,1,0.3474755,2
11708,2023-01-20 11:09:16.782709,191097083,0.9452485,0.9663718,1,0.3520346,2
11742,2023-01-20 11:09:16.882802,191197169,0.9452328,0.966362,1,0.3502171,2
11773,2023-01-20 11:09:16.982754,191297116,0.945161,0.9663173,1,0.3509706,2
11805,2023-01-20 11:09:17.082717,191397081,0.9450642,0.966257,1,0.351252,2
11837,2023-01-20 11:09:17.182738,191497105,0.9450085,0.9662223,1,0.3595002,2
11870,2023-01-20 11:09:17.282728,191597091,0.9448928,0.9661503,1,0.3575688,2
11903,2023-01-20 11:09:17.382763,191697119,0.9447464,0.9660591,1,0.3581127,2
11935,2023-01-20 11:09:17.482769,191797152,0.9446433,0.965995,1,0.3525389,2
11966,2023-01-20 11:09:17.582722,191897138,0.9445862,0.9659594,1,0.3606133,2
11998,2023-01-20 11:09:17.682691,191997085,0.9445733,0.9659514,1,0.3623127,2
12031,2023-01-20 11:09:17.782728,192097089,0.9444857,0.9658968,1,0.3535101,2
12065,2023-01-20 11:09:17.882760,192197118,0.9444492,0.9658741,1,0.3741725,2
12096,2023-01-20 11:09:17.982758,192297120,0.9443836,0.9658332,1,0.4010733,2
12129,2023-01-20 11:09:18.082723,192397102,0.944135,0.9656784,1,0.4534698,2
12161,2023-01-20 11:09:18.182763,192497162,0.9438695,0.965513,1,0.4360591,2
12194,2023-01-20 11:09:18.275276,192597095,0.9436622,0.9653838,1,0.4711409,2
12227,2023-01-20 11:09:18.366334,192697126,0.9436046,0.9653479,1,0.474621,2
12259,2023-01-20 11:09:18.462954,192797107,0.943373,0.9652036,1,0.4868363,2
12290,2023-01-20 11:09:18.562869,192897093,0.9432245,0.9651111,1,0.484269,2
12323,2023-01-20 11:09:18.662826,192997076,0.9431096,0.9650395,1,0.4942854,2
12356,2023-01-20 11:09:18.762892,193097141,0.9428916,0.9649036,1,0.4627298,2
12390,2023-01-20 11:09:18.862895,193197179,0.9427674,0.9648262,1,0.4770268,2
12421,2023-01-20 11:09:18.962777,193297116,0.942738,0.9648079,1,0.4564848,2
12453,2023-01-20 11:09:19.062736,193397081,0.9426664,0.9647632,1,0.450078,2
12485,2023-01-20 11:09:19.162782,193497105,0.9425509,0.9646912,1,0.4488271,2
12518,2023-01-20 11:09:19.262830,193597083,0.9424239,0.9646121,1,0.4337322,2
12553,2023-01-20 11:09:19.362995,193697150,0.9422435,0.9644996,1,0.3997662,2
12585,2023-01-20 11:09:19.462948,193797163,0.9421954,0.9644696,1,0.412798,2
12616,2023-01-20 11:09:19.562752,193897120,0.9421355,0.9644322,1,0.4077208,2
12649,2023-01-20 11:09:19.662676,193997079,0.9418762,0.9642706,1,0.4065016,2
12683,2023-01-20 11:09:19.762712,194097081,0.9417693,0.9642039,1,0.4157616,2
12717,2023-01-20 11:09:19.862752,194197115,0.941517,0.9640465,1,0.4045057,2
12748,2023-01-20 11:09:19.962738,194297111,0.9414002,0.9639736,1,0.3925913,2
12781,2023-01-20 11:09:20.062757,194397126,0.9413174,0.963922,1,0.3941761,2
12813,2023-01-20 11:09:20.162807,194497165,0.9411184,0.9637979,1,0.4007147,2
12845,2023-01-20 11:09:20.262726,194597085,0.9409587,0.9636983,1,0.4357063,2
12879,2023-01-20 11:09:20.362749,194697118,0.9407021,0.9635382,1,0.394276,2
12911,2023-01-20 11:09:20.462720,194797107,0.9406281,0.963492,1,0.3483027,2
12944,2023-01-20 11:09:20.562678,194897088,0.9408372,0.9636225,1,0.3595384,2
12977,2023-01-20 11:09:20.662696,194997101,0.9407713,0.9635813,1,0.3731772,2
13010,2023-01-20 11:09:20.762748,195097131,0.9405423,0.9634385,1,0.3625842,2
13044,2023-01-20 11:09:20.862754,195197131,0.9404238,0.9633645,1,0.3820711,2
13075,2023-01-20 11:09:20.962743,195297122,0.9404817,0.9634006,1,0.3605071,2
13108,2023-01-20 11:09:21.062708,195397087,0.9403995,0.9633493,1,0.3610943,2
13139,2023-01-20 11:09:21.162738,195497115,0.9404106,0.9633562,1,0.36777,2
13173,2023-01-20 11:09:21.262717,195597093,0.9403622,0.963326,1,0.3495917,2
13207,2023-01-20 11:09:21.362740,195697116,0.9403791,0.9633366,1,0.3521037,2
13239,2023-01-20 11:09:21.462773,195797178,0.9403529,0.9633203,1,0.3566133,2
13270,2023-01-20 11:09:21.562687,195897138,0.9403182,0.9632986,1,0.362283,2
13303,2023-01-20 11:09:21.662650,195997086,0.9402196,0.963237,1,0.3621501,2
13336,2023-01-20 11:09:21.762698,196097084,0.9401575,0.9631983,1,0.3842861,2
13370,2023-01-20 11:09:21.862755,196197124,0.9400552,0.9631344,1,0.3648625,2
13401,2023-01-20 11:09:21.962738,196297111,0.9400629,0.9631392,1,0.3675705,2
13434,2023-01-20 11:09:22.062757,196397144,0.9400627,0.9631391,1,0.3694077,2
13465,2023-01-20 11:09:22.162713,196497121,0.9398999,0.9630375,1,0.3675925,2
13499,2023-01-20 11:09:22.262674,196597078,0.9398395,0.9629998,1,0.387842,2
13533,2023-01-20 11:09:22.362730,196697114,0.9397984,0.9629741,1,0.4024444,2
13565,2023-01-20 11:09:22.462723,196797115,0.9397009,0.9629133,1,0.3979935,2
13596,2023-01-20 11:09:22.562695,196897112,0.9396779,0.9628989,1,0.4010133,2
13629,2023-01-20 11:09:22.662668,196997079,0.939615,0.9628596,1,0.3915487,2
13662,2023-01-20 11:09:22.762753,197097140,0.9395342,0.9628092,1,0.4033175,2
13696,2023-01-20 11:09:22.862738,197197114,0.939427,0.9627422,1,0.3773599,2
13727,2023-01-20 11:09:22.962728,197297101,0.9394022,0.9627268,1,0.3658085,2
13760,2023-01-20 11:09:23.062723,197397093,0.9393773,0.9627112,1,0.4222344,2
13791,2023-01-20 11:09:23.162739,197497106,0.9392589,0.9626373,1,0.4504414,2
13825,2023-01-20 11:09:23.262717,197597088,0.9388907,0.9624074,1,0.4321949,2
13859,2023-01-20 11:09:23.362805,197697186,0.9388686,0.9623935,1,0.4107736,2
13891,2023-01-20 11:09:23.462720,197797112,0.9389436,0.9624404,1,0.3987867,2
13922,2023-01-20 11:09:23.562699,197897104,0.9388778,0.9623992,1,0.3704767,2
13955,2023-01-20 11:09:23.662676,197997072,0.9387943,0.9623471,1,0.3860482,2
13988,2023-01-20 11:09:23.762721,198097094,0.9387351,0.9623101,1,0.4003884,2
14022,2023-01-20 11:09:23.862741,198197109,0.9385191,0.9621752,1,0.3982875,2
14053,2023-01-20 11:09:23.962740,198297115,0.938356,0.9620733,1,0.3687775,2
14086,2023-01-20 11:09:24.062751,198397140,0.9384052,0.9621041,1,0.3842288,2
14117,2023-01-20 11:09:24.162707,198497116,0.9383657,0.9620794,1,0.3937833,2
14151,2023-01-20 11:09:24.262683,198597082,0.9382067,0.9619801,1,0.4023688,2
14185,2023-01-20 11:09:24.362744,198697117,0.938146,0.9619421,1,0.3684104,2
14218,2023-01-20 11:09:24.462733,198797114,0.9381387,0.9619376,1,0.3818763,2
14249,2023-01-20 11:09:24.562686,198897096,0.9381004,0.9619136,1,0.3842542,2
14282,2023-01-20 11:09:24.662714,198997132,0.9380563,0.9618861,1,0.3790266,2
14315,2023-01-20 11:09:24.762684,199097096,0.9379884,0.9618437,1,0.3783976,2
14349,2023-01-20 11:09:24.862708,199197106,0.9379089,0.961794,1,0.3579972,2
14380,2023-01-20 11:09:24.962723,199297102,0.9378775,0.9617744,1,0.3598107,2
14413,2023-01-20 11:09:25.062712,199397084,0.9378473,0.9617555,1,0.3619299,2
14444,2023-01-20 11:09:25.162748,199497119,0.9377873,0.961718,1,0.3609131,2
14478,2023-01-20 11:09:25.262719,199597084,0.9378757,0.9617733,1,0.3641072,2
14512,2023-01-20 11:09:25.362828,199697183,0.9377357,0.9616858,1,0.3759207,2
14544,2023-01-20 11:09:25.462725,199797100,0.9376799,0.9616509,1,0.3492695,2
14577,2023-01-20 11:09:25.562673,199897084,0.9377787,0.9617126,1,0.3787229,2
14610,2023-01-20 11:09:25.662674,199997083,0.9377465,0.9616925,1,0.3521486,2
14643,2023-01-20 11:09:25.762698,200097081,0.9376392,0.9616255,1,0.3442765,2
14677,2023-01-20 11:09:25.862746,200197115,0.9376737,0.961647,1,0.3458543,2
14708,2023-01-20 11:09:25.962795,200297159,0.9377246,0.9616789,1,0.3627867,2
14741,2023-01-20 11:09:26.062706,200397084,0.9375714,0.9615831,1,0.3573881,2
14772,2023-01-20 11:09:26.162698,200497102,0.9376183,0.9616124,1,0.3654588,2
14806,2023-01-20 11:09:26.262685,200597083,0.9375879,0.9615934,1,0.3944835,2
14840,2023-01-20 11:09:26.362750,200697122,0.9374174,0.9614869,1,0.3863931,2
14872,2023-01-20 11:09:26.462721,200797103,0.9373333,0.9614342,1,0.3979457,2
14903,2023-01-20 11:09:26.562682,200897094,0.9372437,0.9613783,1,0.3835596,2
14936,2023-01-20 11:09:26.662713,200997134,0.9371772,0.9613367,1,0.4238864,2
14969,2023-01-20 11:09:26.762668,201097086,0.937097,0.9612865,1,0.4112751,2
15003,2023-01-20 11:09:26.862719,201197117,0.9370115,0.9612331,1,0.429096,2
15034,2023-01-20 11:09:26.962740,201297107,0.9369026,0.9611651,1,0.4271238,2
15067,2023-01-20 11:09:27.062721,201397082,0.9368491,0.9611316,1,0.4226033,2
15098,2023-01-20 11:09:27.162745,201497116,0.9367946,0.9610975,1,0.3963938,2
15132,2023-01-20 11:09:27.262750,201597131,0.9367482,0.9610685,1,0.3784144,2
15166,2023-01-20 11:09:27.362723,201697115,0.9367655,0.9610793,1,0.3639069,2
15198,2023-01-20 11:09:27.462730,201797121,0.9368115,0.9611081,1,0.3593593,2
15229,2023-01-20 11:09:27.562709,201897091,0.9367282,0.961056,1,0.3661432,2
15262,2023-01-20 11:09:27.662712,201997087,0.9365851,0.9609665,1,0.3652807,2
15295,2023-01-20 11:09:27.762726,202097095,0.9364918,0.9609082,1,0.3566468,2
15329,2023-01-20 11:09:27.862765,202197132,0.9365859,0.960967,1,0.3488331,2
15361,2023-01-20 11:09:27.962820,202297187,0.9365596,0.9609506,1,0.3684534,2
15393,2023-01-20 11:09:28.062736,202397099,0.9364735,0.9608967,1,0.3634046,2
15424,2023-01-20 11:09:28.162752,202497108,0.9364415,0.9608767,1,0.3472246,2
15458,2023-01-20 11:09:28.262722,202597080,0.9364924,0.9609086,1,0.3268527,2
15492,2023-01-20 11:09:28.362759,202697123,0.9366464,0.9610049,1,0.3411973,2
15524,2023-01-20 11:09:28.457057,202797116,0.9366737,0.9610219,1,0.3532945,2
15555,2023-01-20 11:09:28.547998,202897132,0.9366311,0.9609953,1,0.3278284,2
15588,2023-01-20 11:09:28.642771,202997093,0.9365814,0.9609642,1,0.3264804,2
15621,2023-01-20 11:09:28.742766,203097087,0.9368425,0.9611275,1,0.3613115,2
15655,2023-01-20 11:09:28.842789,203197110,0.9366242,0.960991,1,0.3685419,2
15687,2023-01-20 11:09:28.942786,203297108,0.9366238,0.9609907,1,0.3894738,2
15719,2023-01-20 11:09:29.042765,203397085,0.9366079,0.9609808,1,0.3562787,2
15750,2023-01-20 11:09:29.142803,203497117,0.9366513,0.9610079,1,0.3605172,2
15784,2023-01-20 11:09:29.242805,203597127,0.9366645,0.9610162,1,0.3614744,2
15818,2023-01-20 11:09:29.342768,203697115,0.9365597,0.9609506,1,0.3742779,2
15850,2023-01-20 11:09:29.442733,203797100,0.936501,0.9609139,1,0.3668786,2
15882,2023-01-20 11:09:29.542717,203897100,0.9364004,0.960851,1,0.3630429,2
15915,2023-01-20 11:09:29.642751,203997095,0.9364588,0.9608876,1,0.3648629,2
15949,2023-01-20 11:09:29.742866,204097099,0.936371,0.9608327,1,0.3787519,2
15983,2023-01-20 11:09:29.842974,204197174,0.9362835,0.9607779,1,0.3979113,2
16015,2023-01-20 11:09:29.942842,204297112,0.9361711,0.9607076,1,0.3934326,2
16047,2023-01-20 11:09:30.042767,204397096,0.9361537,0.9606967,1,0.3855895,2
16078,2023-01-20 11:09:30.142741,204497115,0.9361126,0.9606711,1,0.3833302,2
16112,2023-01-20 11:09:30.242689,204597082,0.9361126,0.9606711,1,0.3858829,2
16146,2023-01-20 11:09:30.342749,204697127,0.9360674,0.9606428,1,0.383752,2
16178,2023-01-20 11:09:30.442725,204797102,0.936014,0.9606094,1,0.3894182,2
16211,2023-01-20 11:09:30.542737,204897133,0.9359667,0.9605798,1,0.3954314,2
16244,2023-01-20 11:09:30.642681,204997089,0.9358882,0.9605306,1,0.405626,2
16277,2023-01-20 11:09:30.742681,205097095,0.9358274,0.9604927,1,0.3969623,2
16311,2023-01-20 11:09:30.842712,205197114,0.9358174,0.9604864,1,0.4241283,2
16386,2023-01-20 11:09:30.942750,205297117,0.9357268,0.9604297,1,0.4067813,2
16418,2023-01-20 11:09:31.042733,205397083,0.935629,0.9603685,1,0.3993065,2
16449,2023-01-20 11:09:31.142818,205497174,0.9356562,0.9603856,1,0.4048099,2
16483,2023-01-20 11:09:31.242746,205597109,0.9355931,0.960346,1,0.3927686,2
16517,2023-01-20 11:09:31.342773,205697144,0.9354562,0.9602604,1,0.3907948,2
16548,2023-01-20 11:09:31.442976,205797358,0.9354888,0.9602808,1,0.3665821,2
16579,2023-01-20 11:09:31.542692,205897091,0.9354036,0.9602275,1,0.3516006,2
16612,2023-01-20 11:09:31.642684,205997083,0.9353885,0.9602181,1,0.3876845,2
16645,2023-01-20 11:09:31.742703,206097083,0.9352494,0.960131,1,0.4184715,2
16679,2023-01-20 11:09:31.842796,206197163,0.9349832,0.9599645,1,0.396787,2
16711,2023-01-20 11:09:31.942747,206297111,0.9350584,0.9600115,1,0.3729695,2
16743,2023-01-20 11:09:32.042722,206397083,0.9350907,0.9600317,1,0.3600354,2
16774,2023-01-20 11:09:32.142756,206497116,0.9352431,0.9601271,1,0.3576046,2
16808,2023-01-20 11:09:32.242735,206597098,0.9352146,0.9601092,1,0.4068877,2
16842,2023-01-20 11:09:32.342746,206697115,0.9350168,0.9599855,1,0.4281934,2
16874,2023-01-20 11:09:32.443048,206797430,0.9348129,0.9598579,1,0.4284369,2
16905,2023-01-20 11:09:32.542683,206897085,0.9348643,0.9598901,1,0.4040295,2
16938,2023-01-20 11:09:32.642667,206997081,0.9348804,0.9599001,1,0.38861,2
16971,2023-01-20 11:09:32.742682,207097099,0.934841,0.9598755,1,0.3950087,2
17005,2023-01-20 11:09:32.842725,207197130,0.9347299,0.959806,1,0.3893176,2
17037,2023-01-20 11:09:32.942730,207297106,0.9345238,0.9596769,1,0.3782986,2
17069,2023-01-20 11:09:33.042737,207397095,0.9344381,0.9596233,1,0.3821419,2
17100,2023-01-20 11:09:33.142792,207497149,0.9343935,0.9595954,1,0.4149161,2
17134,2023-01-20 11:09:33.242716,207597087,0.9341645,0.959452,1,0.422029,2
17168,2023-01-20 11:09:33.342724,207697127,0.934015,0.9593584,1,0.397527,2
17200,2023-01-20 11:09:33.442977,207797398,0.9340637,0.9593889,1,0.4150995,2
17231,2023-01-20 11:09:33.542659,207897078,0.9339689,0.9593295,1,0.4062578,2
17264,2023-01-20 11:09:33.642688,207997096,0.9339035,0.9592886,1,0.3981301,2
17297,2023-01-20 11:09:33.742752,208097138,0.9339002,0.9592865,1,0.3857474,2
17331,2023-01-20 11:09:33.842802,208197172,0.9339103,0.9592928,1,0.3817045,2
17363,2023-01-20 11:09:33.942750,208297113,0.9338262,0.9592402,1,0.3889503,2
17395,2023-01-20 11:09:34.042741,208397099,0.9336615,0.959137,1,0.4029891,2
17426,2023-01-20 11:09:34.142753,208497108,0.9335421,0.9590623,1,0.3906333,2
17460,2023-01-20 11:09:34.242741,208597096,0.9335769,0.9590841,1,0.3822332,2
17494,2023-01-20 11:09:34.342765,208697121,0.9333954,0.9589704,1,0.3923126,2
17526,2023-01-20 11:09:34.443035,208797402,0.933395,0.9589701,1,0.3906623,2
17557,2023-01-20 11:09:34.542702,208897093,0.9332533,0.9588814,1,0.3820382,2
17591,2023-01-20 11:09:34.642712,208997109,0.9332422,0.9588745,1,0.3915683,2
17624,2023-01-20 11:09:34.742700,209097078,0.9331997,0.9588478,1,0.3883064,2
17658,2023-01-20 11:09:34.842754,209197119,0.9331332,0.9588062,1,0.3914808,2
17690,2023-01-20 11:09:34.942742,209297103,0.9330242,0.9587379,1,0.3877529,2
17722,2023-01-20 11:09:35.042767,209397125,0.9328516,0.9586298,1,0.3611561,2
17753,2023-01-20 11:09:35.142812,209497172,0.9329523,0.9586928,1,0.3830637,2
17787,2023-01-20 11:09:35.242714,209597087,0.932869,0.9586407,1,0.3893312,2
17821,2023-01-20 11:09:35.342725,209697128,0.9327673,0.958577,1,0.4016919,2
17853,2023-01-20 11:09:35.442959,209797371,0.9327157,0.9585446,1,0.4049825,2
17886,2023-01-20 11:09:35.542701,209897096,0.932588,0.9584646,1,0.4136809,2
17919,2023-01-20 11:09:35.642713,209997094,0.9326026,0.9584737,1,0.3869253,2
17952,2023-01-20 11:09:35.742777,210097150,0.9325215,0.958423,1,0.39571,2
17986,2023-01-20 11:09:35.842747,210197122,0.9325752,0.9584566,1,0.4020304,2
18018,2023-01-20 11:09:35.942706,210297096,0.9324841,0.9583995,1,0.4045667,2
18050,2023-01-20 11:09:36.042687,210397076,0.9324582,0.9583833,1,0.3995064,2
18081,2023-01-20 11:09:36.142739,210497105,0.9324589,0.9583837,1,0.417443,2
18115,2023-01-20 11:09:36.242726,210597079,0.9324797,0.9583967,1,0.4163022,2
18149,2023-01-20 11:09:36.342823,210697176,0.9324142,0.9583557,1,0.4251819,2
18181,2023-01-20 11:09:36.438944,210797158,0.9323361,0.9583068,1,0.4243353,2
18212,2023-01-20 11:09:36.529877,210897107,0.9322894,0.9582775,1,0.4330053,2
18245,2023-01-20 11:09:36.622904,210997085,0.9322785,0.9582707,1,0.4395687,2
18278,2023-01-20 11:09:36.722909,211097087,0.9321817,0.95821,1,0.4391813,2
18312,2023-01-20 11:09:36.822965,211197137,0.9321106,0.9581655,1,0.4232711,2
18344,2023-01-20 11:09:36.922971,211297129,0.932102,0.95816,1,0.4265059,2
18376,2023-01-20 11:09:37.022980,211397131,0.9320588,0.958133,1,0.4141744,2
18407,2023-01-20 11:09:37.122958,211497125,0.9320166,0.9581065,1,0.4213518,2
18441,2023-01-20 11:09:37.222892,211597079,0.9319497,0.9580646,1,0.4151315,2
18475,2023-01-20 11:09:37.322914,211697134,0.9318836,0.9580232,1,0.4032219,2
18507,2023-01-20 11:09:37.425436,211797157,0.9318407,0.9579963,1,0.4045359,2
18538,2023-01-20 11:09:37.536388,211897100,0.9316533,0.9578788,1,0.4020226,2
18571,2023-01-20 11:09:37.638808,211997079,0.9315556,0.9578176,1,0.4136486,2
18604,2023-01-20 11:09:37.729791,212097138,0.9314716,0.9577649,1,0.4150712,2
18638,2023-01-20 11:09:37.822795,212197141,0.9313046,0.9576602,1,0.396061,2
18670,2023-01-20 11:09:37.922778,212297106,0.9312716,0.9576395,1,0.4014565,2
18702,2023-01-20 11:09:38.022768,212397085,0.9312501,0.957626,1,0.4065505,2
18733,2023-01-20 11:09:38.122798,212497126,0.9311473,0.9575616,1,0.4141159,2
18767,2023-01-20 11:09:38.222755,212597096,0.9310701,0.9575132,1,0.4029339,2
18801,2023-01-20 11:09:38.322823,212697180,0.9310637,0.9575092,1,0.399579,2
18833,2023-01-20 11:09:38.422728,212797101,0.9309698,0.9574503,1,0.3962004,2
18864,2023-01-20 11:09:38.522695,212897084,0.9309376,0.9574301,1,0.3919238,2
18897,2023-01-20 11:09:38.622689,212997087,0.9307563,0.9573164,1,0.3866252,2
18930,2023-01-20 11:09:38.722708,213097094,0.930783,0.9573331,1,0.3754306,2
18964,2023-01-20 11:09:38.822740,213197113,0.9307539,0.9573149,1,0.3783965,2
18996,2023-01-20 11:09:38.922761,213297123,0.9306888,0.9572741,1,0.378904,2
19028,2023-01-20 11:09:39.022769,213397123,0.9305156,0.9571654,1,0.3804296,2
19059,2023-01-20 11:09:39.122741,213497099,0.9305682,0.9571984,1,0.3882782,2
19093,2023-01-20 11:09:39.222723,213597091,0.9305078,0.9571606,1,0.3876604,2
19127,2023-01-20 11:09:39.322733,213697124,0.9304345,0.9571146,1,0.377366,2
19159,2023-01-20 11:09:39.422705,213797114,0.9305543,0.9571897,1,0.3796646,2
19190,2023-01-20 11:09:39.522702,213897107,0.9304599,0.9571305,1,0.3746165,2
19223,2023-01-20 11:09:39.622729,213997128,0.9303746,0.957077,1,0.3728208,2
19258,2023-01-20 11:09:39.722704,214097091,0.9303784,0.9570794,1,0.3690842,2
19294,2023-01-20 11:09:39.822746,214197120,0.9303762,0.957078,1,0.367128,2
19326,2023-01-20 11:09:39.922751,214297114,0.9303063,0.9570341,1,0.3711929,2
19358,2023-01-20 11:09:40.022741,214397096,0.9302556,0.9570023,1,0.3625068,2
19389,2023-01-20 11:09:40.122770,214497129,0.9302906,0.9570243,1,0.3808113,2
19423,2023-01-20 11:09:40.222730,214597093,0.9302863,0.9570216,1,0.3625689,2
19457,2023-01-20 11:09:40.322808,214697173,0.9302663,0.9570091,1,0.3582293,2
19489,2023-01-20 11:09:40.422764,214797136,0.9303098,0.9570363,1,0.3553331,2
19522,2023-01-20 11:09:40.522704,214897096,0.9302573,0.9570034,1,0.3691144,2
19555,2023-01-20 11:09:40.622691,214997095,0.9302416,0.9569936,1,0.3678799,2
19588,2023-01-20 11:09:40.722695,215097082,0.9302589,0.9570044,1,0.3609054,2
19622,2023-01-20 11:09:40.822746,215197117,0.9303111,0.9570372,1,0.3609086,2
19654,2023-01-20 11:09:40.922813,215297173,0.9302744,0.9570141,1,0.3519353,2
19686,2023-01-20 11:09:41.022740,215397091,0.9303392,0.9570548,1,0.3607861,2
19717,2023-01-20 11:09:41.122774,215497127,0.9302889,0.9570232,1,0.3586648,2
19751,2023-01-20 11:09:41.222720,215597081,0.9302936,0.9570262,1,0.3609946,2
19785,2023-01-20 11:09:41.322724,215697117,0.9303287,0.9570482,1,0.3666886,2
19817,2023-01-20 11:09:41.422706,215797122,0.9303564,0.9570656,1,0.36145,2
19848,2023-01-20 11:09:41.522684,215897092,0.930416,0.957103,1,0.369808,2
19881,2023-01-20 11:09:41.622723,215997123,0.9304414,0.9571189,1,0.3853959,2
19914,2023-01-20 11:09:41.722702,216097094,0.9303562,0.9570655,1,0.3626547,2
19948,2023-01-20 11:09:41.822735,216197122,0.9304608,0.9571311,1,0.3597024,2
19980,2023-01-20 11:09:41.922726,216297117,0.9305135,0.9571641,1,0.3735818,2
20012,2023-01-20 11:09:42.022691,216397081,0.9304606,0.957131,1,0.3665076,2
20043,2023-01-20 11:09:42.122754,216497127,0.9303891,0.9570861,1,0.3766088,2
20077,2023-01-20 11:09:42.222763,216597125,0.9304013,0.9570938,1,0.3668602,2
20111,2023-01-20 11:09:42.322749,216697119,0.9303547,0.9570645,1,0.3692393,2
20143,2023-01-20 11:09:42.422740,216797120,0.9302705,0.9570117,1,0.3694768,2
20174,2023-01-20 11:09:42.522692,216897086,0.9301871,0.9569594,1,0.3700116,2
20207,2023-01-20 11:09:42.622681,216997084,0.9301715,0.9569496,1,0.370151,2
20240,2023-01-20 11:09:42.722710,217097104,0.9302242,0.9569827,1,0.3691169,2
20274,2023-01-20 11:09:42.822737,217197120,0.9301841,0.9569575,1,0.3674287,2
20306,2023-01-20 11:09:42.922799,217297165,0.930104,0.9569072,1,0.3680037,2
20338,2023-01-20 11:09:43.022741,217397094,0.9300655,0.9568831,1,0.368855,2
20369,2023-01-20 11:09:43.122759,217497113,0.9300664,0.9568837,1,0.3687226,2
20403,2023-01-20 11:09:43.222718,217597076,0.930096,0.9569023,1,0.3858053,2
20437,2023-01-20 11:09:43.322783,217697155,0.9300694,0.9568855,1,0.3978868,2
20468,2023-01-20 11:09:43.422747,217797131,0.9300146,0.9568511,1,0.3999645,2
20499,2023-01-20 11:09:43.522743,217897137,0.930013,0.9568502,1,0.4212606,2
20532,2023-01-20 11:09:43.622694,217997094,0.9299733,0.9568253,1,0.4235077,2
20565,2023-01-20 11:09:43.722706,218097095,0.9299765,0.9568272,1,0.4248196,2
20599,2023-01-20 11:09:43.822726,218197108,0.9299541,0.9568132,1,0.4196427,2
20631,2023-01-20 11:09:43.922733,218297126,0.929849,0.9567472,1,0.4089482,2
20663,2023-01-20 11:09:44.022693,218397089,0.9298276,0.9567338,1,0.4057231,2
20694,2023-01-20 11:09:44.122737,218497110,0.929715,0.9566632,1,0.4188921,2
20728,2023-01-20 11:09:44.222772,218597130,0.9296672,0.9566332,1,0.4191177,2
20762,2023-01-20 11:09:44.322754,218697122,0.9295745,0.956575,1,0.4344704,2
20794,2023-01-20 11:09:44.422719,218797104,0.9294716,0.9565104,1,0.4108903,2
20825,2023-01-20 11:09:44.522664,218897087,0.9294983,0.9565272,1,0.4170399,2
20858,2023-01-20 11:09:44.622644,218997087,0.929423,0.9564799,1,0.4047069,2
20891,2023-01-20 11:09:44.722687,219097089,0.929444,0.9564931,1,0.4010625,2
20926,2023-01-20 11:09:44.822817,219197185,0.9293819,0.9564542,1,0.3955588,2
20958,2023-01-20 11:09:44.922759,219297117,0.9292566,0.9563755,1,0.3962744,2
20990,2023-01-20 11:09:45.022738,219397089,0.929126,0.9562935,1,0.4012963,2
21021,2023-01-20 11:09:45.122758,219497108,0.9290667,0.9562563,1,0.399588,2
21055,2023-01-20 11:09:45.222731,219597083,0.9290256,0.9562305,1,0.3981572,2
21089,2023-01-20 11:09:45.322754,219697119,0.9289871,0.9562063,1,0.3918499,2
21121,2023-01-20 11:09:45.422756,219797129,0.9289615,0.9561903,1,0.3908173,2
21154,2023-01-20 11:09:45.522777,219897141,0.9287806,0.9560767,1,0.3977828,2
21187,2023-01-20 11:09:45.620657,219997085,0.9286802,0.9560137,1,0.3985561,2
21220,2023-01-20 11:09:45.711546,220097085,0.9286669,0.9560053,1,0.3990989,2
21254,2023-01-20 11:09:45.802713,220197120,0.9286121,0.9559709,1,0.3868578,2
21286,2023-01-20 11:09:45.902661,220297106,0.9285753,0.9559478,1,0.3898108,2
21318,2023-01-20 11:09:46.002635,220397116,0.9285465,0.9559298,1,0.3880649,2
21349,2023-01-20 11:09:46.102705,220497152,0.9284582,0.9558743,1,0.3881362,2
21383,2023-01-20 11:09:46.202679,220597093,0.9284062,0.9558417,1,0.389661,2
21417,2023-01-20 11:09:46.302691,220697119,0.9283021,0.9557763,1,0.3679844,2
21449,2023-01-20 11:09:46.402668,220797110,0.9282478,0.9557422,1,0.3815085,2
21480,2023-01-20 11:09:46.502639,220897092,0.9282424,0.9557388,1,0.3862108,2
21513,2023-01-20 11:09:46.602648,220997111,0.9282105,0.9557188,1,0.3885875,2
21546,2023-01-20 11:09:46.702675,221097130,0.928144,0.955677,1,0.3843049,2
21580,2023-01-20 11:09:46.802724,221197172,0.9280968,0.9556473,1,0.3911809,2
21612,2023-01-20 11:09:46.902642,221297111,0.9280064,0.9555906,1,0.3930997,2
21644,2023-01-20 11:09:47.002626,221397116,0.9280415,0.9556127,1,0.3898393,2
21675,2023-01-20 11:09:47.102630,221497126,0.9280434,0.9556139,1,0.4162466,2
21709,2023-01-20 11:09:47.202595,221597098,0.9279833,0.9555761,1,0.3826723,2
21743,2023-01-20 11:09:47.302593,221697122,0.9280121,0.9555942,1,0.3667684,2
21775,2023-01-20 11:09:47.402613,221797168,0.9280192,0.9555987,1,0.3679608,2
21806,2023-01-20 11:09:47.502491,221897083,0.9280047,0.9555895,1,0.3856365,2
21888,2023-01-20 11:09:47.602464,221997093,0.9278884,0.9555165,1,0.371937,2
21921,2023-01-20 11:09:47.702477,222097087,0.9278156,0.9554707,1,0.3623165,2
21955,2023-01-20 11:09:47.802529,222197119,0.9278912,0.9555182,1,0.3609843,2
21987,2023-01-20 11:09:47.902546,222297103,0.9277604,0.9554361,1,0.3526855,2
22019,2023-01-20 11:09:48.002573,222397098,0.9277849,0.9554514,1,0.3544703,2
22050,2023-01-20 11:09:48.102571,222497136,0.9277191,0.9554101,1,0.3524178,2
22084,2023-01-20 11:09:48.202490,222597094,0.9278039,0.9554634,1,0.3473783,2
22118,2023-01-20 11:09:48.302513,222697124,0.9277853,0.9554517,1,0.3490551,2
22150,2023-01-20 11:09:48.402492,222797111,0.9277906,0.9554551,1,0.3605897,2
22181,2023-01-20 11:09:48.502439,222897094,0.9277586,0.955435,1,0.3499543,2
22214,2023-01-20 11:09:48.602416,222997105,0.9278344,0.9554825,1,0.3506303,2
22247,2023-01-20 11:09:48.702485,223097133,0.9278569,0.9554967,1,0.3406421,2
22281,2023-01-20 11:09:48.802503,223197111,0.9279247,0.9555393,1,0.3589758,2
22313,2023-01-20 11:09:48.902512,223297119,0.9279069,0.9555281,1,0.3532479,2
22345,2023-01-20 11:09:49.002480,223397086,0.9279163,0.955534,1,0.3486059,2
22376,2023-01-20 11:09:49.102484,223497088,0.9279317,0.9555437,1,0.354377,2
22409,2023-01-20 11:09:49.202501,223597103,0.9280193,0.9555987,1,0.3637162,2
22444,2023-01-20 11:09:49.302522,223697132,0.9280304,0.9556056,1,0.3688427,2
22476,2023-01-20 11:09:49.402531,223797148,0.9279982,0.9555855,1,0.3794668,2
22507,2023-01-20 11:09:49.502463,223897095,0.9280332,0.9556074,1,0.4008625,2
22540,2023-01-20 11:09:49.602440,223997087,0.9280115,0.9555938,1,0.3781884,2
22574,2023-01-20 11:09:49.702458,224097090,0.9281186,0.9556611,1,0.3741265,2
22608,2023-01-20 11:09:49.802519,224197136,0.9281017,0.9556504,1,0.3797785,2
22641,2023-01-20 11:09:49.902525,224297133,0.9280204,0.9555994,1,0.3941012,2
22673,2023-01-20 11:09:50.002533,224397133,0.9279424,0.9555504,1,0.3941807,2
22704,2023-01-20 11:09:50.102547,224497151,0.9278088,0.9554665,1,0.3735923,2
22737,2023-01-20 11:09:50.202492,224597099,0.9278216,0.9554746,1,0.3649804,2
22772,2023-01-20 11:09:50.302491,224697111,0.9278582,0.9554975,1,0.3864771,2
22804,2023-01-20 11:09:50.402474,224797107,0.9277793,0.9554479,1,0.3895065,2
22837,2023-01-20 11:09:50.502412,224897084,0.9276878,0.9553905,1,0.3875044,2
22870,2023-01-20 11:09:50.602413,224997123,0.9276413,0.9553613,1,0.3891501,2
22903,2023-01-20 11:09:50.702449,225097114,0.9276313,0.955355,1,0.367874,2
22937,2023-01-20 11:09:50.802512,225197133,0.9276376,0.9553589,1,0.3711137,2
22969,2023-01-20 11:09:50.902494,225297109,0.927598,0.9553341,1,0.373382,2
23001,2023-01-20 11:09:51.002475,225397085,0.9275233,0.9552872,1,0.3726205,2
23032,2023-01-20 11:09:51.102481,225497106,0.9275398,0.9552975,1,0.3684261,2
23065,2023-01-20 11:09:51.202448,225597088,0.927552,0.9553052,1,0.3700697,2
23100,2023-01-20 11:09:51.302513,225697151,0.9275032,0.9552745,1,0.3746336,2
23132,2023-01-20 11:09:51.402496,225797133,0.9274372,0.955233,1,0.3781285,2
23163,2023-01-20 11:09:51.502471,225897109,0.92738,0.9551972,1,0.3774002,2
23196,2023-01-20 11:09:51.602468,225997105,0.9273284,0.9551647,1,0.3637583,2
23229,2023-01-20 11:09:51.702461,226097076,0.9274032,0.9552117,1,0.3796524,2
23263,2023-01-20 11:09:51.802545,226197139,0.9273487,0.9551774,1,0.3641296,2
23295,2023-01-20 11:09:51.902519,226297123,0.9272994,0.9551465,1,0.3779419,2
23327,2023-01-20 11:09:52.002534,226397148,0.927233,0.9551048,1,0.3865087,2
23358,2023-01-20 11:09:52.102494,226497106,0.9271319,0.9550412,1,0.3667187,2
23391,2023-01-20 11:09:52.202478,226597089,0.9271474,0.955051,1,0.3894767,2
23426,2023-01-20 11:09:52.302486,226697111,0.927104,0.9550237,1,0.3896445,2
23458,2023-01-20 11:09:52.402493,226797131,0.9271539,0.9550551,1,0.3826533,2
23489,2023-01-20 11:09:52.502441,226897090,0.9271773,0.9550698,1,0.369452,2
23522,2023-01-20 11:09:52.602479,226997137,0.927111,0.9550281,1,0.375353,2
23555,2023-01-20 11:09:52.702510,227097132,0.9271071,0.9550257,1,0.372247,2
23589,2023-01-20 11:09:52.802549,227197136,0.9270964,0.9550189,1,0.4029641,2
23621,2023-01-20 11:09:52.902495,227297101,0.9269807,0.9549463,1,0.3837148,2
23653,2023-01-20 11:09:53.002471,227397095,0.9268849,0.9548861,1,0.3869455,2
23684,2023-01-20 11:09:53.102456,227497085,0.9268691,0.9548761,1,0.3833095,2
23717,2023-01-20 11:09:53.202478,227597111,0.9268835,0.9548852,1,0.3712302,2
23752,2023-01-20 11:09:53.302540,227697161,0.9268354,0.9548549,1,0.3844336,2
23784,2023-01-20 11:09:53.402511,227797120,0.9268175,0.9548437,1,0.3881639,2
23815,2023-01-20 11:09:53.502459,227897084,0.9267208,0.9547829,1,0.3700225,2
23848,2023-01-20 11:09:53.602458,227997098,0.9267804,0.9548204,1,0.3622455,2
23881,2023-01-20 11:09:53.702448,228097092,0.9267352,0.954792,1,0.3644803,2
23915,2023-01-20 11:09:53.802475,228197123,0.9266183,0.9547185,1,0.3668193,2
23947,2023-01-20 11:09:53.902489,228297114,0.926541,0.95467,1,0.3515419,2
23979,2023-01-20 11:09:54.002488,228397091,0.9265474,0.9546739,1,0.3517805,2
24010,2023-01-20 11:09:54.102495,228497093,0.9264677,0.9546238,1,0.349071,2
24042,2023-01-20 11:09:54.202525,228597118,0.9263734,0.9545646,1,0.3496742,2
24077,2023-01-20 11:09:54.302510,228697114,0.9263793,0.9545683,1,0.347517,2
24109,2023-01-20 11:09:54.402504,228797118,0.9263449,0.9545467,1,0.3566538,2
24140,2023-01-20 11:09:54.502465,228897091,0.9262637,0.9544956,1,0.3529821,2
24173,2023-01-20 11:09:54.602504,228997142,0.926355,0.954553,1,0.3453162,2
24206,2023-01-20 11:09:54.702485,229097099,0.9264844,0.9546344,1,0.3529444,2
24240,2023-01-20 11:09:54.802540,229197131,0.9264998,0.954644,1,0.3569848,2
24272,2023-01-20 11:09:54.902506,229297098,0.9264194,0.9545935,1,0.361565,2
24305,2023-01-20 11:09:55.002508,229397101,0.926465,0.9546221,1,0.3568279,2
24336,2023-01-20 11:09:55.102468,229497093,0.9264656,0.9546225,1,0.3547591,2
24369,2023-01-20 11:09:55.202444,229597100,0.9264827,0.9546333,1,0.3594789,2
24404,2023-01-20 11:09:55.302533,229697162,0.926472,0.9546266,1,0.360141,2
24436,2023-01-20 11:09:55.402509,229797112,0.9264203,0.9545941,1,0.3518777,2
24467,2023-01-20 11:09:55.502550,229897180,0.9264958,0.9546415,1,0.3476535,2
24502,2023-01-20 11:09:55.602428,229997086,0.9263903,0.9545752,1,0.3499367,2
24535,2023-01-20 11:09:55.702419,230097099,0.9264753,0.9546286,1,0.3675077,2
24569,2023-01-20 11:09:55.802200,230197116,0.926293,0.954514,1,0.3651685,2
24601,2023-01-20 11:09:55.893349,230297152,0.926353,0.9545518,1,0.3616449,2
24631,2023-01-20 11:09:55.984405,230397085,0.9263843,0.9545714,1,0.3498332,2
24664,2023-01-20 11:09:56.082909,230497087,0.9265159,0.9546542,1,0.3585166,2
24695,2023-01-20 11:09:56.182953,230597103,0.9263974,0.9545797,1,0.3699505,2
24732,2023-01-20 11:09:56.282953,230697117,0.9263434,0.9545457,1,0.3674617,2
24762,2023-01-20 11:09:56.382921,230797109,0.926321,0.9545317,1,0.3600058,2
24795,2023-01-20 11:09:56.482844,230897095,0.9265164,0.9546545,1,0.3723872,2
24826,2023-01-20 11:09:56.582904,230997227,0.9263801,0.9545688,1,0.3748785,2
24861,2023-01-20 11:09:56.682813,231097099,0.9262883,0.9545111,1,0.3661209,2
24893,2023-01-20 11:09:56.782887,231197113,0.92633,0.9545373,1,0.3914948,2
24927,2023-01-20 11:09:56.882889,231297116,0.9263085,0.9545237,1,0.3869428,2
24957,2023-01-20 11:09:56.982929,231397170,0.9262313,0.9544752,1,0.3693399,2
24990,2023-01-20 11:09:57.082807,231497108,0.9263071,0.9545229,1,0.3627385,2
25021,2023-01-20 11:09:57.182947,231597318,0.9262478,0.9544857,1,0.364169,2
25058,2023-01-20 11:09:57.282748,231697131,0.9261662,0.9544343,1,0.3700766,2
25088,2023-01-20 11:09:57.382839,231797221,0.9259973,0.9543282,1,0.3523971,2
25121,2023-01-20 11:09:57.482708,231897098,0.9260389,0.9543543,1,0.3436307,2
25152,2023-01-20 11:09:57.582796,231997195,0.9260443,0.9543577,1,0.3365964,2
25187,2023-01-20 11:09:57.682719,232097108,0.9259767,0.9543152,1,0.3362697,2
25219,2023-01-20 11:09:57.782847,232197221,0.925808,0.9542091,1,0.3343096,2
25253,2023-01-20 11:09:57.882793,232297160,0.9257704,0.9541855,1,0.3370129,2
25283,2023-01-20 11:09:57.982857,232397218,0.9258031,0.954206,1,0.3503245,2
25316,2023-01-20 11:09:58.082734,232497097,0.9256783,0.9541276,1,0.3518536,2
25347,2023-01-20 11:09:58.182820,232597186,0.9257447,0.9541693,1,0.3538846,2
25384,2023-01-20 11:09:58.282782,232697143,0.9258206,0.9542171,1,0.3621117,2
25414,2023-01-20 11:09:58.382856,232797209,0.9258295,0.9542227,1,0.3613899,2
25447,2023-01-20 11:09:58.482757,232897139,0.9259444,0.9542949,1,0.3524982,2
25478,2023-01-20 11:09:58.582782,232997201,0.9258979,0.9542657,1,0.3553435,2
25513,2023-01-20 11:09:58.682696,233097100,0.9258983,0.9542659,1,0.3572258,2
25545,2023-01-20 11:09:58.782856,233197233,0.9259098,0.9542731,1,0.3615002,2
25579,2023-01-20 11:09:58.882751,233297125,0.9258358,0.9542266,1,0.3616194,2
25609,2023-01-20 11:09:58.982789,233397165,0.9257783,0.9541904,1,0.3492762,2
25642,2023-01-20 11:09:59.082717,233497109,0.9258175,0.9542151,1,0.3317444,2
25673,2023-01-20 11:09:59.182812,233597224,0.9258862,0.9542583,1,0.3323812,2
25710,2023-01-20 11:09:59.282732,233697131,0.9259118,0.9542744,1,0.3372922,2
25740,2023-01-20 11:09:59.382739,233797119,0.9257359,0.9541638,1,0.3289056,2
25773,2023-01-20 11:09:59.482699,233897089,0.9257489,0.954172,1,0.3194192,2
25804,2023-01-20 11:09:59.582692,233997097,0.9258642,0.9542445,1,0.3179636,2
25840,2023-01-20 11:09:59.682703,234097112,0.9259196,0.9542793,1,0.3215985,2
25872,2023-01-20 11:09:59.782759,234197168,0.9258823,0.9542559,1,0.3352576,2
25906,2023-01-20 11:09:59.882727,234297124,0.9258842,0.9542571,1,0.332176,2
25936,2023-01-20 11:09:59.982713,234397096,0.9260041,0.9543324,1,0.3215288,2
25970,2023-01-20 11:10:00.082734,234497105,0.9261613,0.9544312,1,0.3172594,2
26000,2023-01-20 11:10:00.182742,234597103,0.9262793,0.9545054,1,0.3107647,2
26038,2023-01-20 11:10:00.282779,234697148,0.9263786,0.9545678,1,0.3224353,2
26068,2023-01-20 11:10:00.382736,234797118,0.9264508,0.9546133,1,0.3182248,2
26101,2023-01-20 11:10:00.482751,234897146,0.9264889,0.9546372,1,0.3024757,2
26134,2023-01-20 11:10:00.582738,234997147,0.9266485,0.9547375,1,0.2892869,2
26169,2023-01-20 11:10:00.682699,235097090,0.9268219,0.9548465,1,0.2935482,2
26201,2023-01-20 11:10:00.782761,235197127,0.9269444,0.9549235,1,0.2993468,2
26234,2023-01-20 11:10:00.882767,235297131,0.9268873,0.9548876,1,0.2844067,2
26264,2023-01-20 11:10:00.982723,235397089,0.9270443,0.9549862,1,0.2828498,2
26297,2023-01-20 11:10:01.082769,235497134,0.9272365,0.955107,1,0.2898479,2
26327,2023-01-20 11:10:01.182743,235597107,0.9272836,0.9551366,1,0.2844013,2
26365,2023-01-20 11:10:01.282766,235697138,0.9274141,0.9552186,1,0.2860779,2
26395,2023-01-20 11:10:01.382731,235797113,0.9275355,0.9552948,1,0.2993626,2
26428,2023-01-20 11:10:01.482706,235897102,0.9276041,0.9553379,1,0.2952338,2
26458,2023-01-20 11:10:01.582680,235997092,0.9277855,0.9554518,1,0.2998062,2
26493,2023-01-20 11:10:01.682675,236097083,0.9278971,0.9555219,1,0.3074343,2
26525,2023-01-20 11:10:01.782788,236197188,0.9279434,0.955551,1,0.317622,2
26558,2023-01-20 11:10:01.882739,236297122,0.9279981,0.9555854,1,0.3223134,2
26588,2023-01-20 11:10:01.982718,236397082,0.9281269,0.9556662,1,0.3351853,2
26621,2023-01-20 11:10:02.082730,236497096,0.9281796,0.9556994,1,0.3315642,2
26651,2023-01-20 11:10:02.182725,236597098,0.9282352,0.9557343,1,0.3348678,2
26689,2023-01-20 11:10:02.282731,236697125,0.9284078,0.9558427,1,0.3405256,2
26719,2023-01-20 11:10:02.382740,236797158,0.9284806,0.9558884,1,0.3471385,2
26755,2023-01-20 11:10:02.482677,236897097,0.9284196,0.9558501,1,0.3473653,2
26785,2023-01-20 11:10:02.582676,236997094,0.9284818,0.9558891,1,0.3563377,2
26820,2023-01-20 11:10:02.682698,237097091,0.9284239,0.9558527,1,0.3612539,2
26852,2023-01-20 11:10:02.782741,237197106,0.9283699,0.9558188,1,0.3581108,2
26885,2023-01-20 11:10:02.882763,237297125,0.9283294,0.9557934,1,0.3639916,2
26915,2023-01-20 11:10:02.982720,237397085,0.9282488,0.9557428,1,0.3571587,2
26948,2023-01-20 11:10:03.082771,237497139,0.9282522,0.9557449,1,0.3576793,2
26978,2023-01-20 11:10:03.182717,237597088,0.9281684,0.9556924,1,0.3539807,2
27015,2023-01-20 11:10:03.282745,237697120,0.9281722,0.9556947,1,0.358103,2
27045,2023-01-20 11:10:03.382734,237797112,0.9280494,0.9556176,1,0.3537589,2
27078,2023-01-20 11:10:03.482707,237897096,0.9279878,0.9555789,1,0.3444732,2
27108,2023-01-20 11:10:03.582685,237997087,0.9280051,0.9555898,1,0.3389102,2
27143,2023-01-20 11:10:03.682743,238097128,0.9280138,0.9555953,1,0.3406091,2
27175,2023-01-20 11:10:03.782754,238197115,0.9279043,0.9555265,1,0.3416836,2
27209,2023-01-20 11:10:03.882746,238297106,0.9278424,0.9554876,1,0.3447129,2
27239,2023-01-20 11:10:03.982722,238397085,0.9277465,0.9554273,1,0.3442637,2
27272,2023-01-20 11:10:04.082734,238497101,0.9277042,0.9554008,1,0.3489708,2
27302,2023-01-20 11:10:04.182742,238597113,0.9276541,0.9553693,1,0.3539158,2
27339,2023-01-20 11:10:04.282732,238697126,0.9276009,0.9553359,1,0.3547189,2
27369,2023-01-20 11:10:04.382763,238797183,0.9276215,0.9553488,1,0.3524144,2
27402,2023-01-20 11:10:04.482693,238897108,0.927672,0.9553806,1,0.3550602,2
27432,2023-01-20 11:10:04.582746,238997149,0.9276451,0.9553637,1,0.3495249,2
27467,2023-01-20 11:10:04.682944,239097331,0.927552,0.9553052,1,0.3490857,2
27499,2023-01-20 11:10:04.782764,239197134,0.927519,0.9552845,1,0.3488851,2
27533,2023-01-20 11:10:04.882768,239297128,0.9275067,0.9552767,1,0.3504428,2
27563,2023-01-20 11:10:04.982793,239397144,0.9274932,0.9552683,1,0.3495352,2
27596,2023-01-20 11:10:05.075297,239497098,0.9274308,0.955229,1,0.3499164,2
27627,2023-01-20 11:10:05.166313,239597123,0.9273958,0.955207,1,0.3525078,2
27664,2023-01-20 11:10:05.262989,239697127,0.9273654,0.9551879,1,0.3521194,2
27694,2023-01-20 11:10:05.362991,239797119,0.9273595,0.9551842,1,0.353223,2
27727,2023-01-20 11:10:05.469864,239897101,0.9272869,0.9551386,1,0.3554424,2
27759,2023-01-20 11:10:05.580836,239997134,0.9273343,0.9551684,1,0.3523239,2
