LineNo,UTC_Approx,TimeUS,Lat,Lng,Alt,RelHomeAlt,RelOriginAlt
687,2023-01-20 11:08:47.422034,161676780,39.8044397,32.3787885,739.41,0.01255247,0.4925525
1038,2023-01-20 11:08:47.517007,161776752,39.8044396,32.3787885,739.41,0.01617512,0.4961751
1154,2023-01-20 11:08:47.631612,161894101,39.8044394,32.3787887,739.41,0.0185459,0.4985459
1417,2023-01-20 11:08:47.739580,161996524,39.8044392,32.3787888,739.41,0.01841846,0.4984185
1836,2023-01-20 11:08:47.843096,162097042,39.8044391,32.3787891,739.42,0.02045569,0.5004557
1883,2023-01-20 11:08:47.942894,162197082,39.8044391,32.3787892,739.42,0.02393362,0.5039336
1928,2023-01-20 11:08:48.042708,162297032,39.8044389,32.3787893,739.42,0.02666923,0.5066692
1974,2023-01-20 11:08:48.142719,162397038,39.8044387,32.3787895,739.42,0.02883324,0.5088332
2027,2023-01-20 11:08:48.242733,162497036,39.8044385,32.3787897,739.43,0.03089699,0.510897
2068,2023-01-20 11:08:48.342788,162597058,39.8044382,32.3787898,739.43,0.03272703,0.512727
2126,2023-01-20 11:08:48.438957,162697080,39.804438,32.37879,739.43,0.03428575,0.5142857
2185,2023-01-20 11:08:48.529887,162797049,39.8044379,32.3787901,739.43,0.03575829,0.5157583
2245,2023-01-20 11:08:48.622943,162897070,39.8044377,32.3787902,739.43,0.03682849,0.5168285
2299,2023-01-20 11:08:48.722914,162997021,39.8044375,32.3787903,739.43,0.03727451,0.5172745
2355,2023-01-20 11:08:48.822951,163097043,39.8044374,32.3787903,739.43,0.03744653,0.5174465
2410,2023-01-20 11:08:48.922982,163197073,39.8044373,32.3787903,739.43,0.03707406,0.517074
2450,2023-01-20 11:08:49.022939,163297033,39.8044371,32.3787903,739.43,0.03590986,0.5159099
2494,2023-01-20 11:08:49.122921,163397031,39.804437,32.3787904,739.43,0.03245845,0.5124584
2536,2023-01-20 11:08:49.225430,163497025,39.8044368,32.3787905,739.43,0.03003863,0.5100386
2576,2023-01-20 11:08:49.336469,163597028,39.8044366,32.3787906,739.42,0.02807972,0.5080797
2619,2023-01-20 11:08:49.442812,163697085,39.8044364,32.3787907,739.42,0.02628902,0.506289
2657,2023-01-20 11:08:49.542746,163797084,39.8044361,32.3787908,739.42,0.02474102,0.504741
2697,2023-01-20 11:08:49.638823,163897025,39.8044359,32.3787909,739.42,0.02226314,0.5022631
2735,2023-01-20 11:08:49.729877,163997055,39.8044357,32.378791,739.41,0.01925173,0.4992517
2778,2023-01-20 11:08:49.822932,164097028,39.8044355,32.3787913,739.41,0.01704529,0.4970453
2818,2023-01-20 11:08:49.922960,164197080,39.8044353,32.3787913,739.41,0.0156267,0.4956267
2858,2023-01-20 11:08:50.022911,164297040,39.8044351,32.3787915,739.41,0.01404765,0.4940476
2897,2023-01-20 11:08:50.122938,164397030,39.804435,32.3787915,739.41,0.01164559,0.4916456
2940,2023-01-20 11:08:50.223000,164497072,39.8044349,32.3787915,739.4,0.009054095,0.4890541
2978,2023-01-20 11:08:50.322927,164597040,39.8044349,32.3787916,739.4,0.006009191,0.4860092
3020,2023-01-20 11:08:50.422914,164697069,39.8044348,32.3787916,739.4,0.001870543,0.4818705
3060,2023-01-20 11:08:50.522829,164797031,39.8044347,32.3787917,739.39,-0.005652338,0.4743477
3100,2023-01-20 11:08:50.622804,164897030,39.8044346,32.3787917,739.38,-0.01264206,0.4673579
3138,2023-01-20 11:08:50.722860,164997028,39.8044345,32.3787918,739.37,-0.02158788,0.4584121
3179,2023-01-20 11:08:50.822887,165097025,39.8044344,32.3787919,739.36,-0.0305827,0.4494173
3219,2023-01-20 11:08:50.922923,165197125,39.8044342,32.378792,739.35,-0.04231569,0.4376843
3259,2023-01-20 11:08:51.022793,165297042,39.804434,32.3787922,739.34,-0.05494702,0.425053
3297,2023-01-20 11:08:51.122798,165397032,39.8044337,32.3787923,739.32,-0.07284203,0.407158
3340,2023-01-20 11:08:51.222837,165497070,39.8044335,32.3787925,739.31,-0.08886412,0.3911359
3378,2023-01-20 11:08:51.322765,165597042,39.8044332,32.3787926,739.29,-0.108758,0.371242
3420,2023-01-20 11:08:51.422771,165697086,39.804433,32.3787927,739.27,-0.1277133,0.3522867
3458,2023-01-20 11:08:51.522699,165797030,39.8044327,32.3787928,739.24,-0.1502815,0.3297184
3499,2023-01-20 11:08:51.622695,165897038,39.8044325,32.3787928,739.22,-0.1703068,0.3096932
3536,2023-01-20 11:08:51.722692,165997027,39.8044324,32.3787928,739.2,-0.1923693,0.2876307
3579,2023-01-20 11:08:51.822704,166097035,39.8044323,32.3787928,739.18,-0.2117815,0.2682185
3619,2023-01-20 11:08:51.922754,166197088,39.8044322,32.3787929,739.16,-0.2342967,0.2457033
3659,2023-01-20 11:08:52.022706,166297040,39.8044321,32.3787929,739.14,-0.2535607,0.2264393
3695,2023-01-20 11:08:52.122704,166397031,39.804432,32.378793,739.12,-0.2724215,0.2075785
3730,2023-01-20 11:08:52.222760,166497083,39.8044319,32.3787931,739.11,-0.2886302,0.1913698
3760,2023-01-20 11:08:52.322710,166597035,39.8044319,32.3787931,739.09,-0.3057543,0.1742457
3795,2023-01-20 11:08:52.422758,166697091,39.8044318,32.3787931,739.08,-0.31892,0.16108
3825,2023-01-20 11:08:52.522741,166797099,39.8044318,32.3787932,739.07,-0.3299265,0.1500735
3858,2023-01-20 11:08:52.622652,166897023,39.8044318,32.3787932,739.06,-0.3386727,0.1413273
3888,2023-01-20 11:08:52.722689,166997027,39.8044319,32.3787932,739.05,-0.3469959,0.1330041
3923,2023-01-20 11:08:52.822721,167097033,39.8044319,32.3787932,739.04,-0.3536222,0.1263778
3955,2023-01-20 11:08:52.922770,167197080,39.8044318,32.3787932,739.03,-0.3602949,0.119705
3988,2023-01-20 11:08:53.022740,167297056,39.8044317,32.3787933,739.03,-0.3665431,0.1134569
4018,2023-01-20 11:08:53.122693,167397040,39.8044316,32.3787934,739.02,-0.3741856,0.1058144
4053,2023-01-20 11:08:53.222718,167497087,39.8044315,32.3787934,739.01,-0.3804681,0.09953185
4083,2023-01-20 11:08:53.322729,167597088,39.8044316,32.3787934,739.01,-0.3875938,0.09240618
4118,2023-01-20 11:08:53.422755,167697115,39.8044316,32.3787934,739,-0.3945583,0.08544167
4148,2023-01-20 11:08:53.522692,167797093,39.8044316,32.3787934,738.99,-0.4036844,0.07631559
4181,2023-01-20 11:08:53.622669,167897094,39.8044317,32.3787933,738.98,-0.4118227,0.06817728
4211,2023-01-20 11:08:53.722683,167997076,39.8044317,32.3787934,738.97,-0.4218468,0.05815315
4246,2023-01-20 11:08:53.822717,168097089,39.8044316,32.3787934,738.96,-0.431364,0.04863601
4279,2023-01-20 11:08:53.922762,168197150,39.8044314,32.3787934,738.95,-0.4420644,0.03793558
4312,2023-01-20 11:08:54.022732,168297136,39.8044314,32.3787934,738.95,-0.4465569,0.0334431
4343,2023-01-20 11:08:54.122679,168397096,39.8044314,32.3787934,738.96,-0.4380538,0.0419462
4378,2023-01-20 11:08:54.222656,168497077,39.8044314,32.3787933,738.98,-0.4139208,0.06607916
4408,2023-01-20 11:08:54.322738,168597135,39.8044315,32.3787931,739.02,-0.3765517,0.1034482
4443,2023-01-20 11:08:54.422730,168697117,39.8044316,32.3787929,739.07,-0.3276026,0.1523974
4473,2023-01-20 11:08:54.522686,168797110,39.8044317,32.3787928,739.12,-0.273479,0.206521
4506,2023-01-20 11:08:54.622680,168897129,39.8044317,32.3787926,739.17,-0.2206475,0.2593525
4536,2023-01-20 11:08:54.722653,168997086,39.8044316,32.3787924,739.23,-0.1653991,0.3146009
4571,2023-01-20 11:08:54.822675,169097092,39.8044314,32.3787922,739.29,-0.1058893,0.3741107
4603,2023-01-20 11:08:54.922775,169197181,39.8044312,32.378792,739.35,-0.04488721,0.4351128
4636,2023-01-20 11:08:55.022707,169297103,39.8044309,32.3787918,739.41,0.0127987,0.4927987
4666,2023-01-20 11:08:55.122713,169397099,39.8044306,32.3787916,739.46,0.06711152,0.5471115
4701,2023-01-20 11:08:55.222714,169497093,39.8044303,32.3787915,739.54,0.1416663,0.6216663
4731,2023-01-20 11:08:55.322703,169597088,39.8044302,32.3787915,739.63,0.2370166,0.7170166
4766,2023-01-20 11:08:55.422731,169697126,39.8044301,32.3787915,739.73,0.3367188,0.8167188
4798,2023-01-20 11:08:55.522680,169797103,39.8044299,32.3787915,739.84,0.4445891,0.9245891
4831,2023-01-20 11:08:55.622664,169897102,39.8044298,32.3787915,739.95,0.5543925,1.034392
4861,2023-01-20 11:08:55.722749,169997158,39.8044297,32.3787917,740.06,0.6610639,1.141064
4896,2023-01-20 11:08:55.822697,170097084,39.8044295,32.3787917,740.16,0.7619594,1.241959
4928,2023-01-20 11:08:55.922755,170197145,39.8044294,32.378792,740.26,0.86156,1.34156
4961,2023-01-20 11:08:56.022728,170297119,39.8044294,32.3787922,740.35,0.9543227,1.434323
4991,2023-01-20 11:08:56.122700,170397084,39.8044293,32.3787923,740.43,1.03829,1.51829
5026,2023-01-20 11:08:56.222715,170497094,39.8044293,32.3787925,740.51,1.11703,1.59703
5056,2023-01-20 11:08:56.322734,170597115,39.8044293,32.3787927,740.59,1.193065,1.673065
5091,2023-01-20 11:08:56.422731,170697121,39.8044294,32.3787929,740.66,1.265525,1.745525
5121,2023-01-20 11:08:56.522721,170797143,39.8044292,32.3787932,740.73,1.337606,1.817606
5154,2023-01-20 11:08:56.622662,170897101,39.8044292,32.3787935,740.81,1.412804,1.892804
5184,2023-01-20 11:08:56.722687,170997092,39.8044292,32.3787939,740.89,1.490904,1.970904
5219,2023-01-20 11:08:56.822717,171097098,39.8044291,32.3787942,740.97,1.571185,2.051185
5251,2023-01-20 11:08:56.922768,171197157,39.8044292,32.3787946,741.05,1.655525,2.135525
5284,2023-01-20 11:08:57.022703,171297096,39.8044293,32.3787949,741.14,1.740673,2.220673
5315,2023-01-20 11:08:57.122695,171397080,39.8044292,32.3787952,741.22,1.82823,2.30823
5350,2023-01-20 11:08:57.222711,171497089,39.8044291,32.3787955,741.31,1.911499,2.391499
5380,2023-01-20 11:08:57.322757,171597134,39.804429,32.3787959,741.38,1.988808,2.468808
5415,2023-01-20 11:08:57.422725,171697108,39.8044289,32.3787963,741.46,2.066895,2.546895
5445,2023-01-20 11:08:57.522672,171797091,39.8044287,32.3787967,741.54,2.148629,2.628629
5478,2023-01-20 11:08:57.622657,171897097,39.8044285,32.3787971,741.63,2.237378,2.717378
5508,2023-01-20 11:08:57.722682,171997088,39.8044284,32.3787973,741.73,2.333892,2.813892
5543,2023-01-20 11:08:57.822758,172097140,39.8044282,32.3787976,741.83,2.437511,2.917511
5575,2023-01-20 11:08:57.922751,172197138,39.804428,32.3787977,741.94,2.548345,3.028345
5610,2023-01-20 11:08:58.022720,172297110,39.8044279,32.3787978,742.06,2.66478,3.14478
5640,2023-01-20 11:08:58.122740,172397127,39.8044279,32.3787981,742.18,2.782291,3.262291
5675,2023-01-20 11:08:58.222991,172497376,39.8044278,32.3787982,742.3,2.901008,3.381008
5705,2023-01-20 11:08:58.322717,172597103,39.8044277,32.3787984,742.42,3.022178,3.502178
5740,2023-01-20 11:08:58.422743,172697137,39.8044276,32.3787984,742.53,3.136266,3.616266
5770,2023-01-20 11:08:58.522682,172797111,39.8044274,32.3787983,742.64,3.240791,3.720791
5803,2023-01-20 11:08:58.622675,172897123,39.8044272,32.3787982,742.73,3.338153,3.818153
5833,2023-01-20 11:08:58.722694,172997105,39.8044267,32.378798,742.82,3.428398,3.908398
5868,2023-01-20 11:08:58.822725,173097112,39.8044262,32.3787979,742.91,3.514628,3.994628
5900,2023-01-20 11:08:58.922759,173197162,39.8044256,32.3787976,743,3.603656,4.083656
5934,2023-01-20 11:08:59.020649,173297132,39.8044249,32.3787971,743.09,3.695925,4.175925
5965,2023-01-20 11:08:59.111565,173397153,39.8044244,32.3787965,743.18,3.785665,4.265665
6000,2023-01-20 11:08:59.202941,173497385,39.8044237,32.3787958,743.27,3.870305,4.350305
6030,2023-01-20 11:08:59.302657,173597098,39.8044233,32.3787951,743.35,3.957046,4.437046
6065,2023-01-20 11:08:59.403048,173697181,39.8044228,32.3787944,743.43,4.03929,4.51929
6094,2023-01-20 11:08:59.514077,173797102,39.8044224,32.3787937,743.52,4.1237,4.6037
6127,2023-01-20 11:08:59.620620,173897111,39.8044219,32.3787931,743.6,4.207098,4.687098
6157,2023-01-20 11:08:59.711507,173997092,39.8044213,32.3787925,743.69,4.290238,4.770238
6193,2023-01-20 11:08:59.802673,174097114,39.8044205,32.3787921,743.77,4.37133,4.85133
6225,2023-01-20 11:08:59.902664,174197135,39.8044194,32.3787918,743.85,4.453011,4.933011
6258,2023-01-20 11:09:00.002610,174297112,39.8044181,32.3787918,743.92,4.529361,5.009361
6288,2023-01-20 11:09:00.102577,174397152,39.804417,32.3787916,744,4.606939,5.086939
6323,2023-01-20 11:09:00.202739,174497384,39.8044157,32.3787917,744.07,4.679204,5.159204
6353,2023-01-20 11:09:00.302493,174597087,39.8044144,32.3787915,744.15,4.752347,5.232347
6388,2023-01-20 11:09:00.402596,174697141,39.804413,32.3787916,744.21,4.819388,5.299388
6420,2023-01-20 11:09:00.502483,174797083,39.8044115,32.3787914,744.28,4.884338,5.364338
6453,2023-01-20 11:09:00.602453,174897105,39.8044099,32.3787914,744.34,4.947885,5.427885
6483,2023-01-20 11:09:00.702477,174997097,39.8044082,32.3787913,744.41,5.016856,5.496856
6519,2023-01-20 11:09:00.802530,175097119,39.8044066,32.3787915,744.48,5.089756,5.569756
6551,2023-01-20 11:09:00.902586,175197199,39.8044047,32.3787917,744.57,5.172176,5.652176
6584,2023-01-20 11:09:01.002484,175297118,39.804403,32.3787922,744.65,5.258132,5.738132
6614,2023-01-20 11:09:01.102562,175397121,39.8044012,32.3787925,744.75,5.35111,5.83111
6649,2023-01-20 11:09:01.202938,175497425,39.8043995,32.3787929,744.84,5.442678,5.922678
6679,2023-01-20 11:09:01.302540,175597095,39.8043978,32.3787933,744.93,5.536877,6.016877
6714,2023-01-20 11:09:01.402521,175697143,39.8043962,32.3787937,745.02,5.629436,6.109436
6744,2023-01-20 11:09:01.502438,175797087,39.8043947,32.3787941,745.11,5.71852,6.19852
6777,2023-01-20 11:09:01.602470,175897145,39.8043933,32.3787944,745.19,5.799175,6.279175
6808,2023-01-20 11:09:01.702456,175997125,39.8043917,32.3787947,745.28,5.880805,6.360806
6843,2023-01-20 11:09:01.802438,176097102,39.8043904,32.3787949,745.35,5.958701,6.438701
6875,2023-01-20 11:09:01.902484,176197144,39.8043892,32.3787951,745.43,6.039676,6.519676
6908,2023-01-20 11:09:02.002453,176297109,39.8043881,32.3787952,745.52,6.123077,6.603077
6938,2023-01-20 11:09:02.102487,176397131,39.8043871,32.3787953,745.6,6.207071,6.687071
6973,2023-01-20 11:09:02.202823,176497455,39.8043863,32.3787953,745.68,6.288325,6.768325
7003,2023-01-20 11:09:02.302475,176597103,39.8043855,32.3787954,745.77,6.370676,6.850676
7038,2023-01-20 11:09:02.402507,176697133,39.8043848,32.3787956,745.85,6.452565,6.932565
7068,2023-01-20 11:09:02.502422,176797097,39.8043842,32.3787958,745.93,6.539842,7.019842
7101,2023-01-20 11:09:02.602376,176897098,39.8043837,32.3787958,746.03,6.630397,7.110397
7131,2023-01-20 11:09:02.702411,176997088,39.8043834,32.378796,746.13,6.73018,7.21018
7166,2023-01-20 11:09:02.802476,177097109,39.8043833,32.3787962,746.22,6.82672,7.30672
7198,2023-01-20 11:09:02.902578,177197216,39.8043833,32.3787963,746.32,6.928265,7.408265
7231,2023-01-20 11:09:03.002467,177297109,39.8043833,32.3787962,746.42,7.029659,7.509659
7261,2023-01-20 11:09:03.102462,177397116,39.8043833,32.3787964,746.53,7.139066,7.619066
7296,2023-01-20 11:09:03.202593,177497258,39.8043833,32.3787963,746.64,7.247452,7.727452
7326,2023-01-20 11:09:03.302433,177597102,39.8043833,32.3787963,746.75,7.359235,7.839235
7361,2023-01-20 11:09:03.402465,177697139,39.8043831,32.378796,746.86,7.469198,7.949198
7391,2023-01-20 11:09:03.502443,177797116,39.8043831,32.3787956,746.99,7.59022,8.07022
7424,2023-01-20 11:09:03.602423,177897095,39.804383,32.378795,747.1,7.706355,8.186355
7455,2023-01-20 11:09:03.702453,177997112,39.8043827,32.3787945,747.22,7.822779,8.302779
7490,2023-01-20 11:09:03.802452,178097099,39.8043824,32.3787939,747.33,7.931753,8.411753
7522,2023-01-20 11:09:03.902474,178197134,39.8043819,32.3787934,747.44,8.042466,8.522466
7555,2023-01-20 11:09:04.002444,178297116,39.8043815,32.3787928,747.54,8.146037,8.626037
7586,2023-01-20 11:09:04.102420,178397101,39.804381,32.3787923,747.65,8.25464,8.734639
7621,2023-01-20 11:09:04.202566,178497254,39.8043805,32.3787917,747.76,8.363087,8.843086
7651,2023-01-20 11:09:04.302437,178597102,39.8043799,32.3787911,747.87,8.477627,8.957626
7686,2023-01-20 11:09:04.402492,178697134,39.8043793,32.3787905,747.98,8.589329,9.069328
7716,2023-01-20 11:09:04.502475,178797133,39.804379,32.3787899,748.1,8.701803,9.181803
7749,2023-01-20 11:09:04.602433,178897107,39.8043785,32.3787893,748.21,8.810334,9.290334
7779,2023-01-20 11:09:04.702454,178997103,39.804378,32.3787887,748.32,8.925983,9.405983
7814,2023-01-20 11:09:04.802475,179097101,39.8043774,32.3787881,748.44,9.041552,9.521551
7846,2023-01-20 11:09:04.902477,179197139,39.8043768,32.3787875,748.56,9.164284,9.644283
7879,2023-01-20 11:09:05.002424,179297121,39.8043762,32.3787869,748.68,9.281901,9.761901
7909,2023-01-20 11:09:05.102417,179397091,39.8043755,32.3787865,748.79,9.394368,9.874368
7944,2023-01-20 11:09:05.202488,179497140,39.8043749,32.378786,748.89,9.495472,9.975471
7974,2023-01-20 11:09:05.302459,179597096,39.8043742,32.3787855,748.99,9.59922,10.07922
8010,2023-01-20 11:09:05.402523,179697148,39.8043735,32.378785,749.09,9.69494,10.17494
8042,2023-01-20 11:09:05.502427,179797108,39.8043726,32.3787846,749.18,9.785449,10.26545
8075,2023-01-20 11:09:05.602395,179897130,39.8043716,32.3787842,749.26,9.866224,10.34622
8105,2023-01-20 11:09:05.702485,179997159,39.8043707,32.3787838,749.33,9.936863,10.41686
8140,2023-01-20 11:09:05.802489,180097105,39.8043697,32.3787834,749.39,9.991718,10.47172
8172,2023-01-20 11:09:05.902481,180197137,39.8043686,32.3787831,749.43,10.035,10.51499
8205,2023-01-20 11:09:06.002417,180297112,39.8043676,32.3787827,749.46,10.06745,10.54745
8235,2023-01-20 11:09:06.102455,180397141,39.8043666,32.3787824,749.49,10.09406,10.57406
8270,2023-01-20 11:09:06.202450,180497127,39.8043656,32.3787821,749.51,10.11095,10.59095
8300,2023-01-20 11:09:06.302414,180597094,39.8043645,32.3787815,749.51,10.11876,10.59876
8335,2023-01-20 11:09:06.402449,180697131,39.8043633,32.378781,749.52,10.12042,10.60042
8365,2023-01-20 11:09:06.502429,180797103,39.8043623,32.3787807,749.52,10.12127,10.60127
8398,2023-01-20 11:09:06.602432,180897098,39.8043613,32.3787804,749.51,10.11831,10.59831
8428,2023-01-20 11:09:06.702421,180997091,39.8043604,32.3787803,749.52,10.12019,10.60019
8463,2023-01-20 11:09:06.802438,181097112,39.8043595,32.3787803,749.52,10.1206,10.6006
8495,2023-01-20 11:09:06.902481,181197142,39.8043585,32.3787804,749.52,10.12428,10.60428
8528,2023-01-20 11:09:07.002442,181297091,39.8043577,32.3787807,749.52,10.12351,10.60351
8558,2023-01-20 11:09:07.102449,181397095,39.8043568,32.378781,749.52,10.12019,10.60019
8593,2023-01-20 11:09:07.202570,181497214,39.8043559,32.3787815,749.51,10.11275,10.59275
8623,2023-01-20 11:09:07.302474,181597116,39.8043552,32.3787821,749.5,10.10789,10.58789
8659,2023-01-20 11:09:07.402508,181697149,39.8043546,32.3787827,749.5,10.10618,10.58618
8689,2023-01-20 11:09:07.502507,181797160,39.804354,32.3787834,749.51,10.11629,10.59629
8722,2023-01-20 11:09:07.602446,181897111,39.8043537,32.3787841,749.53,10.13522,10.61522
8752,2023-01-20 11:09:07.702460,181997104,39.8043534,32.3787847,749.56,10.16705,10.64705
8787,2023-01-20 11:09:07.802531,182097155,39.8043532,32.3787853,749.6,10.2077,10.6877
8819,2023-01-20 11:09:07.902510,182197146,39.8043531,32.3787858,749.66,10.26021,10.74021
8852,2023-01-20 11:09:08.002459,182297107,39.8043531,32.3787863,749.71,10.31494,10.79494
8882,2023-01-20 11:09:08.102470,182397136,39.8043529,32.3787867,749.76,10.36924,10.84923
8917,2023-01-20 11:09:08.202439,182497122,39.8043526,32.3787872,749.82,10.42194,10.90194
8947,2023-01-20 11:09:08.302444,182597104,39.8043523,32.3787879,749.87,10.47792,10.95792
8982,2023-01-20 11:09:08.402538,182697177,39.804352,32.3787886,749.94,10.5408,11.0208
9012,2023-01-20 11:09:08.502431,182797101,39.8043517,32.3787894,750.01,10.61156,11.09156
9045,2023-01-20 11:09:08.602404,182897104,39.8043514,32.3787901,750.08,10.68713,11.16713
9075,2023-01-20 11:09:08.702432,182997100,39.8043512,32.3787909,750.17,10.77052,11.25052
9110,2023-01-20 11:09:08.802468,183097104,39.804351,32.3787916,750.25,10.85873,11.33873
9144,2023-01-20 11:09:08.902507,183197156,39.8043508,32.3787924,750.35,10.95279,11.43279
9177,2023-01-20 11:09:09.002236,183297117,39.8043507,32.3787932,750.44,11.04598,11.52598
9207,2023-01-20 11:09:09.093288,183397070,39.8043506,32.3787939,750.54,11.14175,11.62175
9240,2023-01-20 11:09:09.184438,183497132,39.8043504,32.3787947,750.63,11.23563,11.71563
9273,2023-01-20 11:09:09.282884,183597110,39.8043503,32.3787957,750.73,11.33052,11.81052
9306,2023-01-20 11:09:09.382916,183697155,39.8043501,32.3787967,750.82,11.4277,11.9077
9338,2023-01-20 11:09:09.482880,183797117,39.8043499,32.3787978,750.92,11.52567,12.00566
9369,2023-01-20 11:09:09.582873,183897106,39.8043497,32.3787989,751.02,11.62584,12.10584
9402,2023-01-20 11:09:09.682874,183997090,39.8043495,32.3788001,751.13,11.73224,12.21224
9436,2023-01-20 11:09:09.782906,184097102,39.8043492,32.3788013,751.24,11.84067,12.32067
9470,2023-01-20 11:09:09.882931,184197143,39.8043489,32.3788026,751.35,11.9561,12.4361
9501,2023-01-20 11:09:09.982898,184297134,39.8043486,32.3788038,751.47,12.07395,12.55395
9533,2023-01-20 11:09:10.082891,184397135,39.8043483,32.3788051,751.59,12.19887,12.67887
9565,2023-01-20 11:09:10.182878,184497126,39.8043481,32.3788064,751.72,12.32712,12.80712
9598,2023-01-20 11:09:10.282859,184597108,39.8043478,32.3788077,751.86,12.46177,12.94177
9631,2023-01-20 11:09:10.382916,184697166,39.8043476,32.3788089,751.99,12.59753,13.07753
9663,2023-01-20 11:09:10.482788,184797130,39.8043474,32.3788101,752.13,12.73697,13.21697
9696,2023-01-20 11:09:10.582783,184897236,39.8043472,32.3788112,752.27,12.87441,13.35441
9728,2023-01-20 11:09:10.682671,184997088,39.8043471,32.3788123,752.41,13.01624,13.49623
9761,2023-01-20 11:09:10.782856,185097207,39.804347,32.3788133,752.56,13.16,13.64
9795,2023-01-20 11:09:10.882832,185197190,39.8043468,32.3788142,752.7,13.3087,13.7887
9826,2023-01-20 11:09:10.982846,185297226,39.8043466,32.3788152,752.85,13.45556,13.93556
9859,2023-01-20 11:09:11.082708,185397098,39.8043464,32.3788161,753,13.60534,14.08534
9891,2023-01-20 11:09:11.182838,185497236,39.8043462,32.3788171,753.15,13.75162,14.23162
9924,2023-01-20 11:09:11.282684,185597094,39.804346,32.3788181,753.29,13.89544,14.37544
9957,2023-01-20 11:09:11.382909,185697333,39.8043458,32.3788191,753.43,14.03475,14.51475
9988,2023-01-20 11:09:11.482672,185797096,39.8043457,32.3788201,753.57,14.17942,14.65942
10019,2023-01-20 11:09:11.582798,185897218,39.8043456,32.3788212,753.72,14.31998,14.79998
10051,2023-01-20 11:09:11.682734,185997136,39.8043456,32.3788222,753.86,14.46548,14.94547
10084,2023-01-20 11:09:11.782813,186097195,39.8043454,32.3788233,754,14.60603,15.08603
10118,2023-01-20 11:09:11.882763,186197147,39.8043454,32.3788242,754.14,14.74915,15.22915
10149,2023-01-20 11:09:11.982807,186297196,39.8043454,32.3788252,754.29,14.89029,15.37029
10181,2023-01-20 11:09:12.082683,186397098,39.8043454,32.3788261,754.43,15.03337,15.51337
10213,2023-01-20 11:09:12.182887,186497332,39.8043455,32.3788271,754.57,15.1721,15.6521
10246,2023-01-20 11:09:12.282663,186597086,39.8043455,32.378828,754.71,15.31731,15.79731
10280,2023-01-20 11:09:12.382829,186697219,39.8043456,32.3788288,754.85,15.45772,15.93772
10312,2023-01-20 11:09:12.482754,186797158,39.8043457,32.3788296,755,15.60527,16.08527
10343,2023-01-20 11:09:12.582778,186897205,39.8043458,32.3788305,755.15,15.75047,16.23047
10375,2023-01-20 11:09:12.682680,186997085,39.8043459,32.3788312,755.29,15.89994,16.37994
10408,2023-01-20 11:09:12.782819,187097193,39.804346,32.378832,755.44,16.04267,16.52267
10442,2023-01-20 11:09:12.882766,187197141,39.8043461,32.3788328,755.59,16.19056,16.67056
10473,2023-01-20 11:09:12.982718,187297099,39.8043463,32.3788336,755.72,16.32707,16.80707
10505,2023-01-20 11:09:13.082709,187397097,39.8043463,32.3788344,755.85,16.4565,16.9365
10537,2023-01-20 11:09:13.182729,187497124,39.8043464,32.3788352,755.96,16.56313,17.04313
10570,2023-01-20 11:09:13.282699,187597085,39.8043463,32.3788361,756.05,16.65551,17.13551
10603,2023-01-20 11:09:13.382809,187697183,39.8043464,32.378837,756.12,16.72757,17.20757
10635,2023-01-20 11:09:13.482695,187797091,39.8043464,32.3788379,756.19,16.79096,17.27096
10666,2023-01-20 11:09:13.582669,187897094,39.8043465,32.3788388,756.23,16.83861,17.31861
10698,2023-01-20 11:09:13.682731,187997141,39.8043466,32.3788396,756.28,16.88211,17.36211
10731,2023-01-20 11:09:13.782703,188097089,39.8043468,32.3788404,756.31,16.91483,17.39482
10765,2023-01-20 11:09:13.882767,188197145,39.8043469,32.3788411,756.34,16.94742,17.42742
10796,2023-01-20 11:09:13.982735,188297109,39.8043471,32.3788417,756.37,16.97082,17.45082
10828,2023-01-20 11:09:14.082715,188397097,39.8043472,32.3788422,756.39,16.99376,17.47376
10860,2023-01-20 11:09:14.182753,188497145,39.8043474,32.3788426,756.4,17.00844,17.48844
10894,2023-01-20 11:09:14.282727,188597113,39.8043475,32.3788428,756.42,17.02246,17.50245
10928,2023-01-20 11:09:14.382756,188697134,39.8043477,32.378843,756.42,17.02905,17.50905
10960,2023-01-20 11:09:14.482689,188797089,39.8043479,32.3788431,756.42,17.02626,17.50626
10991,2023-01-20 11:09:14.582674,188897103,39.8043481,32.3788432,756.41,17.01895,17.49895
11023,2023-01-20 11:09:14.682725,188997134,39.8043483,32.3788432,756.4,17.00695,17.48695
11056,2023-01-20 11:09:14.782706,189097084,39.8043484,32.3788433,756.39,16.9932,17.4732
11090,2023-01-20 11:09:14.882755,189197145,39.8043484,32.3788433,756.38,16.98034,17.46034
11121,2023-01-20 11:09:14.982732,189297142,39.8043485,32.3788433,756.36,16.96125,17.44125
11153,2023-01-20 11:09:15.082681,189397086,39.8043485,32.3788432,756.34,16.94454,17.42454
11185,2023-01-20 11:09:15.182719,189497114,39.8043486,32.3788432,756.32,16.92872,17.40872
11218,2023-01-20 11:09:15.282710,189597088,39.8043486,32.3788432,756.32,16.92028,17.40028
11254,2023-01-20 11:09:15.382754,189697113,39.8043486,32.3788432,756.31,16.91479,17.39479
11286,2023-01-20 11:09:15.482714,189797109,39.8043485,32.3788432,756.31,16.9155,17.3955
11319,2023-01-20 11:09:15.582681,189897123,39.8043485,32.3788432,756.31,16.91237,17.39237
11351,2023-01-20 11:09:15.682655,189997068,39.8043484,32.3788432,756.31,16.91081,17.39081
11384,2023-01-20 11:09:15.782702,190097071,39.8043483,32.3788433,756.3,16.9073,17.38729
11418,2023-01-20 11:09:15.882744,190197105,39.8043483,32.3788434,756.3,16.90398,17.38398
11449,2023-01-20 11:09:15.982738,190297099,39.8043484,32.3788435,756.29,16.8957,17.3757
11481,2023-01-20 11:09:16.082717,190397081,39.8043485,32.3788436,756.29,16.89397,17.37397
11513,2023-01-20 11:09:16.182763,190497130,39.8043488,32.3788438,756.29,16.89141,17.37141
11546,2023-01-20 11:09:16.282699,190597066,39.804349,32.3788439,756.29,16.89101,17.37101
11579,2023-01-20 11:09:16.382745,190697110,39.8043494,32.3788442,756.28,16.88791,17.3679
11611,2023-01-20 11:09:16.482701,190797080,39.8043498,32.3788445,756.29,16.89188,17.37188
11642,2023-01-20 11:09:16.582668,190897065,39.8043502,32.3788448,756.29,16.89692,17.37691
11674,2023-01-20 11:09:16.682686,190997074,39.8043507,32.3788452,756.3,16.90704,17.38704
11707,2023-01-20 11:09:16.782692,191097066,39.8043513,32.3788457,756.31,16.91514,17.39514
11741,2023-01-20 11:09:16.882777,191197144,39.8043521,32.3788463,756.32,16.92481,17.40481
11772,2023-01-20 11:09:16.982736,191297098,39.8043528,32.3788469,756.33,16.93474,17.41474
11804,2023-01-20 11:09:17.082700,191397064,39.8043539,32.3788475,756.34,16.94966,17.42966
11836,2023-01-20 11:09:17.182718,191497085,39.8043549,32.3788483,756.36,16.96443,17.44443
11869,2023-01-20 11:09:17.282712,191597074,39.804356,32.378849,756.37,16.9781,17.4581
11902,2023-01-20 11:09:17.382745,191697101,39.8043572,32.37885,756.38,16.9894,17.46939
11934,2023-01-20 11:09:17.482751,191797134,39.8043585,32.378851,756.4,17.00665,17.48665
11965,2023-01-20 11:09:17.582705,191897121,39.8043598,32.3788523,756.42,17.0221,17.5021
11997,2023-01-20 11:09:17.682674,191997068,39.8043611,32.3788536,756.43,17.03697,17.51697
12030,2023-01-20 11:09:17.782711,192097072,39.8043624,32.3788553,756.45,17.05346,17.53346
12064,2023-01-20 11:09:17.882743,192197101,39.804364,32.3788568,756.47,17.07288,17.55288
12095,2023-01-20 11:09:17.982736,192297098,39.8043655,32.3788588,756.49,17.09028,17.57028
12128,2023-01-20 11:09:18.082705,192397084,39.8043675,32.3788608,756.5,17.10349,17.58349
12160,2023-01-20 11:09:18.182745,192497144,39.8043694,32.3788631,756.51,17.1166,17.5966
12193,2023-01-20 11:09:18.275257,192597074,39.804372,32.3788655,756.53,17.13622,17.61621
12226,2023-01-20 11:09:18.366319,192697109,39.8043744,32.3788683,756.55,17.1596,17.6396
12258,2023-01-20 11:09:18.462937,192797090,39.804377,32.3788712,756.58,17.18955,17.66955
12289,2023-01-20 11:09:18.562852,192897076,39.8043797,32.3788743,756.62,17.22861,17.70861
12322,2023-01-20 11:09:18.662808,192997058,39.8043826,32.3788775,756.67,17.27575,17.75575
12355,2023-01-20 11:09:18.762860,193097109,39.8043855,32.3788809,756.73,17.33216,17.81215
12389,2023-01-20 11:09:18.862877,193197161,39.8043886,32.3788846,756.79,17.39746,17.87746
12420,2023-01-20 11:09:18.962757,193297096,39.8043917,32.3788885,756.87,17.47113,17.95113
12452,2023-01-20 11:09:19.062718,193397064,39.8043951,32.3788925,756.95,17.55333,18.03333
12484,2023-01-20 11:09:19.162762,193497085,39.8043987,32.3788968,757.04,17.64266,18.12266
12517,2023-01-20 11:09:19.262813,193597066,39.8044023,32.3789014,757.13,17.73732,18.21732
12552,2023-01-20 11:09:19.362978,193697133,39.8044059,32.3789061,757.24,17.84042,18.32042
12584,2023-01-20 11:09:19.462930,193797145,39.8044095,32.3789111,757.34,17.94652,18.42652
12615,2023-01-20 11:09:19.562735,193897103,39.804413,32.3789164,757.44,18.04801,18.52801
12648,2023-01-20 11:09:19.662657,193997061,39.8044167,32.378922,757.54,18.14298,18.62298
12682,2023-01-20 11:09:19.762694,194097063,39.8044204,32.3789279,757.63,18.23052,18.71052
12716,2023-01-20 11:09:19.862734,194197097,39.8044239,32.3789342,757.71,18.31334,18.79334
12747,2023-01-20 11:09:19.962721,194297094,39.8044273,32.3789406,757.79,18.39751,18.87751
12780,2023-01-20 11:09:20.062740,194397109,39.8044305,32.3789472,757.88,18.48229,18.96229
12812,2023-01-20 11:09:20.162790,194497147,39.8044336,32.378954,757.96,18.56724,19.04724
12844,2023-01-20 11:09:20.262709,194597068,39.8044367,32.3789608,758.04,18.6472,19.1272
12878,2023-01-20 11:09:20.362732,194697101,39.8044399,32.3789678,758.12,18.72297,19.20296
12910,2023-01-20 11:09:20.462700,194797087,39.8044431,32.3789749,758.2,18.80631,19.28631
12943,2023-01-20 11:09:20.562661,194897071,39.8044464,32.378982,758.29,18.89504,19.37504
12976,2023-01-20 11:09:20.662679,194997084,39.8044498,32.3789892,758.37,18.97701,19.45701
13009,2023-01-20 11:09:20.762730,195097113,39.8044533,32.3789965,758.45,19.05474,19.53474
13043,2023-01-20 11:09:20.862737,195197114,39.8044568,32.3790038,758.52,19.12744,19.60744
13074,2023-01-20 11:09:20.962726,195297105,39.8044603,32.3790112,758.59,19.19642,19.67642
13107,2023-01-20 11:09:21.062690,195397069,39.8044638,32.3790186,758.66,19.26308,19.74308
13138,2023-01-20 11:09:21.162721,195497098,39.8044671,32.3790258,758.72,19.32742,19.80742
13172,2023-01-20 11:09:21.262695,195597071,39.8044704,32.3790331,758.79,19.38996,19.86996
13206,2023-01-20 11:09:21.362723,195697099,39.8044736,32.3790404,758.85,19.45086,19.93086
13238,2023-01-20 11:09:21.462755,195797160,39.8044769,32.3790476,758.9,19.50654,19.98654
13269,2023-01-20 11:09:21.562670,195897121,39.8044802,32.3790546,758.95,19.55943,20.03943
13302,2023-01-20 11:09:21.662632,195997069,39.8044836,32.3790616,759.01,19.61281,20.09281
13335,2023-01-20 11:09:21.762681,196097067,39.8044871,32.3790684,759.06,19.66445,20.14445
13369,2023-01-20 11:09:21.862734,196197103,39.8044907,32.379075,759.11,19.71552,20.19552
13400,2023-01-20 11:09:21.962721,196297094,39.8044943,32.3790816,759.17,19.77229,20.25229
13433,2023-01-20 11:09:22.062739,196397126,39.8044977,32.3790882,759.23,19.83204,20.31204
13464,2023-01-20 11:09:22.162695,196497103,39.804501,32.3790948,759.29,19.89331,20.37331
13498,2023-01-20 11:09:22.262656,196597060,39.8045042,32.3791012,759.36,19.96095,20.44094
13532,2023-01-20 11:09:22.362712,196697096,39.8045072,32.3791076,759.43,20.03283,20.51283
13564,2023-01-20 11:09:22.462705,196797097,39.8045103,32.3791139,759.5,20.10629,20.58629
13595,2023-01-20 11:09:22.562677,196897094,39.8045134,32.3791203,759.58,20.18267,20.66267
13628,2023-01-20 11:09:22.662650,196997061,39.8045165,32.3791266,759.65,20.25908,20.73907
13661,2023-01-20 11:09:22.762736,197097123,39.8045196,32.379133,759.73,20.33669,20.81669
13695,2023-01-20 11:09:22.862721,197197097,39.8045227,32.3791393,759.81,20.41726,20.89726
13726,2023-01-20 11:09:22.962711,197297084,39.8045258,32.3791456,759.9,20.50293,20.98293
13759,2023-01-20 11:09:23.062706,197397076,39.8045291,32.3791519,759.98,20.58857,21.06857
13790,2023-01-20 11:09:23.162721,197497088,39.8045325,32.3791581,760.06,20.66976,21.14976
13824,2023-01-20 11:09:23.262699,197597071,39.804536,32.3791643,760.15,20.75182,21.23182
13858,2023-01-20 11:09:23.362787,197697168,39.8045396,32.3791703,760.24,20.84021,21.32021
13890,2023-01-20 11:09:23.462697,197797089,39.8045433,32.3791764,760.33,20.93563,21.41563
13921,2023-01-20 11:09:23.562681,197897086,39.8045469,32.3791824,760.43,21.03772,21.51772
13954,2023-01-20 11:09:23.662659,197997055,39.8045506,32.3791885,760.53,21.13987,21.61987
13987,2023-01-20 11:09:23.762700,198097073,39.8045542,32.3791946,760.63,21.2388,21.7188
14021,2023-01-20 11:09:23.862724,198197092,39.804558,32.3792009,760.74,21.34151,21.8215
14052,2023-01-20 11:09:23.962722,198297097,39.8045617,32.379207,760.84,21.44723,21.92723
14085,2023-01-20 11:09:24.062734,198397123,39.8045653,32.3792133,760.95,21.55565,22.03565
14116,2023-01-20 11:09:24.162689,198497098,39.8045689,32.3792195,761.06,21.66376,22.14376
14150,2023-01-20 11:09:24.262666,198597065,39.8045725,32.3792256,761.16,21.76863,22.24862
14184,2023-01-20 11:09:24.362726,198697099,39.8045761,32.3792318,761.27,21.87351,22.35351
14217,2023-01-20 11:09:24.462716,198797097,39.8045797,32.3792382,761.37,21.97604,22.45604
14248,2023-01-20 11:09:24.562668,198897078,39.8045833,32.3792445,761.47,22.07726,22.55726
14281,2023-01-20 11:09:24.662696,198997114,39.8045869,32.3792508,761.58,22.18013,22.66013
14314,2023-01-20 11:09:24.762667,199097079,39.8045907,32.3792571,761.68,22.28243,22.76243
14348,2023-01-20 11:09:24.862691,199197089,39.8045945,32.3792634,761.77,22.37995,22.85995
14379,2023-01-20 11:09:24.962706,199297085,39.8045984,32.3792697,761.87,22.47571,22.95571
14412,2023-01-20 11:09:25.062694,199397066,39.8046025,32.3792761,761.96,22.56612,23.04612
14443,2023-01-20 11:09:25.162731,199497102,39.8046066,32.3792825,762.05,22.65211,23.13211
14477,2023-01-20 11:09:25.262701,199597066,39.8046107,32.3792889,762.13,22.73428,23.21428
14511,2023-01-20 11:09:25.362810,199697165,39.8046148,32.3792953,762.21,22.81216,23.29216
14543,2023-01-20 11:09:25.462707,199797082,39.8046189,32.3793017,762.28,22.88503,23.36503
14576,2023-01-20 11:09:25.562656,199897067,39.8046229,32.379308,762.35,22.95712,23.43712
14609,2023-01-20 11:09:25.662657,199997066,39.804627,32.3793145,762.43,23.03234,23.51234
14642,2023-01-20 11:09:25.762681,200097064,39.804631,32.3793209,762.51,23.11155,23.59155
14676,2023-01-20 11:09:25.862727,200197097,39.8046351,32.3793274,762.59,23.19499,23.67499
14707,2023-01-20 11:09:25.962769,200297133,39.8046391,32.3793338,762.67,23.27329,23.75329
14740,2023-01-20 11:09:26.062689,200397067,39.8046431,32.3793402,762.74,23.34417,23.82417
14771,2023-01-20 11:09:26.162680,200497084,39.8046472,32.3793467,762.81,23.41231,23.89231
14805,2023-01-20 11:09:26.262668,200597066,39.8046512,32.379353,762.87,23.47957,23.95957
14839,2023-01-20 11:09:26.362732,200697104,39.804655,32.3793592,762.94,23.54558,24.02558
14871,2023-01-20 11:09:26.462703,200797085,39.8046589,32.3793656,763.01,23.61111,24.09111
14902,2023-01-20 11:09:26.562665,200897077,39.8046628,32.3793719,763.08,23.68092,24.16092
14935,2023-01-20 11:09:26.662696,200997117,39.8046666,32.3793783,763.15,23.75073,24.23073
14968,2023-01-20 11:09:26.762651,201097069,39.8046704,32.3793847,763.22,23.82456,24.30456
15002,2023-01-20 11:09:26.862702,201197100,39.8046743,32.3793911,763.3,23.90025,24.38025
15033,2023-01-20 11:09:26.962721,201297088,39.8046782,32.3793973,763.37,23.97695,24.45695
15066,2023-01-20 11:09:27.062704,201397065,39.8046822,32.3794037,763.45,24.05801,24.53801
15097,2023-01-20 11:09:27.162726,201497096,39.8046861,32.37941,763.54,24.14169,24.62169
15131,2023-01-20 11:09:27.262733,201597114,39.80469,32.3794164,763.62,24.22526,24.70526
15165,2023-01-20 11:09:27.362706,201697098,39.8046938,32.3794229,763.71,24.31186,24.79186
15197,2023-01-20 11:09:27.462712,201797103,39.8046976,32.3794294,763.8,24.40644,24.88644
15228,2023-01-20 11:09:27.562691,201897073,39.8047014,32.3794359,763.9,24.50395,24.98395
15261,2023-01-20 11:09:27.662694,201997069,39.8047052,32.3794423,763.99,24.59926,25.07926
15294,2023-01-20 11:09:27.762709,202097078,39.8047089,32.3794486,764.09,24.6961,25.1761
15328,2023-01-20 11:09:27.862748,202197115,39.8047127,32.3794549,764.19,24.79192,25.27192
15360,2023-01-20 11:09:27.962803,202297170,39.8047166,32.3794612,764.28,24.88647,25.36647
15392,2023-01-20 11:09:28.062719,202397082,39.8047204,32.3794676,764.37,24.97942,25.45942
15423,2023-01-20 11:09:28.162735,202497091,39.8047242,32.3794739,764.46,25.0696,25.5496
15457,2023-01-20 11:09:28.262705,202597063,39.8047279,32.3794803,764.55,25.15972,25.63972
15491,2023-01-20 11:09:28.362742,202697106,39.8047316,32.3794868,764.64,25.24819,25.72819
15523,2023-01-20 11:09:28.457041,202797099,39.8047352,32.3794933,764.73,25.33265,25.81265
15554,2023-01-20 11:09:28.547982,202897114,39.8047389,32.3794999,764.81,25.41938,25.89938
15587,2023-01-20 11:09:28.642754,202997076,39.8047426,32.3795064,764.91,25.51263,25.99263
15620,2023-01-20 11:09:28.742748,203097069,39.8047463,32.3795128,764.99,25.59564,26.07564
15654,2023-01-20 11:09:28.842772,203197093,39.8047501,32.3795193,765.07,25.67238,26.15238
15686,2023-01-20 11:09:28.942765,203297087,39.8047539,32.3795257,765.14,25.74771,26.22771
15718,2023-01-20 11:09:29.042747,203397067,39.8047576,32.3795321,765.22,25.82138,26.30138
15749,2023-01-20 11:09:29.142785,203497099,39.8047614,32.3795385,765.29,25.89811,26.37811
15783,2023-01-20 11:09:29.242788,203597110,39.8047652,32.379545,765.37,25.97614,26.45614
15817,2023-01-20 11:09:29.342752,203697098,39.8047689,32.3795514,765.45,26.05275,26.53275
15849,2023-01-20 11:09:29.442716,203797083,39.8047727,32.379558,765.52,26.1264,26.6064
15881,2023-01-20 11:09:29.542701,203897083,39.8047766,32.3795645,765.6,26.20048,26.68048
15914,2023-01-20 11:09:29.642734,203997078,39.8047803,32.3795711,765.67,26.27865,26.75865
15948,2023-01-20 11:09:29.742849,204097082,39.8047839,32.3795777,765.76,26.36051,26.84051
15982,2023-01-20 11:09:29.842956,204197156,39.8047877,32.3795843,765.84,26.44024,26.92024
16014,2023-01-20 11:09:29.942822,204297092,39.8047914,32.3795908,765.91,26.51896,26.99896
16046,2023-01-20 11:09:30.042750,204397079,39.8047951,32.3795973,766,26.60059,27.08059
16077,2023-01-20 11:09:30.142724,204497098,39.8047988,32.3796038,766.08,26.68596,27.16596
16111,2023-01-20 11:09:30.242672,204597065,39.8048025,32.3796102,766.17,26.77046,27.25046
16145,2023-01-20 11:09:30.342732,204697110,39.8048061,32.3796167,766.25,26.85676,27.33676
16177,2023-01-20 11:09:30.442708,204797085,39.8048098,32.3796232,766.33,26.93566,27.41566
16210,2023-01-20 11:09:30.542720,204897115,39.8048135,32.3796297,766.4,27.00934,27.48934
16243,2023-01-20 11:09:30.642663,204997072,39.8048173,32.3796362,766.48,27.08342,27.56342
16276,2023-01-20 11:09:30.742663,205097077,39.8048211,32.3796427,766.55,27.15966,27.63966
16310,2023-01-20 11:09:30.842694,205197096,39.8048248,32.3796492,766.64,27.24506,27.72506
16385,2023-01-20 11:09:30.942732,205297099,39.8048283,32.3796557,766.73,27.33772,27.81772
16417,2023-01-20 11:09:31.042715,205397065,39.804832,32.3796623,766.83,27.43227,27.91227
16448,2023-01-20 11:09:31.142801,205497157,39.8048357,32.3796687,766.92,27.52692,28.00692
16482,2023-01-20 11:09:31.242729,205597092,39.8048394,32.3796753,767.02,27.62766,28.10766
16516,2023-01-20 11:09:31.342756,205697127,39.804843,32.3796819,767.13,27.73239,28.21239
16547,2023-01-20 11:09:31.442958,205797340,39.8048466,32.3796883,767.23,27.83679,28.31679
16578,2023-01-20 11:09:31.542675,205897074,39.8048504,32.3796947,767.34,27.94616,28.42616
16611,2023-01-20 11:09:31.642665,205997065,39.8048542,32.3797011,767.45,28.05786,28.53786
16644,2023-01-20 11:09:31.742687,206097066,39.8048579,32.3797074,767.56,28.16075,28.64075
16678,2023-01-20 11:09:31.842778,206197145,39.8048617,32.3797138,767.65,28.25788,28.73788
16710,2023-01-20 11:09:31.942730,206297094,39.8048653,32.3797201,767.75,28.35366,28.83366
16742,2023-01-20 11:09:32.042704,206397066,39.8048688,32.3797262,767.84,28.44717,28.92717
16773,2023-01-20 11:09:32.142738,206497099,39.8048721,32.3797324,767.94,28.54498,29.02498
16807,2023-01-20 11:09:32.242718,206597081,39.8048756,32.3797386,768.04,28.64325,29.12325
16841,2023-01-20 11:09:32.342728,206697097,39.8048791,32.3797448,768.13,28.73285,29.21285
16873,2023-01-20 11:09:32.443032,206797413,39.8048827,32.3797512,768.22,28.82077,29.30077
16904,2023-01-20 11:09:32.542665,206897067,39.8048865,32.3797576,768.31,28.91076,29.39076
16937,2023-01-20 11:09:32.642650,206997064,39.8048903,32.379764,768.4,29.00586,29.48586
16970,2023-01-20 11:09:32.742664,207097081,39.8048943,32.3797705,768.5,29.10699,29.58698
17004,2023-01-20 11:09:32.842703,207197108,39.8048982,32.3797771,768.61,29.21053,29.69053
17036,2023-01-20 11:09:32.942710,207297086,39.8049021,32.3797836,768.71,29.31678,29.79678
17068,2023-01-20 11:09:33.042718,207397077,39.8049061,32.3797902,768.82,29.42551,29.90551
17099,2023-01-20 11:09:33.142774,207497132,39.80491,32.3797967,768.93,29.53277,30.01277
17133,2023-01-20 11:09:33.242699,207597070,39.8049139,32.3798033,769.03,29.63235,30.11235
17167,2023-01-20 11:09:33.342707,207697110,39.8049178,32.37981,769.12,29.72691,30.20691
17199,2023-01-20 11:09:33.442945,207797366,39.8049216,32.3798167,769.22,29.82246,30.30246
17230,2023-01-20 11:09:33.542642,207897061,39.8049254,32.3798233,769.31,29.91496,30.39496
17263,2023-01-20 11:09:33.642669,207997078,39.8049293,32.37983,769.4,30.00845,30.48845
17296,2023-01-20 11:09:33.742735,208097121,39.8049333,32.3798367,769.5,30.10261,30.58261
17330,2023-01-20 11:09:33.842784,208197154,39.8049373,32.3798433,769.59,30.19974,30.67974
17362,2023-01-20 11:09:33.942732,208297095,39.8049414,32.37985,769.69,30.29754,30.77754
17394,2023-01-20 11:09:34.042724,208397082,39.8049456,32.3798568,769.79,30.3924,30.8724
17425,2023-01-20 11:09:34.142736,208497091,39.8049497,32.3798636,769.88,30.48323,30.96323
17459,2023-01-20 11:09:34.242719,208597074,39.8049538,32.3798703,769.97,30.5744,31.0544
17493,2023-01-20 11:09:34.342748,208697104,39.8049579,32.3798771,770.06,30.66677,31.14677
17525,2023-01-20 11:09:34.443017,208797384,39.8049619,32.3798838,770.15,30.75948,31.23948
17556,2023-01-20 11:09:34.542685,208897076,39.8049659,32.3798906,770.25,30.85407,31.33407
17590,2023-01-20 11:09:34.642695,208997092,39.80497,32.3798973,770.34,30.94566,31.42566
17623,2023-01-20 11:09:34.742682,209097060,39.804974,32.3799039,770.43,31.03398,31.51398
17657,2023-01-20 11:09:34.842736,209197101,39.8049781,32.3799105,770.52,31.12067,31.60067
17689,2023-01-20 11:09:34.942722,209297083,39.8049821,32.3799172,770.6,31.20548,31.68548
17721,2023-01-20 11:09:35.042750,209397108,39.804986,32.3799237,770.69,31.29286,31.77286
17752,2023-01-20 11:09:35.142793,209497152,39.8049899,32.3799304,770.78,31.38375,31.86375
17786,2023-01-20 11:09:35.242697,209597070,39.8049939,32.379937,770.87,31.47211,31.95211
17820,2023-01-20 11:09:35.342708,209697111,39.8049978,32.3799436,770.95,31.55659,32.03659
17852,2023-01-20 11:09:35.442942,209797354,39.8050017,32.3799502,771.03,31.63583,32.11583
17885,2023-01-20 11:09:35.542684,209897079,39.8050057,32.3799568,771.11,31.71206,32.19206
17918,2023-01-20 11:09:35.642695,209997077,39.8050096,32.3799633,771.18,31.78942,32.26942
17951,2023-01-20 11:09:35.742759,210097132,39.8050135,32.3799698,771.27,31.87136,32.35136
17985,2023-01-20 11:09:35.842730,210197105,39.8050174,32.3799762,771.35,31.95271,32.43271
18017,2023-01-20 11:09:35.942688,210297078,39.8050213,32.3799827,771.43,32.03339,32.51339
18049,2023-01-20 11:09:36.042670,210397059,39.805025,32.3799891,771.51,32.11109,32.59109
18080,2023-01-20 11:09:36.142722,210497088,39.8050287,32.3799955,771.58,32.1887,32.6687
18114,2023-01-20 11:09:36.242708,210597061,39.8050324,32.3800019,771.66,32.2694,32.7494
18148,2023-01-20 11:09:36.342805,210697158,39.8050361,32.3800082,771.75,32.3503,32.8303
18180,2023-01-20 11:09:36.438925,210797137,39.8050397,32.3800144,771.83,32.43322,32.91322
18211,2023-01-20 11:09:36.529862,210897090,39.8050434,32.3800207,771.91,32.51847,32.99847
18244,2023-01-20 11:09:36.622886,210997067,39.8050469,32.3800269,772,32.60303,33.08303
18277,2023-01-20 11:09:36.722891,211097069,39.8050505,32.3800331,772.08,32.68861,33.16861
18311,2023-01-20 11:09:36.822948,211197120,39.8050541,32.3800394,772.17,32.77357,33.25357
18343,2023-01-20 11:09:36.922953,211297111,39.8050577,32.3800456,772.26,32.86002,33.34002
18375,2023-01-20 11:09:37.022963,211397114,39.8050613,32.3800519,772.34,32.9495,33.4295
18406,2023-01-20 11:09:37.122941,211497108,39.8050648,32.3800584,772.44,33.04253,33.52253
18440,2023-01-20 11:09:37.222874,211597061,39.8050683,32.3800648,772.53,33.13366,33.61366
18474,2023-01-20 11:09:37.322896,211697116,39.8050719,32.3800713,772.62,33.2243,33.7043
18506,2023-01-20 11:09:37.425417,211797140,39.8050756,32.3800778,772.71,33.31674,33.79674
18537,2023-01-20 11:09:37.536364,211897078,39.8050793,32.3800842,772.81,33.4118,33.8918
18570,2023-01-20 11:09:37.638789,211997058,39.805083,32.3800908,772.9,33.5094,33.9894
18603,2023-01-20 11:09:37.729776,212097121,39.8050866,32.3800975,773,33.60883,34.08883
18637,2023-01-20 11:09:37.822763,212197109,39.8050902,32.3801041,773.1,33.70787,34.18787
18669,2023-01-20 11:09:37.922761,212297089,39.805094,32.3801108,773.2,33.80993,34.28992
18701,2023-01-20 11:09:38.022750,212397067,39.8050977,32.3801175,773.3,33.90893,34.38893
18732,2023-01-20 11:09:38.122778,212497106,39.8051013,32.3801242,773.4,34.00469,34.48469
18766,2023-01-20 11:09:38.222737,212597078,39.8051051,32.3801309,773.49,34.09872,34.57872
18800,2023-01-20 11:09:38.322806,212697163,39.8051089,32.3801377,773.59,34.19602,34.67602
18832,2023-01-20 11:09:38.422709,212797083,39.8051128,32.3801444,773.69,34.29282,34.77282
18863,2023-01-20 11:09:38.522678,212897067,39.8051167,32.3801512,773.79,34.39197,34.87197
18896,2023-01-20 11:09:38.622671,212997069,39.8051206,32.3801579,773.89,34.49111,34.97111
18929,2023-01-20 11:09:38.722690,213097076,39.8051245,32.3801647,773.99,34.58998,35.06998
18963,2023-01-20 11:09:38.822721,213197095,39.8051284,32.3801714,774.08,34.68932,35.16932
18995,2023-01-20 11:09:38.922744,213297106,39.8051324,32.3801781,774.18,34.78652,35.26652
19027,2023-01-20 11:09:39.022752,213397106,39.8051362,32.3801847,774.27,34.87885,35.35884
19058,2023-01-20 11:09:39.122724,213497082,39.80514,32.3801914,774.36,34.96646,35.44646
19092,2023-01-20 11:09:39.222707,213597074,39.8051439,32.380198,774.44,35.04979,35.52979
19126,2023-01-20 11:09:39.322716,213697107,39.8051477,32.3802046,774.53,35.13084,35.61084
19158,2023-01-20 11:09:39.422687,213797096,39.8051516,32.3802112,774.61,35.2148,35.6948
19189,2023-01-20 11:09:39.522685,213897090,39.8051556,32.3802178,774.7,35.30097,35.78097
19222,2023-01-20 11:09:39.622708,213997107,39.8051595,32.3802243,774.78,35.38931,35.86931
19257,2023-01-20 11:09:39.722687,214097074,39.8051635,32.3802309,774.87,35.47978,35.95978
19293,2023-01-20 11:09:39.822728,214197102,39.8051674,32.3802374,774.97,35.57294,36.05294
19325,2023-01-20 11:09:39.922729,214297092,39.8051713,32.3802439,775.06,35.66398,36.14398
19357,2023-01-20 11:09:40.022724,214397079,39.8051753,32.3802504,775.15,35.75613,36.23613
19388,2023-01-20 11:09:40.122752,214497111,39.8051793,32.3802568,775.24,35.84793,36.32793
19422,2023-01-20 11:09:40.222708,214597071,39.8051834,32.3802632,775.33,35.93672,36.41672
19456,2023-01-20 11:09:40.322787,214697152,39.8051877,32.3802699,775.42,36.02802,36.50802
19488,2023-01-20 11:09:40.422720,214797092,39.8051919,32.3802765,775.52,36.12046,36.60046
19521,2023-01-20 11:09:40.522687,214897079,39.8051959,32.380283,775.61,36.2104,36.6904
19554,2023-01-20 11:09:40.622674,214997078,39.8051999,32.3802897,775.69,36.29899,36.77899
19587,2023-01-20 11:09:40.722677,215097064,39.805204,32.3802963,775.78,36.38739,36.86739
19621,2023-01-20 11:09:40.822729,215197100,39.8052079,32.3803028,775.87,36.47641,36.95641
19653,2023-01-20 11:09:40.922796,215297156,39.8052118,32.3803094,775.96,36.56937,37.04937
19685,2023-01-20 11:09:41.022723,215397074,39.8052157,32.380316,776.06,36.66163,37.14163
19716,2023-01-20 11:09:41.122757,215497110,39.8052194,32.3803225,776.15,36.75294,37.23294
19750,2023-01-20 11:09:41.222703,215597064,39.8052232,32.3803291,776.24,36.84385,37.32384
19784,2023-01-20 11:09:41.322707,215697100,39.8052269,32.3803357,776.33,36.93153,37.41153
19816,2023-01-20 11:09:41.422689,215797105,39.8052306,32.3803421,776.42,37.02144,37.50144
19847,2023-01-20 11:09:41.522663,215897071,39.8052343,32.3803485,776.51,37.11627,37.59627
19880,2023-01-20 11:09:41.622706,215997106,39.805238,32.3803549,776.6,37.20897,37.68896
19913,2023-01-20 11:09:41.722685,216097077,39.8052418,32.3803612,776.7,37.30383,37.78382
19947,2023-01-20 11:09:41.822709,216197096,39.8052455,32.3803675,776.8,37.40095,37.88095
19979,2023-01-20 11:09:41.922709,216297100,39.8052492,32.3803738,776.89,37.49755,37.97755
20011,2023-01-20 11:09:42.022673,216397063,39.8052528,32.38038,776.99,37.59175,38.07175
20042,2023-01-20 11:09:42.122728,216497101,39.8052565,32.3803862,777.08,37.68958,38.16957
20076,2023-01-20 11:09:42.222746,216597108,39.8052601,32.3803925,777.18,37.7847,38.2647
20110,2023-01-20 11:09:42.322731,216697101,39.8052637,32.3803987,777.27,37.87888,38.35888
20142,2023-01-20 11:09:42.422723,216797103,39.8052672,32.380405,777.37,37.97153,38.45153
20173,2023-01-20 11:09:42.522675,216897069,39.8052709,32.3804112,777.46,38.06704,38.54704
20206,2023-01-20 11:09:42.622663,216997066,39.8052744,32.3804175,777.56,38.16057,38.64057
20239,2023-01-20 11:09:42.722693,217097087,39.8052781,32.3804239,777.65,38.25663,38.73663
20273,2023-01-20 11:09:42.822719,217197102,39.8052817,32.3804303,777.75,38.35173,38.83173
20305,2023-01-20 11:09:42.922782,217297148,39.8052853,32.3804368,777.84,38.44513,38.92513
20337,2023-01-20 11:09:43.022723,217397076,39.8052889,32.3804433,777.93,38.53769,39.01769
20368,2023-01-20 11:09:43.122742,217497096,39.8052925,32.3804499,778.03,38.6316,39.1116
20402,2023-01-20 11:09:43.222701,217597059,39.8052962,32.3804564,778.12,38.7224,39.2024
20436,2023-01-20 11:09:43.322751,217697122,39.8053,32.3804629,778.21,38.81238,39.29238
20467,2023-01-20 11:09:43.422730,217797114,39.8053038,32.3804695,778.29,38.89852,39.37852
20498,2023-01-20 11:09:43.522722,217897116,39.8053075,32.3804759,778.38,38.98238,39.46238
20531,2023-01-20 11:09:43.622677,217997077,39.8053113,32.3804824,778.46,39.06574,39.54574
20564,2023-01-20 11:09:43.722689,218097078,39.8053151,32.380489,778.54,39.14903,39.62903
20598,2023-01-20 11:09:43.822708,218197090,39.8053188,32.3804955,778.62,39.2297,39.7097
20630,2023-01-20 11:09:43.922715,218297108,39.8053225,32.3805019,778.71,39.31234,39.79234
20662,2023-01-20 11:09:44.022675,218397071,39.8053262,32.3805084,778.79,39.39871,39.87871
20693,2023-01-20 11:09:44.122716,218497089,39.80533,32.3805148,778.88,39.48873,39.96873
20727,2023-01-20 11:09:44.222755,218597113,39.8053337,32.3805213,778.97,39.57988,40.05988
20761,2023-01-20 11:09:44.322737,218697105,39.8053376,32.3805279,779.07,39.67416,40.15416
20793,2023-01-20 11:09:44.422703,218797087,39.8053415,32.3805344,779.16,39.76878,40.24878
20824,2023-01-20 11:09:44.522646,218897069,39.8053454,32.380541,779.26,39.86623,40.34623
20857,2023-01-20 11:09:44.622626,218997069,39.8053493,32.3805475,779.36,39.96283,40.44283
20890,2023-01-20 11:09:44.722670,219097072,39.8053533,32.3805539,779.46,40.06104,40.54104
20925,2023-01-20 11:09:44.822800,219197168,39.8053572,32.3805603,779.56,40.16218,40.64218
20957,2023-01-20 11:09:44.922741,219297099,39.8053612,32.3805667,779.66,40.26659,40.74659
20989,2023-01-20 11:09:45.022721,219397072,39.805365,32.3805731,779.76,40.36842,40.84842
21020,2023-01-20 11:09:45.122741,219497091,39.805369,32.3805795,779.87,40.47079,40.95079
21054,2023-01-20 11:09:45.222714,219597066,39.8053729,32.3805859,779.97,40.57037,41.05037
21088,2023-01-20 11:09:45.322737,219697102,39.8053768,32.3805923,780.07,40.67071,41.15071
21120,2023-01-20 11:09:45.422739,219797112,39.8053806,32.3805988,780.16,40.76945,41.24945
21153,2023-01-20 11:09:45.522760,219897124,39.8053845,32.3806052,780.26,40.86607,41.34607
21186,2023-01-20 11:09:45.620641,219997067,39.8053883,32.3806116,780.35,40.95718,41.43718
21219,2023-01-20 11:09:45.711527,220097064,39.8053921,32.3806181,780.44,41.04689,41.52689
21253,2023-01-20 11:09:45.802695,220197102,39.8053958,32.3806245,780.53,41.13335,41.61335
21285,2023-01-20 11:09:45.902644,220297089,39.8053996,32.3806309,780.61,41.21947,41.69947
21317,2023-01-20 11:09:46.002618,220397099,39.8054034,32.3806374,780.7,41.30558,41.78558
21348,2023-01-20 11:09:46.102684,220497131,39.8054071,32.380644,780.78,41.3892,41.8692
21382,2023-01-20 11:09:46.202662,220597076,39.8054108,32.3806505,780.87,41.47041,41.95041
21416,2023-01-20 11:09:46.302673,220697101,39.8054145,32.3806572,780.95,41.55506,42.03506
21448,2023-01-20 11:09:46.402651,220797093,39.8054181,32.3806638,781.04,41.64113,42.12113
21479,2023-01-20 11:09:46.502621,220897074,39.8054216,32.3806705,781.12,41.72362,42.20362
21512,2023-01-20 11:09:46.602631,220997094,39.8054253,32.3806772,781.2,41.80547,42.28547
21545,2023-01-20 11:09:46.702657,221097112,39.805429,32.3806839,781.28,41.88861,42.36861
21579,2023-01-20 11:09:46.802707,221197155,39.8054326,32.3806905,781.37,41.97141,42.45141
21611,2023-01-20 11:09:46.902625,221297094,39.8054364,32.3806972,781.45,42.0514,42.5314
21643,2023-01-20 11:09:47.002609,221397099,39.8054401,32.3807039,781.53,42.13163,42.61163
21674,2023-01-20 11:09:47.102612,221497108,39.8054439,32.3807104,781.61,42.21296,42.69296
21708,2023-01-20 11:09:47.202578,221597081,39.8054478,32.380717,781.69,42.29802,42.77802
21742,2023-01-20 11:09:47.302576,221697105,39.8054517,32.3807237,781.78,42.38608,42.86608
21774,2023-01-20 11:09:47.402596,221797151,39.8054555,32.3807302,781.87,42.47831,42.95831
21805,2023-01-20 11:09:47.502474,221897066,39.8054594,32.380737,781.97,42.57249,43.05249
21887,2023-01-20 11:09:47.602446,221997075,39.8054633,32.3807437,782.06,42.66582,43.14582
21920,2023-01-20 11:09:47.702460,222097070,39.8054673,32.3807504,782.16,42.76016,43.24016
21954,2023-01-20 11:09:47.802512,222197102,39.8054712,32.3807571,782.25,42.85535,43.33535
21986,2023-01-20 11:09:47.902526,222297083,39.8054753,32.380764,782.35,42.95256,43.43256
22018,2023-01-20 11:09:48.002556,222397081,39.8054792,32.3807707,782.44,43.04719,43.52719
22049,2023-01-20 11:09:48.102554,222497119,39.8054835,32.3807775,782.53,43.136,43.616
22083,2023-01-20 11:09:48.202472,222597076,39.8054877,32.3807842,782.62,43.22613,43.70613
22117,2023-01-20 11:09:48.302495,222697106,39.8054918,32.3807909,782.71,43.31573,43.79573
22149,2023-01-20 11:09:48.402474,222797093,39.8054959,32.3807977,782.8,43.40035,43.88035
22180,2023-01-20 11:09:48.502422,222897077,39.8054999,32.3808044,782.87,43.47635,43.95635
22213,2023-01-20 11:09:48.602398,222997087,39.8055037,32.3808111,782.95,43.55023,44.03023
22246,2023-01-20 11:09:48.702468,223097116,39.8055075,32.3808178,783.02,43.62085,44.10085
22280,2023-01-20 11:09:48.802485,223197093,39.8055113,32.3808244,783.09,43.6958,44.1758
22312,2023-01-20 11:09:48.902494,223297101,39.805515,32.380831,783.16,43.76618,44.24618
22344,2023-01-20 11:09:49.002463,223397069,39.8055188,32.3808376,783.23,43.83995,44.31995
22375,2023-01-20 11:09:49.102467,223497071,39.8055225,32.3808442,783.3,43.9072,44.3872
22408,2023-01-20 11:09:49.202484,223597086,39.8055261,32.3808507,783.37,43.97672,44.45672
22443,2023-01-20 11:09:49.302504,223697114,39.8055298,32.3808571,783.44,44.04509,44.52509
22475,2023-01-20 11:09:49.402513,223797130,39.8055334,32.3808635,783.51,44.11734,44.59734
22506,2023-01-20 11:09:49.502446,223897078,39.8055371,32.3808699,783.58,44.18202,44.66202
22539,2023-01-20 11:09:49.602423,223997070,39.8055407,32.3808763,783.65,44.25311,44.73311
22573,2023-01-20 11:09:49.702440,224097072,39.8055443,32.3808826,783.71,44.31979,44.79979
22607,2023-01-20 11:09:49.802501,224197118,39.8055478,32.3808889,783.79,44.39727,44.87727
22640,2023-01-20 11:09:49.902507,224297115,39.8055512,32.3808951,783.87,44.47271,44.95271
22672,2023-01-20 11:09:50.002515,224397115,39.8055547,32.3809013,783.95,44.55682,45.03682
22703,2023-01-20 11:09:50.102530,224497134,39.8055581,32.3809075,784.04,44.64454,45.12454
22736,2023-01-20 11:09:50.202474,224597081,39.8055616,32.3809137,784.14,44.74363,45.22363
22771,2023-01-20 11:09:50.302473,224697093,39.8055651,32.3809199,784.24,44.845,45.325
22803,2023-01-20 11:09:50.402457,224797090,39.8055686,32.3809262,784.35,44.95005,45.43005
22836,2023-01-20 11:09:50.502394,224897067,39.8055722,32.3809323,784.45,45.05588,45.53588
22869,2023-01-20 11:09:50.602392,224997102,39.8055758,32.3809385,784.56,45.16354,45.64354
22902,2023-01-20 11:09:50.702432,225097097,39.8055795,32.3809449,784.67,45.27419,45.75418
22936,2023-01-20 11:09:50.802494,225197115,39.8055833,32.3809512,784.78,45.38484,45.86484
22968,2023-01-20 11:09:50.902472,225297088,39.8055871,32.3809576,784.89,45.49407,45.97407
23000,2023-01-20 11:09:51.002458,225397068,39.805591,32.380964,785,45.60265,46.08265
23031,2023-01-20 11:09:51.102464,225497089,39.8055949,32.3809704,785.11,45.71004,46.19004
23064,2023-01-20 11:09:51.202426,225597066,39.8055988,32.3809769,785.21,45.81678,46.29678
23099,2023-01-20 11:09:51.302496,225697134,39.8056028,32.3809834,785.32,45.92155,46.40155
23131,2023-01-20 11:09:51.402464,225797101,39.8056068,32.3809899,785.42,46.02304,46.50304
23162,2023-01-20 11:09:51.502454,225897091,39.8056109,32.3809964,785.52,46.12527,46.60527
23195,2023-01-20 11:09:51.602450,225997088,39.8056149,32.3810029,785.62,46.22455,46.70455
23228,2023-01-20 11:09:51.702442,226097058,39.805619,32.3810094,785.72,46.32502,46.80502
23262,2023-01-20 11:09:51.802519,226197113,39.8056231,32.3810158,785.82,46.4262,46.9062
23294,2023-01-20 11:09:51.902498,226297102,39.8056273,32.3810224,785.92,46.52833,47.00833
23326,2023-01-20 11:09:52.002512,226397126,39.8056313,32.3810289,786.02,46.62653,47.10653
23357,2023-01-20 11:09:52.102468,226497081,39.8056353,32.3810355,786.12,46.72353,47.20353
23390,2023-01-20 11:09:52.202461,226597072,39.8056393,32.381042,786.21,46.81855,47.29855
23425,2023-01-20 11:09:52.302468,226697093,39.8056431,32.3810486,786.3,46.90885,47.38885
23457,2023-01-20 11:09:52.402476,226797114,39.805647,32.3810552,786.39,46.9981,47.4781
23488,2023-01-20 11:09:52.502420,226897069,39.8056508,32.3810619,786.48,47.08833,47.56833
23521,2023-01-20 11:09:52.602461,226997119,39.8056545,32.3810685,786.57,47.17968,47.65968
23554,2023-01-20 11:09:52.702493,227097115,39.8056584,32.3810752,786.67,47.27114,47.75114
23588,2023-01-20 11:09:52.802532,227197119,39.8056622,32.3810818,786.76,47.36035,47.84035
23620,2023-01-20 11:09:52.902478,227297084,39.8056661,32.3810883,786.84,47.44673,47.92673
23652,2023-01-20 11:09:53.002453,227397077,39.80567,32.3810948,786.93,47.53377,48.01377
23683,2023-01-20 11:09:53.102439,227497068,39.8056738,32.3811014,787.02,47.62088,48.10088
23716,2023-01-20 11:09:53.202460,227597093,39.8056776,32.3811079,787.1,47.7076,48.1876
23751,2023-01-20 11:09:53.302523,227697144,39.8056815,32.3811144,787.19,47.79183,48.27183
23783,2023-01-20 11:09:53.402494,227797103,39.8056853,32.3811208,787.27,47.8766,48.3566
23814,2023-01-20 11:09:53.502442,227897067,39.8056891,32.3811272,787.35,47.95914,48.43914
23847,2023-01-20 11:09:53.602440,227997080,39.805693,32.3811336,787.44,48.04638,48.52638
23880,2023-01-20 11:09:53.702430,228097074,39.8056969,32.3811402,787.53,48.13486,48.61486
23914,2023-01-20 11:09:53.802454,228197101,39.8057008,32.3811467,787.62,48.22433,48.70433
23946,2023-01-20 11:09:53.902472,228297097,39.8057049,32.3811532,787.71,48.31441,48.79441
23978,2023-01-20 11:09:54.002471,228397074,39.8057089,32.3811598,787.8,48.40728,48.88728
24009,2023-01-20 11:09:54.102478,228497076,39.805713,32.3811662,787.89,48.49714,48.97714
