LineNo,UTC_Approx,TimeUS,TPD,PD,DVD,TVD,VD,DAD,TAD,AD
694,2023-01-20 11:08:47.422205,161676960,-0.4925524,-0.4925524,-0.001749448,-0.001749448,-0.001749448,0.007143974,0.007143974,0.007143974
1045,2023-01-20 11:08:47.517193,161776947,-0.4961751,-0.4961751,-0.001791719,-0.001791719,-0.001791719,-0.004435539,-0.004435539,-0.004435539
1161,2023-01-20 11:08:47.631748,161894231,-0.4985459,-0.4985459,-0.003123848,-0.003123848,-0.003123848,0.005966187,0.005966187,0.005966187
1424,2023-01-20 11:08:47.739714,161996651,-0.4984185,-0.4984185,-0.002225626,-0.002225626,-0.002225626,-0.001750946,-0.001750946,-0.001750946
1843,2023-01-20 11:08:47.843236,162097182,-0.5004557,-0.5004557,-0.00318781,-0.00318781,-0.00318781,-0.007507324,-0.007507324,-0.007507324
1890,2023-01-20 11:08:47.943025,162197213,-0.5039336,-0.5039336,-0.004788013,-0.004788013,-0.004788013,-0.002318382,-0.002318382,-0.002318382
1935,2023-01-20 11:08:48.042848,162297172,-0.5066692,-0.5066692,-0.005578259,-0.005578259,-0.005578259,0.003428459,0.003428459,0.003428459
1981,2023-01-20 11:08:48.142843,162397162,-0.5088332,-0.5088332,-0.00673861,-0.00673861,-0.00673861,-0.00106144,-0.00106144,-0.00106144
2034,2023-01-20 11:08:48.242861,162497164,-0.510897,-0.510897,-0.006810644,-0.006810644,-0.006810644,0.007857323,0.007857323,0.007857323
2075,2023-01-20 11:08:48.342924,162597194,-0.512727,-0.512727,-0.006583966,-0.006583966,-0.006583966,0.005405426,0.005405426,0.005405426
2133,2023-01-20 11:08:48.439070,162697204,-0.5142857,-0.5142857,-0.006925975,-0.006925975,-0.006925975,-0.007561684,-0.007561684,-0.007561684
2192,2023-01-20 11:08:48.530005,162797178,-0.5157583,-0.5157583,-0.006746707,-0.006746707,-0.006746707,0.0106945,0.0106945,0.0106945
2252,2023-01-20 11:08:48.623079,162897206,-0.5168285,-0.5168285,-0.006911684,-0.006911684,-0.006911684,-0.001937866,-0.001937866,-0.001937866
2306,2023-01-20 11:08:48.723039,162997146,-0.5172745,-0.5172745,-0.00634059,-0.00634059,-0.00634059,0.009696007,0.009696007,0.009696007
2362,2023-01-20 11:08:48.823079,163097171,-0.5174465,-0.5174465,-0.005487018,-0.005487018,-0.005487018,0.001761436,0.001761436,0.001761436
2417,2023-01-20 11:08:48.923121,163197212,-0.517074,-0.517074,-0.005516407,-0.005516407,-0.005516407,-0.01078415,-0.01078415,-0.01078415
2457,2023-01-20 11:08:49.023063,163297157,-0.5159099,-0.5159099,-0.005999994,-0.005999994,-0.005999994,-0.01488304,-0.01488304,-0.01488304
2501,2023-01-20 11:08:49.123046,163397156,-0.5124584,-0.5124584,-0.004819396,-0.004819396,-0.004819396,-0.003133774,-0.003133774,-0.003133774
2543,2023-01-20 11:08:49.225597,163497176,-0.5100386,-0.5100386,-0.004068603,-0.004068603,-0.004068603,0.01111603,0.01111603,0.01111603
2583,2023-01-20 11:08:49.336630,163597173,-0.5080797,-0.5080797,-0.002661701,-0.002661701,-0.002661701,0.01491642,0.01491642,0.01491642
2626,2023-01-20 11:08:49.442937,163697210,-0.5062889,-0.5062889,-0.002407156,-0.002407156,-0.002407156,-0.001629829,-0.001629829,-0.001629829
2664,2023-01-20 11:08:49.542882,163797220,-0.504741,-0.504741,-0.00291315,-0.00291315,-0.00291315,-0.01371384,-0.01371384,-0.01371384
2704,2023-01-20 11:08:49.638949,163897164,-0.5022631,-0.5022631,-0.0003702432,-0.0003702432,-0.0003702432,0.004926682,0.004926682,0.004926682
2742,2023-01-20 11:08:49.730003,163997194,-0.4992517,-0.4992517,0.001075607,0.001075607,0.001075607,0.007866859,0.007866859,0.007866859
2785,2023-01-20 11:08:49.823067,164097164,-0.4970453,-0.4970453,0.002484243,0.002484243,0.002484243,0.01626301,0.01626301,0.01626301
2825,2023-01-20 11:08:49.923091,164197211,-0.4956267,-0.4956267,0.002509614,0.002509614,0.002509614,-0.002902031,-0.002902031,-0.002902031
2865,2023-01-20 11:08:50.023035,164297164,-0.4940476,-0.4940476,0.00324008,0.00324008,0.00324008,-4.1008E-05,-4.1008E-05,-4.1008E-05
2904,2023-01-20 11:08:50.123074,164397166,-0.4916456,-0.4916456,0.005575817,0.005575817,0.005575817,0.01540756,0.01540756,0.01540756
2947,2023-01-20 11:08:50.223128,164497200,-0.4890541,-0.4890541,0.005560145,0.005560145,0.005560145,0.004792213,0.004792213,0.004792213
2985,2023-01-20 11:08:50.323051,164597164,-0.4860092,-0.4860092,0.00612731,0.00612731,0.00612731,0.001132965,0.001132965,0.001132965
3027,2023-01-20 11:08:50.423047,164697202,-0.4818705,-0.4818705,0.008632415,0.008632415,0.008632415,0.009052277,0.009052277,0.009052277
3067,2023-01-20 11:08:50.522957,164797159,-0.4743477,-0.4743477,0.01068144,0.01068144,0.01068144,0.01756763,0.01756763,0.01756763
3107,2023-01-20 11:08:50.622928,164897154,-0.4673579,-0.4673579,0.01381453,0.01381453,0.01381453,0.013381,0.013381,0.013381
3145,2023-01-20 11:08:50.722993,164997161,-0.4584121,-0.4584121,0.01618266,0.01618266,0.01618266,-0.03697491,-0.03697491,-0.03697491
3186,2023-01-20 11:08:50.823015,165097153,-0.4494173,-0.4494173,0.02130059,0.02130059,0.02130059,0.04452038,0.04452038,0.04452038
3226,2023-01-20 11:08:50.923054,165197256,-0.4376843,-0.4376843,0.02212351,0.02212351,0.02212351,0.08046913,0.08046913,0.08046913
3266,2023-01-20 11:08:51.022917,165297166,-0.425053,-0.425053,0.02614366,0.02614366,0.02614366,0.01664543,0.01664543,0.01664543
3304,2023-01-20 11:08:51.122926,165397160,-0.407158,-0.407158,0.03109847,0.03109847,0.03109847,0.02169704,0.02169704,0.02169704
3347,2023-01-20 11:08:51.222966,165497199,-0.3911358,-0.3911358,0.03296007,0.03296007,0.03296007,-0.02664375,-0.02664375,-0.02664375
3385,2023-01-20 11:08:51.322889,165597166,-0.371242,-0.371242,0.03939245,0.03939245,0.03939245,-0.02858162,-0.02858162,-0.02858162
3427,2023-01-20 11:08:51.422896,165697211,-0.3522867,-0.3522867,0.04091427,0.04091427,0.04091427,-0.004218102,-0.004218102,-0.004218102
3465,2023-01-20 11:08:51.522828,165797159,-0.3297184,-0.3297184,0.05125168,0.05125168,0.05125168,0.002392769,0.002392769,0.002392769
3506,2023-01-20 11:08:51.622821,165897163,-0.3096932,-0.3096932,0.05734068,0.05734068,0.05734068,0.04686069,0.04686069,0.04686069
3543,2023-01-20 11:08:51.722821,165997156,-0.2876307,-0.2876307,0.0607316,0.0607316,0.0607316,-0.03461838,-0.03461838,-0.03461838
3586,2023-01-20 11:08:51.822833,166097164,-0.2682185,-0.2682185,0.06262942,0.06262942,0.06262942,0.03452873,0.03452873,0.03452873
3626,2023-01-20 11:08:51.922904,166197238,-0.2457033,-0.2457033,0.06729145,0.06729145,0.06729145,-0.005894661,-0.005894661,-0.005894661
3666,2023-01-20 11:08:52.022830,166297165,-0.2264393,-0.2264393,0.07437655,0.07437655,0.07437655,0.05293083,0.05293083,0.05293083
3702,2023-01-20 11:08:52.122833,166397160,-0.2075785,-0.2075785,0.07818769,0.07818769,0.07818769,-0.02094841,-0.02094841,-0.02094841
3737,2023-01-20 11:08:52.222903,166497226,-0.1913698,-0.1913698,0.08662065,0.08662065,0.08662065,0.009171486,0.009171486,0.009171486
3767,2023-01-20 11:08:52.322835,166597160,-0.1742457,-0.1742457,0.08419535,0.08419535,0.08419535,0.02289295,0.02289295,0.02289295
3802,2023-01-20 11:08:52.422898,166697231,-0.16108,-0.16108,0.08612958,0.08612958,0.08612958,0.009811401,0.009811401,0.009811401
3832,2023-01-20 11:08:52.522869,166797227,-0.1500735,-0.1500735,0.08767274,0.08767274,0.08767274,0.04345894,0.04345894,0.04345894
3865,2023-01-20 11:08:52.622792,166897162,-0.1413273,-0.1413273,0.08886943,0.08886943,0.08886943,-0.02229595,-0.02229595,-0.02229595
3895,2023-01-20 11:08:52.722817,166997155,-0.1330041,-0.1330041,0.09379248,0.09379248,0.09379248,-0.006234169,-0.006234169,-0.006234169
3930,2023-01-20 11:08:52.822849,167097161,-0.1263778,-0.1263778,0.08992335,0.08992335,0.08992335,-0.007507324,-0.007507324,-0.007507324
3962,2023-01-20 11:08:52.922898,167197208,-0.119705,-0.119705,0.09413914,0.09413914,0.09413914,0.06447601,0.06447601,0.06447601
3995,2023-01-20 11:08:53.022865,167297181,-0.1134569,-0.1134569,0.09388365,0.09388365,0.09388365,0.0168705,0.0168705,0.0168705
4025,2023-01-20 11:08:53.122821,167397168,-0.1058144,-0.1058144,0.09426687,0.09426687,0.09426687,-0.03362179,-0.03362179,-0.03362179
4060,2023-01-20 11:08:53.222843,167497212,-0.09953185,-0.09953185,0.09407613,0.09407613,0.09407613,-0.007126808,-0.007126808,-0.007126808
4090,2023-01-20 11:08:53.322853,167597212,-0.09240618,-0.09240618,0.100413,0.100413,0.100413,0.03206825,0.03206825,0.03206825
4125,2023-01-20 11:08:53.422879,167697239,-0.08544167,-0.08544167,0.09697983,0.09697983,0.09697983,-0.04211521,-0.04211521,-0.04211521
4155,2023-01-20 11:08:53.522821,167797222,-0.07631559,-0.07631559,0.09528714,0.09528714,0.09528714,0.01815224,0.01815224,0.01815224
4188,2023-01-20 11:08:53.622802,167897227,-0.06817728,-0.06817728,0.1056522,0.1056522,0.1056522,0.08232975,0.08232975,0.08232975
4218,2023-01-20 11:08:53.722817,167997210,-0.05815314,-0.05815314,0.1146512,0.1146512,0.1146512,-0.00500679,-0.00500679,-0.00500679
4253,2023-01-20 11:08:53.822845,168097217,-0.04863601,-0.04863601,0.09767448,0.09767448,0.09767448,-0.1221638,-0.1221638,-0.1221638
4286,2023-01-20 11:08:53.922964,168197352,-0.03793558,-0.03793558,0.09284317,0.09284317,0.09284317,-0.3075409,-0.3075409,-0.3075409
4319,2023-01-20 11:08:54.022929,168297333,-0.0334431,-0.0334431,0.001463288,0.001463288,0.001463288,-1.227622,-1.227622,-1.227622
4350,2023-01-20 11:08:54.122808,168397225,-0.04040392,-0.0419462,-0.1200765,-0.1185342,-0.1819915,-0.8029028,-0.6274958,-2.063125
4385,2023-01-20 11:08:54.222788,168497209,-0.05562374,-0.06607916,-0.1759918,-0.1655363,-0.3544755,-0.3029028,0.4663527,-1.509909
4415,2023-01-20 11:08:54.322862,168597259,-0.0740758,-0.1034482,-0.1899765,-0.160604,-0.4220696,-0.1302171,1.118389,-0.6669168
4450,2023-01-20 11:08:54.422858,168697245,-0.09416021,-0.1523974,-0.2134036,-0.1551665,-0.4485344,-0.258505,1.177071,-0.06011295
4480,2023-01-20 11:08:54.522815,168797239,-0.1167411,-0.206521,-0.2379896,-0.1482097,-0.4133173,-0.2297624,1.161122,0.523469
4513,2023-01-20 11:08:54.622863,168897312,-0.1417003,-0.2593525,-0.2620297,-0.1443775,-0.3526488,-0.277376,0.8416932,0.3654823
4543,2023-01-20 11:08:54.722781,168997214,-0.1694525,-0.3146009,-0.294304,-0.1491556,-0.3851732,-0.3563681,0.7611948,-0.2202768
4578,2023-01-20 11:08:54.822803,169097220,-0.2005224,-0.3741107,-0.3254617,-0.1518734,-0.3528183,-0.2701293,0.8467986,0.2817707
4610,2023-01-20 11:08:54.922955,169197361,-0.2343365,-0.4351127,-0.3500001,-0.1492239,-0.3321512,-0.2210523,0.7195166,0.5621519
4643,2023-01-20 11:08:55.022832,169297228,-0.2706311,-0.4927987,-0.3771556,-0.154988,-0.3143827,-0.3222438,0.428039,0.326478
4673,2023-01-20 11:08:55.122842,169397228,-0.3101093,-0.5471115,-0.414235,-0.1772328,-0.2765836,-0.4035875,0.1174597,0.3073778
4708,2023-01-20 11:08:55.222838,169497217,-0.3534489,-0.6216663,-0.4526876,-0.1844703,-0.260124,-0.4104142,-0.0364616,0.03304195
4738,2023-01-20 11:08:55.322828,169597213,-0.4008274,-0.7170166,-0.4949874,-0.1787982,-0.2309573,-0.4095466,-0.09058313,0.4181995
4773,2023-01-20 11:08:55.422860,169697255,-0.4526273,-0.8167188,-0.5442533,-0.1801619,-0.2549765,-0.5655143,-0.2739898,-0.09625816
4805,2023-01-20 11:08:55.522804,169797227,-0.5099146,-0.924589,-0.6020233,-0.1873488,-0.2802278,-0.5902117,-0.1799476,-0.04707432
4838,2023-01-20 11:08:55.622788,169897226,-0.5730091,-1.034392,-0.6599625,-0.1985791,-0.2769758,-0.6178741,-0.2185028,0.2430544
4868,2023-01-20 11:08:55.722924,169997332,-0.6419042,-1.141064,-0.7159181,-0.2167584,-0.2704124,-0.494001,-0.2097605,0.06653118
4903,2023-01-20 11:08:55.822822,170097209,-0.7154072,-1.241959,-0.7492025,-0.2226503,-0.3123084,-0.2001594,0.1226948,-0.2537899
4935,2023-01-20 11:08:55.922943,170197333,-0.7912362,-1.34156,-0.767619,-0.2172952,-0.3407719,-0.2111734,0.3143691,-0.2280703
4968,2023-01-20 11:08:56.022852,170297243,-0.8689284,-1.434323,-0.7834242,-0.21803,-0.310501,-0.04798416,0.4899717,0.4192162
4998,2023-01-20 11:08:56.122828,170397212,-0.9473526,-1.51829,-0.7844726,-0.2135351,-0.2969537,-0.01000198,0.4165322,0.2503462
5033,2023-01-20 11:08:56.222840,170497219,-1.026343,-1.59703,-0.8021343,-0.2314476,-0.2910055,-0.3957938,-0.07615303,0.235384
5063,2023-01-20 11:08:56.322858,170597239,-1.109206,-1.673065,-0.8588566,-0.2949978,-0.2973183,-0.6267843,-0.5331501,-0.1951656
5098,2023-01-20 11:08:56.422865,170697255,-1.197981,-1.745525,-0.912873,-0.3653294,-0.3323115,-0.4709045,-0.5835482,-0.4329195
5128,2023-01-20 11:08:56.522927,170797349,-1.2915,-1.817606,-0.9546212,-0.4285146,-0.3762665,-0.3395615,-0.5565295,-0.4374142
5161,2023-01-20 11:08:56.622801,170897240,-1.388311,-1.892804,-0.9784346,-0.4739412,-0.4340357,-0.1723174,-0.3828001,-0.4171667
5191,2023-01-20 11:08:56.722830,170997235,-1.486999,-1.970904,-0.9963948,-0.5124893,-0.4534037,-0.1852068,-0.4272771,-0.1432095
5226,2023-01-20 11:08:56.822865,171097246,-1.587301,-2.051185,-1.008811,-0.5449275,-0.489776,-0.1115639,-0.389372,-0.1865492
5258,2023-01-20 11:08:56.922945,171197334,-1.688682,-2.135525,-1.018574,-0.5717305,-0.5240973,-0.09203933,-0.3432662,-0.2712336
5291,2023-01-20 11:08:57.022832,171297225,-1.790636,-2.220673,-1.013651,-0.5836143,-0.5334389,0.2870055,0.07298151,-0.1286526
5322,2023-01-20 11:08:57.122828,171397213,-1.890019,-2.30823,-0.9729034,-0.5546927,-0.5667538,0.337662,0.2845521,0.003484726
5357,2023-01-20 11:08:57.222836,171497214,-1.986354,-2.391499,-0.9620793,-0.5569345,-0.5194394,-0.1473605,-0.2486916,0.3590422
5387,2023-01-20 11:08:57.322932,171597308,-2.084038,-2.468808,-0.9965059,-0.6117358,-0.5058191,-0.4112943,-0.8271297,0.09136772
5422,2023-01-20 11:08:57.422862,171697245,-2.185436,-2.546895,-1.02962,-0.6681615,-0.5495974,-0.3331036,-0.9611962,-0.1807575
5452,2023-01-20 11:08:57.522796,171797215,-2.290181,-2.628629,-1.065494,-0.7270455,-0.5848902,-0.3102791,-1.018503,-0.5275612
5485,2023-01-20 11:08:57.622785,171897225,-2.39774,-2.717378,-1.081741,-0.7621033,-0.6488918,-0.09728409,-0.6864477,-0.6973953
5515,2023-01-20 11:08:57.722817,171997224,-2.506081,-2.813892,-1.082271,-0.7744601,-0.7292779,0.0473175,-0.2991154,-0.6055574
5550,2023-01-20 11:08:57.822936,172097318,-2.614312,-2.917511,-1.082102,-0.7789026,-0.7762597,0.0350177,-0.04098392,-0.6369295
5582,2023-01-20 11:08:57.922927,172197314,-2.722343,-3.028345,-1.079637,-0.7736342,-0.8282258,0.03008682,0.2760234,-0.2759438
5617,2023-01-20 11:08:58.022859,172297249,-2.829819,-3.14478,-1.064978,-0.7500159,-0.8476249,0.2280411,0.6396965,0.1778727
5647,2023-01-20 11:08:58.122940,172397327,-2.934875,-3.262291,-1.031266,-0.7038502,-0.8536917,0.4835847,1.081204,-0.03162384
5682,2023-01-20 11:08:58.223129,172497514,-3.035262,-3.381008,-0.9741242,-0.6283783,-0.8314382,0.6995485,1.603994,0.3739624
5712,2023-01-20 11:08:58.322860,172597246,-3.128977,-3.502178,-0.9023814,-0.5291809,-0.7567159,0.6205522,1.733986,0.9041538
5747,2023-01-20 11:08:58.422921,172697315,-3.216064,-3.616266,-0.8412895,-0.4410884,-0.6706424,0.4643292,1.615659,0.9135094
5777,2023-01-20 11:08:58.522811,172797240,-3.298108,-3.720791,-0.8007837,-0.3781009,-0.5723534,0.3575482,1.390421,0.9948854
5810,2023-01-20 11:08:58.622803,172897251,-3.377096,-3.818153,-0.7870238,-0.345967,-0.5026109,-0.1152147,0.7141489,0.959095
5840,2023-01-20 11:08:58.722822,172997233,-3.456549,-3.908398,-0.8018647,-0.3500163,-0.3940378,-0.1558989,0.2318786,0.9731598
5875,2023-01-20 11:08:58.822850,173097237,-3.537572,-3.994628,-0.8205756,-0.3635197,-0.3847539,-0.3077989,-0.1466135,-0.2235279
5907,2023-01-20 11:08:58.922935,173197338,-3.620937,-4.083656,-0.8400751,-0.3773569,-0.3967557,0.0394725,0.1794042,-0.1787634
5941,2023-01-20 11:08:59.020814,173297314,-3.703948,-4.175925,-0.812424,-0.3404477,-0.3923096,0.4701515,0.7348101,0.2550125
5972,2023-01-20 11:08:59.111727,173397331,-3.782255,-4.265665,-0.7536328,-0.2702234,-0.3522177,0.4690321,0.8423793,0.7728453
6007,2023-01-20 11:08:59.203065,173497509,-3.856051,-4.350305,-0.7284562,-0.2342027,-0.3120298,0.1411229,0.5027902,0.4810934
6037,2023-01-20 11:08:59.302790,173597231,-3.92853,-4.437046,-0.7271881,-0.2186728,-0.2877855,-0.2077208,0.143115,0.3770933
6072,2023-01-20 11:08:59.403246,173697359,-4.002291,-4.51929,-0.7443745,-0.227375,-0.2681649,-0.0543132,0.1541517,0.2901049
6101,2023-01-20 11:08:59.514215,173797226,-4.076857,-4.6037,-0.7479519,-0.2211084,-0.2727972,-0.08304337,0.1389785,0.09011364
6134,2023-01-20 11:08:59.620736,173897239,-4.151594,-4.687098,-0.7437731,-0.2082687,-0.2592676,0.03953094,0.2829697,0.264554
6164,2023-01-20 11:08:59.711620,173997217,-4.22597,-4.770238,-0.7426328,-0.1983646,-0.2384373,0.03760956,0.2907233,0.1588612
6200,2023-01-20 11:08:59.802798,174097239,-4.300253,-4.85133,-0.7416222,-0.1905453,-0.2609364,0.09568466,0.3860754,0.1880941
6232,2023-01-20 11:08:59.902840,174197311,-4.373779,-4.933011,-0.7287457,-0.1695145,-0.2543813,0.08189331,0.4665985,0.1802645
6265,2023-01-20 11:09:00.002739,174297241,-4.446361,-5.009361,-0.7259936,-0.1629928,-0.2345484,-0.122545,0.2651613,0.293292
6295,2023-01-20 11:09:00.102753,174397329,-4.519794,-5.086939,-0.740824,-0.173679,-0.2240651,-0.08533752,0.2114329,0.1754313
6330,2023-01-20 11:09:00.202869,174497515,-4.594061,-5.159204,-0.7419993,-0.1768556,-0.2312642,0.09996643,0.3700278,0.03647232
6360,2023-01-20 11:09:00.302621,174597215,-4.667585,-5.232347,-0.7308284,-0.166067,-0.2198877,-0.03726761,0.2533749,0.3656731
6395,2023-01-20 11:09:00.402774,174697319,-4.7415,-5.299388,-0.7493227,-0.1914345,-0.2098032,-0.1520724,-0.03515787,0.2768764
6427,2023-01-20 11:09:00.502612,174797212,-4.817541,-5.364337,-0.7759498,-0.2291532,-0.1996564,-0.3978612,-0.4548177,-0.09126091
6460,2023-01-20 11:09:00.602581,174897233,-4.897348,-5.427885,-0.81924,-0.2887038,-0.2247448,-0.3854541,-0.6214693,-0.2082539
6490,2023-01-20 11:09:00.702621,174997241,-4.981457,-5.496855,-0.8624358,-0.3470372,-0.2774538,-0.3923534,-0.700594,-0.3893538
6526,2023-01-20 11:09:00.802654,175097243,-5.069571,-5.569756,-0.8985695,-0.3983852,-0.35191,-0.2872697,-0.5602472,-0.5783806
6558,2023-01-20 11:09:00.902770,175197383,-5.160068,-5.652176,-0.9039987,-0.4118912,-0.3969618,0.09747116,-0.04152862,-0.3090296
6591,2023-01-20 11:09:01.002613,175297247,-5.250297,-5.738132,-0.8983669,-0.4105318,-0.4245044,0.1579779,0.1741444,-0.2919788
6621,2023-01-20 11:09:01.102687,175397245,-5.339311,-5.83111,-0.8841347,-0.3923354,-0.4274411,0.06957672,0.2379204,0.1447144
6656,2023-01-20 11:09:01.203065,175497552,-5.427818,-5.922678,-0.8882485,-0.3933883,-0.4270495,-0.07756989,0.09977251,0.2996063
6686,2023-01-20 11:09:01.302673,175597228,-5.516697,-6.016877,-0.8844326,-0.3842531,-0.4091387,0.2048167,0.3292324,0.1751699
6721,2023-01-20 11:09:01.402699,175697321,-5.603959,-6.109435,-0.8594489,-0.3539728,-0.412474,0.3074144,0.5339147,0.241436
6751,2023-01-20 11:09:01.502566,175797215,-5.688764,-6.19852,-0.8440228,-0.334267,-0.3636016,-0.08948364,0.1070801,0.6313524
6784,2023-01-20 11:09:01.602648,175897323,-5.773639,-6.279175,-0.8483266,-0.3427908,-0.3231762,0.1535912,0.1255611,0.2729301
6815,2023-01-20 11:09:01.702579,175997249,-5.858002,-6.360806,-0.8454982,-0.3426948,-0.3297799,-0.1630705,-0.2308929,0.2252073
6850,2023-01-20 11:09:01.802562,176097226,-5.943305,-6.4387,-0.8597372,-0.3643423,-0.3356851,-0.1237253,-0.2831952,-0.06520939
6882,2023-01-20 11:09:01.902664,176197324,-6.029898,-6.519676,-0.8717539,-0.3819755,-0.340904,-0.1105591,-0.2977577,-0.2216644
6915,2023-01-20 11:09:02.002583,176297239,-6.11709,-6.603077,-0.8656209,-0.379634,-0.3565138,0.2240649,0.1173004,-0.01490593
6945,2023-01-20 11:09:02.102661,176397305,-6.20252,-6.687071,-0.8445232,-0.3599719,-0.3720854,0.1220609,0.1257222,0.2404537
6980,2023-01-20 11:09:02.202950,176497582,-6.286592,-6.768324,-0.8374242,-0.355692,-0.3525288,0.07197754,0.0833114,0.1912737
7010,2023-01-20 11:09:02.302599,176597227,-6.370335,-6.850676,-0.8432457,-0.3629051,-0.3380667,-0.278461,-0.3060779,0.1423435
7045,2023-01-20 11:09:02.402695,176697321,-6.456628,-6.932565,-0.8831229,-0.407186,-0.3628466,-0.2981991,-0.5004587,-0.09008789
7075,2023-01-20 11:09:02.502551,176797226,-6.546107,-7.019842,-0.9098793,-0.4361446,-0.4280878,-0.3931601,-0.5251009,-0.3928394
7108,2023-01-20 11:09:02.602500,176897222,-6.638751,-7.110396,-0.9420546,-0.4704085,-0.4544133,-0.3670053,-0.4510061,-0.2918091
7138,2023-01-20 11:09:02.702559,176997236,-6.735367,-7.21018,-0.9903008,-0.5154876,-0.4748424,-0.3599873,-0.4892161,-0.09645939
7173,2023-01-20 11:09:02.802619,177097252,-6.835555,-7.30672,-1.010965,-0.5398004,-0.4882398,-0.2179811,-0.4418237,-0.3286524
7205,2023-01-20 11:09:02.902754,177197392,-6.937654,-7.408265,-1.0301,-0.5594887,-0.5266484,-0.1766428,-0.350456,-0.3607769
7238,2023-01-20 11:09:03.002607,177297249,-7.041304,-7.509659,-1.039837,-0.5714815,-0.5731727,0.01235825,-0.004295186,-0.3901339
7268,2023-01-20 11:09:03.102587,177397241,-7.144516,-7.619066,-1.019912,-0.5453615,-0.6274074,0.235065,0.5256834,-0.1275377
7303,2023-01-20 11:09:03.202769,177497434,-7.245813,-7.727452,-1.009529,-0.5278906,-0.6066644,0.03341156,0.4376942,0.4374304
7333,2023-01-20 11:09:03.302557,177597226,-7.346902,-7.839235,-1.015182,-0.5228487,-0.5943268,-0.09882233,0.2714826,0.0232296
7368,2023-01-20 11:09:03.402590,177697264,-7.448782,-7.949198,-1.022857,-0.5224413,-0.6328521,-0.1084142,0.4092962,-0.3366261
7398,2023-01-20 11:09:03.502576,177797249,-7.551794,-8.07022,-1.038143,-0.5197166,-0.6653806,-0.1605569,0.545563,-0.06057549
7431,2023-01-20 11:09:03.602548,177897220,-7.65637,-8.186355,-1.052067,-0.5220826,-0.6507511,-0.1446692,0.5457043,0.3891983
7462,2023-01-20 11:09:03.702578,177997237,-7.762455,-8.302779,-1.069687,-0.5293632,-0.6323407,-0.08692657,0.4723695,0.4032335
7497,2023-01-20 11:09:03.802580,178097227,-7.869878,-8.411753,-1.081605,-0.5397303,-0.612668,-0.2708951,0.1424147,0.5311604
7529,2023-01-20 11:09:03.902663,178197323,-7.979532,-8.522466,-1.108612,-0.5656785,-0.5791286,-0.1639092,-0.0336228,0.3706989
7562,2023-01-20 11:09:04.002569,178297241,-8.090826,-8.626037,-1.117761,-0.5825509,-0.5857687,-0.1209364,-0.1325261,0.147296
7593,2023-01-20 11:09:04.102549,178397230,-8.20303,-8.734639,-1.125649,-0.5940395,-0.5976332,-0.09319961,-0.1027965,-0.07571125
7628,2023-01-20 11:09:04.202765,178497453,-8.316051,-8.843085,-1.134519,-0.6074848,-0.6073766,-0.08742111,-0.08107121,-0.006778717
7658,2023-01-20 11:09:04.302561,178597226,-8.430097,-8.957626,-1.146839,-0.6193096,-0.6095048,-0.05081863,-0.05521917,0.03177547
7693,2023-01-20 11:09:04.402671,178697313,-8.544754,-9.069328,-1.146568,-0.621993,-0.6283541,-0.05136245,-0.05338389,0.1072702
7723,2023-01-20 11:09:04.502666,178797325,-8.660028,-9.181803,-1.162651,-0.6408758,-0.6229258,-0.2464676,-0.2982546,0.03303146
7756,2023-01-20 11:09:04.602557,178897231,-8.77739,-9.290334,-1.183315,-0.6703716,-0.621818,-0.1572928,-0.3133344,-0.04796505
7786,2023-01-20 11:09:04.702578,178997227,-8.896326,-9.405982,-1.193588,-0.6839318,-0.654388,-0.07693847,-0.2411572,-0.2166948
7821,2023-01-20 11:09:04.802619,179097245,-9.01577,-9.521551,-1.188951,-0.6831709,-0.6856524,0.2770225,0.2235422,-0.2476625
7853,2023-01-20 11:09:04.902670,179197333,-9.132703,-9.644283,-1.144104,-0.6325241,-0.6911505,0.647908,0.8609048,0.2446508
7886,2023-01-20 11:09:05.002548,179297245,-9.243311,-9.7619,-1.068265,-0.5496753,-0.6499363,0.6280339,1.095481,0.5128059
7916,2023-01-20 11:09:05.102545,179397219,-9.346873,-9.874368,-0.9978678,-0.4703733,-0.6008242,0.77564,1.373127,0.7878284
7951,2023-01-20 11:09:05.202682,179497334,-9.443453,-9.975471,-0.94043,-0.4084122,-0.5242947,0.3976065,0.9987911,0.8176289
7981,2023-01-20 11:09:05.302598,179597235,-9.535804,-10.07922,-0.907444,-0.3640285,-0.4764087,0.391443,0.9559895,0.6572914
8017,2023-01-20 11:09:05.402704,179697329,-9.624647,-10.17494,-0.8678056,-0.3175145,-0.4220662,0.5155156,1.056126,0.5708504
8049,2023-01-20 11:09:05.502555,179797236,-9.70846,-10.26545,-0.8030975,-0.2461096,-0.3724678,0.8529229,1.434616,0.6979923
8082,2023-01-20 11:09:05.602520,179897254,-9.784261,-10.34622,-0.7107134,-0.1487499,-0.2913653,0.9962619,1.664643,1.024117
8112,2023-01-20 11:09:05.702667,179997341,-9.849701,-10.41686,-0.594058,-0.02689613,-0.1683943,1.188116,1.897117,1.260673
8147,2023-01-20 11:09:05.802617,180097233,-9.903529,-10.47172,-0.4861296,0.08205822,-0.03055053,0.9722593,1.593775,1.623239
8179,2023-01-20 11:09:05.902660,180197316,-9.947633,-10.51499,-0.4000614,0.1673007,0.09561931,0.7892784,1.207861,1.243132
8212,2023-01-20 11:09:06.002542,180297237,-9.983893,-10.54745,-0.3279983,0.2355563,0.1817765,0.6227495,0.9214296,0.8365536
8242,2023-01-20 11:09:06.102633,180397319,-10.01384,-10.57406,-0.2718651,0.2883601,0.2513331,0.5317685,0.7491488,0.7084131
8277,2023-01-20 11:09:06.202577,180497254,-10.03879,-10.59095,-0.2327437,0.3194181,0.3081703,0.309985,0.4189542,0.5804081
8307,2023-01-20 11:09:06.302545,180597224,-10.06017,-10.59876,-0.1936413,0.3449427,0.3570215,0.3872826,0.3694378,0.5477829
8342,2023-01-20 11:09:06.402578,180697260,-10.07772,-10.60042,-0.1584606,0.3642396,0.3935723,0.3169211,0.1835963,0.507967
8372,2023-01-20 11:09:06.502554,180797228,-10.09208,-10.60127,-0.1296715,0.3795192,0.4216117,0.259343,0.03992992,0.4088678
8405,2023-01-20 11:09:06.602572,180897238,-10.10383,-10.59831,-0.1061128,0.3883641,0.4384102,0.2122256,-0.05883133,0.272933
8435,2023-01-20 11:09:06.702550,180997220,-10.11344,-10.60019,-0.08683423,0.3999126,0.4464199,0.1736685,-0.08768295,0.1380739
8470,2023-01-20 11:09:06.802639,181097313,-10.12131,-10.6006,-0.07105819,0.4082259,0.429658,0.1421164,-0.01037236,-0.01475334
8502,2023-01-20 11:09:06.902684,181197345,-10.12775,-10.60428,-0.05814837,0.4183818,0.4520751,0.1162967,-0.002348156,0.2725372
8535,2023-01-20 11:09:07.002585,181297234,-10.13303,-10.60351,-0.04909657,0.4213801,0.4697371,-0.02342062,-0.2170751,0.3748312
8565,2023-01-20 11:09:07.102592,181397238,-10.13883,-10.60019,-0.07300995,0.3883463,0.4572141,-0.3444107,-0.6875923,0.07801533
8600,2023-01-20 11:09:07.202750,181497394,-10.14829,-10.59275,-0.1211904,0.3232749,0.4491094,-0.5829781,-1.141011,-0.06762886
8630,2023-01-20 11:09:07.302599,181597241,-10.16367,-10.58789,-0.1872035,0.2370146,0.4082133,-0.5956686,-1.389345,-0.4922476
8666,2023-01-20 11:09:07.402685,181697326,-10.1851,-10.58618,-0.242184,0.1588957,0.3256975,-0.6232317,-1.467891,-0.7133293
8696,2023-01-20 11:09:07.502684,181797337,-10.21244,-10.59629,-0.3034824,0.08036458,0.2423071,-0.5652839,-1.368219,-0.9164352
8729,2023-01-20 11:09:07.602571,181897235,-10.24543,-10.61522,-0.3541186,0.0156678,0.1458245,-0.4281265,-1.104144,-0.7587652
8759,2023-01-20 11:09:07.702587,181997231,-10.2829,-10.64705,-0.3946929,-0.03053886,0.03641746,-0.3948247,-0.8693638,-0.8451796
8794,2023-01-20 11:09:07.802709,182097333,-10.32423,-10.6877,-0.431267,-0.06779163,-0.007002486,-0.3575617,-0.6522157,-0.4634418
8826,2023-01-20 11:09:07.902685,182197321,-10.36913,-10.74021,-0.4645115,-0.09343491,-0.08040708,-0.2551874,-0.3933522,-0.4201212
8859,2023-01-20 11:09:08.002587,182297235,-10.41636,-10.79494,-0.4745896,-0.09601417,-0.1295668,0.0281266,0.09881733,-0.4466572
8889,2023-01-20 11:09:08.102648,182397314,-10.46375,-10.84923,-0.4762572,-0.09076774,-0.1413946,-0.185872,0.08140615,0.03399849
8924,2023-01-20 11:09:08.202564,182497247,-10.5131,-10.90194,-0.5192196,-0.1303817,-0.164053,-0.685872,-0.4926063,-0.01371574
8954,2023-01-20 11:09:08.302573,182597233,-10.56876,-10.95792,-0.5931597,-0.2039971,-0.1844859,-0.7036327,-0.7168722,-0.4854527
8989,2023-01-20 11:09:08.402716,182697355,-10.63138,-11.0208,-0.6579252,-0.2685112,-0.2720971,-0.6219485,-0.657619,-0.6161413
9019,2023-01-20 11:09:08.502556,182797226,-10.70061,-11.09155,-0.7275093,-0.336562,-0.3253515,-0.6622062,-0.6837484,-0.4520931
9052,2023-01-20 11:09:08.602529,182897229,-10.77662,-11.16713,-0.7927476,-0.4022374,-0.3802088,-0.639385,-0.7173445,-0.4854784
9082,2023-01-20 11:09:08.702561,182997229,-10.85885,-11.25052,-0.8477278,-0.4560579,-0.454201,-0.4337309,-0.4971016,-0.6617059
9117,2023-01-20 11:09:08.802592,183097228,-10.94536,-11.33873,-0.8769981,-0.4836216,-0.5072398,-0.1957646,-0.1376135,-0.2960844
9151,2023-01-20 11:09:08.902691,183197340,-11.03392,-11.43279,-0.8932315,-0.4943582,-0.5362094,-0.1632977,-0.04048384,0.02180481
9184,2023-01-20 11:09:09.002354,183297246,-11.12419,-11.52598,-0.9145476,-0.5127544,-0.527779,-0.3000914,-0.2210958,-0.1203766
9214,2023-01-20 11:09:09.093401,183397194,-11.21709,-11.62175,-0.9438772,-0.5392153,-0.5614672,-0.3251643,-0.2217515,-0.2170982
9247,2023-01-20 11:09:09.184607,183497317,-11.31309,-11.71563,-0.9763896,-0.5738543,-0.5668728,-0.3199478,-0.3096089,0.08784676
9280,2023-01-20 11:09:09.283012,183597238,-11.4122,-11.81052,-1.004116,-0.6058021,-0.5908713,-0.2166478,-0.2792644,-0.2415419
9313,2023-01-20 11:09:09.383094,183697333,-11.51368,-11.9077,-1.025618,-0.6315979,-0.6416079,-0.2095302,-0.2150584,-0.3052025
9345,2023-01-20 11:09:09.483012,183797249,-11.61742,-12.00566,-1.050318,-0.6620723,-0.6525291,-0.255823,-0.2796692,-0.01458931
9376,2023-01-20 11:09:09.583001,183897234,-11.72366,-12.10584,-1.074811,-0.6926355,-0.6599756,-0.2546846,-0.3455243,-0.2200108
9409,2023-01-20 11:09:09.683002,183997218,-11.83257,-12.21224,-1.103333,-0.7236641,-0.6916794,-0.2813718,-0.4223632,-0.1362371
9443,2023-01-20 11:09:09.783039,184097235,-11.94434,-12.32067,-1.131375,-0.7550437,-0.7246564,-0.2611725,-0.4043702,-0.1309509
9477,2023-01-20 11:09:09.883112,184197325,-12.05875,-12.4361,-1.156762,-0.7794181,-0.7382982,-0.2582466,-0.4086213,-0.1400347
9508,2023-01-20 11:09:09.983076,184297312,-12.17574,-12.55395,-1.183701,-0.8054904,-0.779097,-0.3039914,-0.4602093,-0.2291117
9540,2023-01-20 11:09:10.083077,184397321,-12.29563,-12.67887,-1.214088,-0.8308516,-0.8257146,-0.2990973,-0.3723627,-0.3854694
9572,2023-01-20 11:09:10.183005,184497253,-12.41842,-12.80712,-1.24089,-0.8521909,-0.8513467,-0.2454933,-0.2854245,-0.1920881
9605,2023-01-20 11:09:10.282987,184597236,-12.54364,-12.94177,-1.263026,-0.8648939,-0.8946299,-0.2267531,-0.1392023,-0.192296
9638,2023-01-20 11:09:10.383093,184697343,-12.67109,-13.07753,-1.285308,-0.8788739,-0.9074686,-0.1925415,-0.02569616,-0.0963068
9670,2023-01-20 11:09:10.482975,184797317,-12.80061,-13.21697,-1.304917,-0.888557,-0.9232824,-0.1772476,0.008258685,0.08471584
9703,2023-01-20 11:09:10.582990,184897443,-12.93181,-13.35441,-1.31718,-0.8945837,-0.9367856,-0.06898895,0.084193,0.2035484
9735,2023-01-20 11:09:10.682803,184997220,-13.06359,-13.49623,-1.317165,-0.8845221,-0.9276184,0.01471252,0.2358371,-0.08439159
9768,2023-01-20 11:09:10.783048,185097398,-13.19529,-13.64,-1.317514,-0.8728017,-0.9470848,-0.0443988,0.2784244,0.1208229
9802,2023-01-20 11:09:10.883022,185197380,-13.32724,-13.7887,-1.321693,-0.8602309,-0.9653804,-0.05996277,0.3756296,0.09091854
9833,2023-01-20 11:09:10.983032,185297412,-13.45973,-13.93556,-1.328309,-0.8524792,-0.951585,-0.03476898,0.4497975,0.1417608
9866,2023-01-20 11:09:11.082848,185397238,-13.59271,-14.08534,-1.331277,-0.8386533,-0.9253734,-0.01687286,0.4504226,0.2063437
9898,2023-01-20 11:09:11.183031,185497429,-13.72595,-14.23162,-1.333855,-0.8281886,-0.9208375,-0.03563904,0.3998976,0.4153643
9931,2023-01-20 11:09:11.282820,185597231,-13.85948,-14.37544,-1.335894,-0.8199321,-0.8748887,0.004324036,0.2967442,0.706852
9964,2023-01-20 11:09:11.383043,185697467,-13.99296,-14.51475,-1.333568,-0.811785,-0.8679353,-0.0003271484,0.2331483,0.1884308
9995,2023-01-20 11:09:11.482797,185797221,-14.12639,-14.65942,-1.335727,-0.80269,-0.8646685,-0.05581848,0.2446907,0.1550198
10026,2023-01-20 11:09:11.582984,185897404,-14.26022,-14.79998,-1.340768,-0.8010119,-0.8710004,-0.03377533,0.2819037,0.04820061
10058,2023-01-20 11:09:11.682910,185997313,-14.39442,-14.94547,-1.343062,-0.7920114,-0.8742976,-0.04114776,0.305663,0.3996582
10091,2023-01-20 11:09:11.783002,186097384,-14.52891,-15.08603,-1.346414,-0.7892947,-0.8374561,-0.03444488,0.2686428,0.393054
10125,2023-01-20 11:09:11.882944,186197328,-14.66358,-15.22915,-1.346858,-0.7812846,-0.8471777,0.002329102,0.2935581,0.09913731
10156,2023-01-20 11:09:11.983002,186297391,-14.79836,-15.37029,-1.349465,-0.7775375,-0.8456395,-0.04030426,0.2471682,0.2843218
10188,2023-01-20 11:09:12.082808,186397223,-14.93354,-15.51337,-1.354598,-0.7747667,-0.811023,-0.05396149,0.1183178,0.2930737
10220,2023-01-20 11:09:12.183026,186497471,-15.06922,-15.6521,-1.358125,-0.7752432,-0.8124182,-0.01102203,0.1497186,0.1037378
10253,2023-01-20 11:09:12.282787,186597210,-15.20512,-15.79731,-1.359561,-0.7673671,-0.7939697,0.003810425,0.1716899,0.3617401
10287,2023-01-20 11:09:12.383063,186697452,-15.34101,-15.93772,-1.357708,-0.7610011,-0.8023044,0.03598938,0.2256452,-0.1169758
10319,2023-01-20 11:09:12.482943,186797346,-15.47651,-16.08527,-1.351188,-0.7424257,-0.8010677,0.08275848,0.3802424,0.1314754
10350,2023-01-20 11:09:12.582963,186897390,-15.61085,-16.23047,-1.334142,-0.7145195,-0.8118772,0.2041698,0.6180882,0.2524223
10382,2023-01-20 11:09:12.682825,186997230,-15.74322,-16.37994,-1.312801,-0.6760811,-0.7792446,0.222886,0.7044588,0.3113976
10415,2023-01-20 11:09:12.783009,187097383,-15.87293,-16.52267,-1.276289,-0.6265504,-0.7571673,0.5693657,1.153884,0.4828558
10449,2023-01-20 11:09:12.882898,187197272,-15.99691,-16.67056,-1.194978,-0.52133,-0.699068,1.069366,1.927169,0.6479425
10480,2023-01-20 11:09:12.982849,187297230,-16.11026,-16.80707,-1.063666,-0.3668531,-0.6177469,1.569366,2.742646,1.23932
10512,2023-01-20 11:09:13.082838,187397226,-16.20803,-16.9365,-0.8870379,-0.158565,-0.4696153,1.774076,3.240598,1.885781
10544,2023-01-20 11:09:13.182926,187497321,-16.2884,-17.04313,-0.7258807,0.02884216,-0.2711898,1.451761,2.957076,2.192003
10577,2023-01-20 11:09:13.282824,187597210,-16.35418,-17.13551,-0.5940029,0.1873325,-0.08551933,1.188006,2.577108,1.908125
10610,2023-01-20 11:09:13.382987,187697361,-16.408,-17.20757,-0.4860846,0.3134845,0.06264763,0.9721692,2.243324,1.628761
10642,2023-01-20 11:09:13.482824,187797220,-16.45204,-17.27096,-0.3977728,0.4211493,0.2011294,0.7955456,1.913002,1.597826
10673,2023-01-20 11:09:13.582793,187897218,-16.48808,-17.31861,-0.3255055,0.5050219,0.337433,0.6510109,1.522978,1.581289
10705,2023-01-20 11:09:13.682908,187997318,-16.51758,-17.36211,-0.2663676,0.5781624,0.4487741,0.5327353,1.186942,1.270874
10738,2023-01-20 11:09:13.782831,188097217,-16.54172,-17.39482,-0.217974,0.6351302,0.5485269,0.435948,0.8940258,1.099487
10772,2023-01-20 11:09:13.882955,188197333,-16.56147,-17.42742,-0.1783725,0.6875736,0.6282582,0.3567449,0.6803964,0.974802
10803,2023-01-20 11:09:13.982859,188297233,-16.57764,-17.45082,-0.1459658,0.7272165,0.6833703,0.2919316,0.5045921,0.8676939
10835,2023-01-20 11:09:14.082839,188397221,-16.59086,-17.47376,-0.1194468,0.7634499,0.742326,0.2388935,0.3751875,0.6014824
10867,2023-01-20 11:09:14.182957,188497349,-16.60168,-17.48844,-0.09774567,0.7890048,0.7769107,0.1954913,0.2686166,0.5100231
10901,2023-01-20 11:09:14.282851,188597237,-16.61055,-17.50245,-0.07998723,0.8119219,0.8058075,0.1599745,0.1684447,0.6024685
10935,2023-01-20 11:09:14.382931,188697308,-16.61779,-17.50905,-0.06545515,0.8258021,0.8319954,0.1309103,0.09439911,0.4394617
10967,2023-01-20 11:09:14.482818,188797218,-16.62372,-17.50626,-0.05356327,0.8289685,0.879193,0.1071265,-0.01613594,0.5135565
10998,2023-01-20 11:09:14.582799,188897228,-16.62858,-17.49895,-0.0438319,0.8265379,0.8759108,0.08766381,-0.1300239,0.3239994
11030,2023-01-20 11:09:14.682899,188997308,-16.63255,-17.48695,-0.03586854,0.8185346,0.8922459,0.07173707,-0.268107,-0.02212048
11063,2023-01-20 11:09:14.782834,189097212,-16.6358,-17.4732,-0.02935194,0.8080443,0.8636876,0.05870389,-0.2519164,0.06100941
11097,2023-01-20 11:09:14.882932,189197322,-16.63846,-17.46034,-0.02401929,0.7978593,0.8298013,0.04803857,-0.195291,-0.1387568
11128,2023-01-20 11:09:14.982909,189297320,-16.64064,-17.44125,-0.01965547,0.7809585,0.8358158,0.03931093,-0.1974721,-0.01957607
11160,2023-01-20 11:09:15.082809,189397214,-16.64242,-17.42454,-0.01608447,0.7660371,0.8333044,0.03216894,-0.2991045,-0.00480175
11192,2023-01-20 11:09:15.182850,189497245,-16.64388,-17.40872,-0.01316224,0.7516791,0.8374047,0.02632449,-0.3207089,-0.1223993
11225,2023-01-20 11:09:15.282834,189597212,-16.64507,-17.40028,-0.01077093,0.7444426,0.7798346,0.02154186,-0.2058804,-0.2634239
11261,2023-01-20 11:09:15.382878,189697237,-16.61617,-17.39479,-1.023045E-05,0.7786103,0.7873797,-0.0005231623,0.04161339,0.1933079
11293,2023-01-20 11:09:15.482843,189797238,-16.61618,-17.3955,-0.0002490572,0.7790771,0.7747902,-0.005350061,0.03898554,0.2231894
11326,2023-01-20 11:09:15.582806,189897248,-16.61624,-17.39237,-0.001233711,0.7748954,0.7887716,-0.0156986,-0.006841575,0.3200808
11358,2023-01-20 11:09:15.682784,189997197,-16.61645,-17.39081,-0.003325379,0.7710374,0.7608607,-0.0279304,-0.0430206,0.03895378
11391,2023-01-20 11:09:15.782830,190097199,-16.61691,-17.38729,-0.006565537,0.7638165,0.7753214,-0.04009993,-0.01406268,0.07175541
11425,2023-01-20 11:09:15.882868,190197229,-16.61773,-17.38398,-0.01094537,0.7552961,0.7817804,-0.05222166,-0.1181347,0.54249
11456,2023-01-20 11:09:15.982871,190297232,-16.61902,-17.3757,-0.01645535,0.7402267,0.7677705,-0.0643037,-0.2207816,-0.01877499
11488,2023-01-20 11:09:16.082845,190397209,-16.62088,-17.37397,-0.02309701,0.7299926,0.7454326,-0.07636744,-0.1677502,-0.005070686
11520,2023-01-20 11:09:16.182960,190497327,-16.62342,-17.37141,-0.03088391,0.7171068,0.7255945,-0.08843996,-0.098822,-0.08324432
11553,2023-01-20 11:09:16.282836,190597203,-16.62676,-17.37101,-0.03982731,0.7044268,0.7168363,-0.1005324,-0.1314038,0.1484718
11586,2023-01-20 11:09:16.382888,190697253,-16.63101,-17.3679,-0.04993361,0.6869658,0.6788801,-0.1126457,-0.1238682,-0.2760401
11618,2023-01-20 11:09:16.482844,190797223,-16.63627,-17.37188,-0.06121108,0.6743944,0.6478733,-0.1247821,-0.03002761,-0.04034424
11649,2023-01-20 11:09:16.582816,190897213,-16.64268,-17.37691,-0.07366758,0.6605621,0.6027389,-0.1369428,0.05591793,-0.2573528
11681,2023-01-20 11:09:16.682833,190997221,-16.65035,-17.38704,-0.08730961,0.649375,0.5766892,-0.1491276,0.182935,-0.1427536
11714,2023-01-20 11:09:16.782820,191097194,-16.6594,-17.39514,-0.102143,0.6336004,0.5552088,-0.1613355,0.2027079,0.1795664
11748,2023-01-20 11:09:16.882967,191197334,-16.66993,-17.40481,-0.1181727,0.6167015,0.5474264,-0.1735653,0.1714289,0.05330276
11779,2023-01-20 11:09:16.982860,191297222,-16.68208,-17.41474,-0.1354009,0.5972627,0.547664,-0.1858141,0.1209962,-0.03211117
11811,2023-01-20 11:09:17.082827,191397191,-16.69594,-17.42966,-0.1538186,0.5798972,0.5035802,-0.1980729,0.1078287,0.05140018
11843,2023-01-20 11:09:17.182852,191497219,-16.71163,-17.44443,-0.1734053,0.5593999,0.5230456,-0.210327,-1.249313E-05,0.255084
11876,2023-01-20 11:09:17.282835,191597198,-16.72922,-17.4581,-0.1941369,0.5347437,0.5123316,-0.2225638,-0.08377368,-0.02408981
11909,2023-01-20 11:09:17.382873,191697229,-16.74881,-17.46939,-0.2159964,0.5045834,0.4899586,-0.2347765,-0.1553218,-0.1997547
11941,2023-01-20 11:09:17.482931,191797314,-16.77051,-17.48665,-0.2389755,0.4771707,0.4512435,-0.2469644,-0.1044826,-0.3109198
11972,2023-01-20 11:09:17.582829,191897245,-16.7944,-17.5021,-0.2630707,0.4446295,0.4135272,-0.2591293,-0.1324145,0.01103401
12004,2023-01-20 11:09:17.682801,191997195,-16.82059,-17.51697,-0.2882721,0.4081097,0.3881125,-0.2712697,-0.2221679,-0.06912708
12037,2023-01-20 11:09:17.782835,192097196,-16.84915,-17.53346,-0.314562,0.3697458,0.3526202,-0.2833807,-0.2359618,-0.4666967
12071,2023-01-20 11:09:17.882867,192197225,-16.88018,-17.55288,-0.3419253,0.3307724,0.352124,-0.2954594,-0.3096146,0.2844334
12102,2023-01-20 11:09:17.982863,192297225,-16.91374,-17.57028,-0.370344,0.2861966,0.3465519,-0.3073898,-0.585463,0.165
12135,2023-01-20 11:09:18.082837,192397216,-16.94992,-17.58349,-0.3997051,0.2338643,0.3770055,-0.3166302,-0.9633806,0.4681892
12167,2023-01-20 11:09:18.182942,192497341,-16.98877,-17.5966,-0.4295968,0.1782243,0.3594486,-0.3204493,-1.238537,-0.4840097
12200,2023-01-20 11:09:18.275371,192597200,-17.03033,-17.61621,-0.4595736,0.1263126,0.3373702,-0.3207571,-1.337723,-0.0964632
12233,2023-01-20 11:09:18.366448,192697251,-17.0746,-17.6396,-0.4894401,0.07556595,0.2882254,-0.3188937,-1.476188,-0.495121
12265,2023-01-20 11:09:18.463086,192797239,-17.12156,-17.66955,-0.5188623,0.02912354,0.2766361,-0.3119262,-1.499773,-0.4906197
12296,2023-01-20 11:09:18.562989,192897213,-17.17116,-17.70861,-0.5473793,-0.009935494,0.1824356,-0.3007623,-1.375695,-0.4657679
12329,2023-01-20 11:09:18.662951,192997201,-17.22332,-17.75575,-0.574782,-0.04235771,0.1444459,-0.288888,-1.271199,-0.5839672
12362,2023-01-20 11:09:18.763003,193097252,-17.27794,-17.81215,-0.6010661,-0.06685585,0.07593918,-0.2770206,-1.018248,-0.8684912
12396,2023-01-20 11:09:18.863062,193197346,-17.33494,-17.87746,-0.626241,-0.08371899,-0.0126053,-0.2651564,-0.7270239,-0.3438511
12427,2023-01-20 11:09:18.962888,193297227,-17.39423,-17.95113,-0.6503161,-0.09341308,-0.06494004,-0.2532912,-0.4588054,-0.5446606
12459,2023-01-20 11:09:19.062841,193397187,-17.45573,-18.03333,-0.6732982,-0.09569206,-0.1202661,-0.2414213,-0.1583744,-0.2861776
12491,2023-01-20 11:09:19.162898,193497220,-17.51936,-18.12266,-0.6951956,-0.09190216,-0.1683869,-0.2295413,0.05461729,-0.1110821
12524,2023-01-20 11:09:19.262941,193597194,-17.58506,-18.21732,-0.7160125,-0.0837603,-0.1723847,-0.2176472,0.1950192,-0.3361216
12559,2023-01-20 11:09:19.363154,193697309,-17.65276,-18.32042,-0.7357518,-0.06808823,-0.2137295,-0.2057344,0.5061579,-0.4783001
12591,2023-01-20 11:09:19.463109,193797325,-17.72238,-18.42652,-0.7544163,-0.05028183,-0.2292468,-0.193798,0.720821,0.2450762
12622,2023-01-20 11:09:19.562862,193897230,-17.79387,-18.52801,-0.7720067,-0.03786484,-0.2357046,-0.1818327,0.7359155,0.1764374
12655,2023-01-20 11:09:19.662786,193997189,-17.86715,-18.62298,-0.7885181,-0.03268433,-0.2100381,-0.1698361,0.6839352,0.4036102
12689,2023-01-20 11:09:19.762826,194097195,-17.94212,-18.71052,-0.8039407,-0.03553741,-0.1421878,-0.1578088,0.5161414,0.3494234
12723,2023-01-20 11:09:19.862858,194197221,-18.01867,-18.79334,-0.8182645,-0.04359657,-0.1837627,-0.1457523,0.4024425,0.1721096
12754,2023-01-20 11:09:19.962854,194297227,-18.09671,-18.87751,-0.83148,-0.05068047,-0.1421146,-0.1336675,0.346271,-0.06346321
12787,2023-01-20 11:09:20.062864,194397233,-18.17612,-18.96229,-0.8435782,-0.05740517,-0.1540337,-0.1215556,0.3222972,0.07178211
12819,2023-01-20 11:09:20.162966,194497323,-18.25679,-19.04724,-0.8545504,-0.06410118,-0.1403746,-0.1094178,0.2662627,0.15417
12851,2023-01-20 11:09:20.262836,194597195,-18.33863,-19.1272,-0.8643885,-0.07581428,-0.06673647,-0.0972548,0.06581248,0.7048616
12885,2023-01-20 11:09:20.362860,194697229,-18.42151,-19.20296,-0.8730848,-0.09162971,-0.1200739,-0.08506778,-0.0695471,-0.5129652
12917,2023-01-20 11:09:20.462827,194797214,-18.50532,-19.28631,-0.8806314,-0.09964263,-0.2177089,-0.07285778,0.3636556,-0.8344679
12950,2023-01-20 11:09:20.562791,194897201,-18.58996,-19.37504,-0.8870217,-0.1019411,-0.2389638,-0.06062556,0.6319361,0.1069031
12983,2023-01-20 11:09:20.662807,194997211,-18.67529,-19.45701,-0.892249,-0.110529,-0.2003784,-0.04837202,0.532549,0.4874659
13016,2023-01-20 11:09:20.762854,195097237,-18.76122,-19.53474,-0.8963066,-0.1227885,-0.1838311,-0.036098,0.3714105,-0.08987236
13050,2023-01-20 11:09:20.862861,195197238,-18.84762,-19.60744,-0.8991888,-0.1393719,-0.1824041,-0.02380437,0.2573052,0.3945284
13081,2023-01-20 11:09:20.962856,195297235,-18.93437,-19.67642,-0.9008934,-0.1588487,-0.1819253,-0.01173955,0.1643728,-0.2525482
13114,2023-01-20 11:09:21.062829,195397208,-19.02136,-19.74308,-0.9015642,-0.179843,-0.2030511,-0.003076668,0.1553293,-0.03673744
13145,2023-01-20 11:09:21.162863,195497240,-19.10851,-19.80742,-0.9016774,-0.2027711,-0.2121414,-0.0001180727,0.073503,0.1711798
13179,2023-01-20 11:09:21.262843,195597219,-19.19578,-19.86996,-0.9016787,-0.2274966,-0.2798073,0,0.1322675,-0.3548832
13213,2023-01-20 11:09:21.362851,195697227,-19.28316,-19.93086,-0.9016787,-0.2539835,-0.3072881,0,0.1600553,-0.2055244
13245,2023-01-20 11:09:21.462943,195797348,-19.37066,-19.98654,-0.9016787,-0.2857974,-0.2961808,0,0.07042985,-0.08498669
13276,2023-01-20 11:09:21.562798,195897249,-19.45825,-20.03942,-0.9016787,-0.3205069,-0.3081906,0,-0.1043351,-0.009098053
13309,2023-01-20 11:09:21.662757,195997193,-19.54595,-20.09281,-0.9016787,-0.3548184,-0.3182663,0,-0.1843926,0.02871609
13342,2023-01-20 11:09:21.762804,196097190,-19.63375,-20.14445,-0.9016787,-0.3909781,-0.311285,0,-0.4362365,0.02252483
13376,2023-01-20 11:09:21.862862,196197231,-19.72164,-20.19552,-0.9016787,-0.4277933,-0.3237911,0,-0.5048052,-0.5561066
13407,2023-01-20 11:09:21.962849,196297222,-19.80961,-20.25229,-0.9016787,-0.4590054,-0.3718327,0,-0.4539001,-0.2383051
13440,2023-01-20 11:09:22.062863,196397250,-19.89768,-20.31204,-0.9016787,-0.4873184,-0.3902225,0,-0.4466088,-0.3305912
13471,2023-01-20 11:09:22.162819,196497227,-19.98582,-20.37331,-0.9016787,-0.5141922,-0.4149443,0,-0.453967,-0.4447556
13505,2023-01-20 11:09:22.262780,196597184,-20.07405,-20.44094,-0.9016787,-0.5347854,-0.4403173,0,-0.4748039,0.006853104
13539,2023-01-20 11:09:22.362836,196697220,-20.16235,-20.51283,-0.9016787,-0.5512075,-0.4344748,0,-0.5552783,-0.1216507
13571,2023-01-20 11:09:22.462829,196797221,-20.25073,-20.58629,-0.9016787,-0.5661197,-0.4394995,0,-0.5570456,-0.211751
13602,2023-01-20 11:09:22.562808,196897225,-20.33917,-20.66267,-0.9016787,-0.5781803,-0.5033305,0,-0.4997701,-0.1370249
13635,2023-01-20 11:09:22.662774,196997185,-20.42768,-20.73907,-0.9016787,-0.5902896,-0.5093371,0,-0.4114865,-0.3208094
13668,2023-01-20 11:09:22.762860,197097247,-20.51626,-20.81669,-0.9016787,-0.6012491,-0.514299,0,-0.3842263,0.005255699
13702,2023-01-20 11:09:22.862848,197197224,-20.6049,-20.89726,-0.9016787,-0.6093252,-0.5836563,0,-0.272247,-0.6087551
13733,2023-01-20 11:09:22.962834,197297207,-20.6936,-20.98292,-0.9016787,-0.6123575,-0.6299974,0,-0.01417503,-0.3815107
13766,2023-01-20 11:09:23.062852,197397222,-20.78236,-21.06857,-0.9016787,-0.6154703,-0.5779223,0,-0.05153394,0.7028703
13797,2023-01-20 11:09:23.162866,197497233,-20.87118,-21.14976,-0.9016787,-0.6230972,-0.524129,0,-0.4144566,0.5185585
13831,2023-01-20 11:09:23.262838,197597210,-20.96004,-21.23182,-0.9016787,-0.629899,-0.5000657,0,-0.5781371,-0.1373253
13865,2023-01-20 11:09:23.362965,197697346,-21.04896,-21.32021,-0.9016787,-0.6304287,-0.5577933,0,-0.4477492,-0.419343
13897,2023-01-20 11:09:23.462893,197797285,-21.13792,-21.41563,-0.9016787,-0.6239737,-0.6029115,0,-0.1938152,-0.366931
13928,2023-01-20 11:09:23.562809,197897214,-21.22694,-21.51772,-0.9016787,-0.610895,-0.6483603,0,0.1008635,-0.5084972
13961,2023-01-20 11:09:23.662783,197997179,-21.316,-21.61987,-0.9016787,-0.5978116,-0.6400908,0,0.3169267,0.1596661
13994,2023-01-20 11:09:23.762828,198097201,-21.4051,-21.7188,-0.9016787,-0.5879825,-0.6487948,0,0.2465103,0.1881809
14028,2023-01-20 11:09:23.862859,198197227,-21.49425,-21.8215,-0.9016787,-0.5744229,-0.6139152,0,0.2197137,0.131484
14059,2023-01-20 11:09:23.962847,198297221,-21.58343,-21.92723,-0.9016787,-0.5578824,-0.647552,0,0.3859593,-0.2610044
14092,2023-01-20 11:09:24.062857,198397246,-21.67265,-22.03565,-0.9016787,-0.5386832,-0.6388132,0,0.4505275,0.3736153
14123,2023-01-20 11:09:24.162828,198497237,-21.76191,-22.14376,-0.9016787,-0.5198306,-0.5919408,0,0.3787696,0.3094416
14157,2023-01-20 11:09:24.262790,198597189,-21.85121,-22.24862,-0.9016787,-0.5042593,-0.5747842,0,0.2695007,0.3721142
14191,2023-01-20 11:09:24.362850,198697223,-21.94054,-22.35351,-0.9016787,-0.4887027,-0.5501925,0,0.3245478,-0.2761087
14224,2023-01-20 11:09:24.462854,198797235,-22.0299,-22.45604,-0.9016787,-0.4755338,-0.5383852,0,0.3314529,0.08080673
14255,2023-01-20 11:09:24.562792,198897202,-22.11929,-22.55726,-0.9016787,-0.4637125,-0.5221989,0,0.3383785,0.2935333
14288,2023-01-20 11:09:24.662820,198997238,-22.20872,-22.66013,-0.9016787,-0.4502676,-0.5288718,0,0.3595636,0.09569836
14321,2023-01-20 11:09:24.762817,199097229,-22.29818,-22.76243,-0.9016787,-0.4374258,-0.5073425,0,0.3822158,0.2248449
14355,2023-01-20 11:09:24.862834,199197232,-22.38766,-22.85995,-0.9016787,-0.4293814,-0.5416824,0,0.4799636,-0.3476582
14386,2023-01-20 11:09:24.962847,199297226,-22.47716,-22.95571,-0.9016787,-0.423129,-0.5284802,0,0.5873084,0.1566782
14419,2023-01-20 11:09:25.062830,199397202,-22.5667,-23.04612,-0.9016787,-0.4222574,-0.5146828,0,0.5179488,0.2561169
14450,2023-01-20 11:09:25.162909,199497280,-22.65626,-23.13211,-0.9016787,-0.4258243,-0.5381542,0,0.5071735,0.4566059
14484,2023-01-20 11:09:25.262825,199597190,-22.74584,-23.21427,-0.9016787,-0.4332461,-0.5237687,0,0.3740675,0.4141779
14518,2023-01-20 11:09:25.362983,199697338,-22.83544,-23.29216,-0.9016787,-0.44496,-0.4807217,0,0.1690279,0.3954315
14550,2023-01-20 11:09:25.462835,199797210,-22.92508,-23.36503,-0.9016787,-0.46173,-0.4872386,0,0.1745627,-0.4003201
14583,2023-01-20 11:09:25.562778,199897190,-23.01472,-23.43712,-0.9016787,-0.4792789,-0.5119281,0,0.1149178,0.5584106
14616,2023-01-20 11:09:25.662788,199997197,-23.10439,-23.51234,-0.9016787,-0.4937295,-0.5132433,0,0.07994641,-0.3734732
14649,2023-01-20 11:09:25.762808,200097191,-23.19409,-23.59155,-0.9016787,-0.5042178,-0.5542459,0,0.2069572,-0.4506111
14683,2023-01-20 11:09:25.862855,200197225,-23.28379,-23.67499,-0.9016787,-0.51048,-0.5769938,0,0.3620686,0.1027527
14714,2023-01-20 11:09:25.962957,200297321,-23.37352,-23.75329,-0.9016787,-0.5219058,-0.5189852,0,0.192982,0.5188856
14747,2023-01-20 11:09:26.062817,200397195,-23.46326,-23.82417,-0.9016787,-0.5407681,-0.5251774,0,0.02458418,-0.01436615
14778,2023-01-20 11:09:26.162811,200497215,-23.55302,-23.8923,-0.9016787,-0.5623965,-0.5083046,0,-0.1341859,0.1449566
14812,2023-01-20 11:09:26.262800,200597198,-23.6428,-23.95957,-0.9016787,-0.5849087,-0.4512206,0,-0.4644802,0.2592802
14846,2023-01-20 11:09:26.362856,200697228,-23.73259,-24.02558,-0.9016787,-0.6086905,-0.4812268,0,-0.6007794,0.0210638
14878,2023-01-20 11:09:26.462831,200797213,-23.8224,-24.0911,-0.9016787,-0.6329703,-0.4761676,0,-0.7068849,-0.1346855
14909,2023-01-20 11:09:26.562789,200897201,-23.91221,-24.16092,-0.9016787,-0.6529727,-0.5358344,0,-0.6458011,-0.4113579
14942,2023-01-20 11:09:26.662819,200997240,-24.00205,-24.23072,-0.9016787,-0.6730069,-0.5086177,0,-0.7454385,0.08095074
14975,2023-01-20 11:09:26.762779,201097197,-24.0919,-24.30456,-0.9016787,-0.6890177,-0.5492968,0,-0.7412606,-0.2616091
15009,2023-01-20 11:09:26.862825,201197223,-24.18176,-24.38025,-0.9016787,-0.7031851,-0.5788482,0,-0.7200803,-0.05811977
15040,2023-01-20 11:09:26.962847,201297214,-24.27163,-24.45695,-0.9016787,-0.716359,-0.5710284,0,-0.7468297,-0.1875973
15073,2023-01-20 11:09:27.062831,201397192,-24.36151,-24.53801,-0.9016787,-0.7251773,-0.5883216,0,-0.6568757,-0.3477411
15104,2023-01-20 11:09:27.162905,201497275,-24.4514,-24.62169,-0.9016787,-0.7313907,-0.6762506,0,-0.4224139,-0.5779591
15138,2023-01-20 11:09:27.262857,201597238,-24.54132,-24.70526,-0.9016787,-0.7377383,-0.7200347,0,-0.1125505,-0.5224438
15172,2023-01-20 11:09:27.362834,201697226,-24.63123,-24.79186,-0.9016787,-0.7410489,-0.7846299,0,0.1466593,-0.5643444
15204,2023-01-20 11:09:27.462848,201797239,-24.72114,-24.88644,-0.9016787,-0.7363809,-0.8196973,0,0.3771548,-0.4432716
15235,2023-01-20 11:09:27.562815,201897197,-24.81109,-24.98395,-0.9016787,-0.7288198,-0.8117248,0,0.4873439,0.1665602
15268,2023-01-20 11:09:27.662822,201997197,-24.90104,-25.07926,-0.9016787,-0.7234536,-0.8078909,0,0.4375237,-0.02579975
15301,2023-01-20 11:09:27.762851,202097220,-24.99098,-25.1761,-0.9016787,-0.7165616,-0.8693131,0,0.5150646,-0.1124001
15335,2023-01-20 11:09:27.862872,202197239,-25.08094,-25.27192,-0.9016787,-0.7106948,-0.8491842,0,0.6422242,-0.1076221
15367,2023-01-20 11:09:27.962986,202297353,-25.17092,-25.36647,-0.9016787,-0.7061294,-0.7806956,0,0.5165928,0.4894753
15399,2023-01-20 11:09:28.062846,202397209,-25.2609,-25.45942,-0.9016787,-0.7031607,-0.7548412,0,0.3821921,0.1893702
15430,2023-01-20 11:09:28.162861,202497217,-25.35088,-25.5496,-0.9016787,-0.702958,-0.7714164,0,0.3802906,-0.3188524
15464,2023-01-20 11:09:28.262829,202597187,-25.44086,-25.63972,-0.9016787,-0.7028189,-0.8660377,0,0.6418267,-0.5605946
15498,2023-01-20 11:09:28.362870,202697234,-25.53086,-25.72819,-0.9016787,-0.7043545,-0.8390602,0,0.6831222,0.1233482
15530,2023-01-20 11:09:28.457156,202797225,-25.62088,-25.81265,-0.9016787,-0.7099038,-0.7891943,0,0.5616509,0.5976324
15561,2023-01-20 11:09:28.548102,202897246,-25.71089,-25.89938,-0.9016787,-0.7131924,-0.8322029,0,0.4751335,-0.5823908
15594,2023-01-20 11:09:28.642882,202997204,-25.80091,-25.99263,-0.9016787,-0.7099575,-0.8412337,0,0.6736351,0.2129068
15627,2023-01-20 11:09:28.742877,203097198,-25.89092,-26.07564,-0.9016787,-0.7169644,-0.767178,0,0.3535279,0.9097738
15661,2023-01-20 11:09:28.842904,203197225,-25.98094,-26.15238,-0.9016787,-0.7302359,-0.6778469,0,-0.04002865,0.7557907
15693,2023-01-20 11:09:28.942892,203297214,-26.07099,-26.22771,-0.9016787,-0.7449527,-0.6460776,0,-0.3470143,0.5026197
15725,2023-01-20 11:09:29.042875,203397195,-26.16104,-26.30138,-0.9016787,-0.761337,-0.6742976,0,-0.4001111,-0.385498
15756,2023-01-20 11:09:29.142920,203497234,-26.25109,-26.37811,-0.9016787,-0.7746548,-0.6934686,0,-0.3386214,-0.06894112
15790,2023-01-20 11:09:29.242912,203597234,-26.34114,-26.45614,-0.9016787,-0.7866787,-0.7278541,0,-0.3199511,-0.03925514
15824,2023-01-20 11:09:29.342879,203697226,-26.43119,-26.53275,-0.9016787,-0.8001138,-0.7253686,0,-0.3867942,0.3368769
15856,2023-01-20 11:09:29.442847,203797214,-26.52123,-26.6064,-0.9016787,-0.8165152,-0.7286348,0,-0.4858075,-0.2607517
15888,2023-01-20 11:09:29.542825,203897207,-26.61128,-26.68048,-0.9016787,-0.8324869,-0.7410702,0,-0.404805,-0.3603048
15921,2023-01-20 11:09:29.642882,203997226,-26.70136,-26.75864,-0.9016787,-0.8443912,-0.7652524,0,-0.3510251,-0.2926331
15955,2023-01-20 11:09:29.742988,204097221,-26.79144,-26.84051,-0.9016787,-0.8526138,-0.7870271,0,-0.3479359,0.104785
15989,2023-01-20 11:09:29.843133,204197333,-26.88152,-26.92024,-0.9016787,-0.8629653,-0.7597054,0,-0.4880326,0.1345901
16021,2023-01-20 11:09:29.942952,204297222,-26.97161,-26.99896,-0.9016787,-0.8743252,-0.7639828,0,-0.5800498,-0.2154045
16053,2023-01-20 11:09:30.042874,204397203,-27.06169,-27.08059,-0.9016787,-0.8827872,-0.7865996,0,-0.5145245,-0.3033762
16084,2023-01-20 11:09:30.142848,204497222,-27.15178,-27.16596,-0.9016787,-0.8874942,-0.8092374,0,-0.4006098,-0.07203388
16118,2023-01-20 11:09:30.242800,204597193,-27.24186,-27.25046,-0.9016787,-0.8930801,-0.829141,0,-0.340322,-0.2600431
16152,2023-01-20 11:09:30.342860,204697238,-27.33194,-27.33675,-0.9016787,-0.8968667,-0.8389711,0,-0.264478,0.02355385
16184,2023-01-20 11:09:30.442834,204797211,-27.42203,-27.41566,-0.9016787,-0.9080459,-0.8419712,0,-0.2660531,-0.127491
16217,2023-01-20 11:09:30.542844,204897239,-27.51211,-27.48934,-0.9016787,-0.9244522,-0.8710239,0,-0.3115406,0.09166527
16250,2023-01-20 11:09:30.642797,204997205,-27.60221,-27.56342,-0.9016787,-0.9404654,-0.8373415,0,-0.4140255,-0.1261101
16283,2023-01-20 11:09:30.742787,205097201,-27.69232,-27.63966,-0.9016787,-0.9543423,-0.8581092,0,-0.4690813,-0.3189421
16317,2023-01-20 11:09:30.842818,205197220,-27.78244,-27.72506,-0.9016787,-0.959064,-0.8404334,0,-0.4961239,0.1046953
16392,2023-01-20 11:09:30.942863,205297230,-27.87256,-27.81772,-0.9016787,-0.9565201,-0.862848,0,-0.4287569,-0.2068748
16424,2023-01-20 11:09:31.042839,205397189,-27.96268,-27.91227,-0.9016787,-0.9520864,-0.8979685,0,-0.2636066,-0.2835388
16455,2023-01-20 11:09:31.142988,205497344,-28.0528,-28.00692,-0.9016787,-0.9475601,-0.924329,0,-0.1504321,-0.02777863
16489,2023-01-20 11:09:31.242856,205597219,-28.14291,-28.10766,-0.9016787,-0.9369327,-0.9443654,0,-0.05627114,-0.2329311
16523,2023-01-20 11:09:31.342884,205697255,-28.23303,-28.21239,-0.9016787,-0.9223257,-0.9266617,0,0.06762891,-0.1707478
16554,2023-01-20 11:09:31.443084,205797466,-28.32315,-28.31679,-0.9016787,-0.9080362,-0.9888368,0,0.2688578,-0.4804649
16585,2023-01-20 11:09:31.542803,205897202,-28.41327,-28.42616,-0.9016787,-0.888793,-1.013644,0,0.6511667,-0.1827135
16618,2023-01-20 11:09:31.642789,205997189,-28.50339,-28.53786,-0.9016787,-0.8672085,-0.969363,0,0.6721293,1.0873
16651,2023-01-20 11:09:31.742810,206097190,-28.59351,-28.64075,-0.9016787,-0.8544351,-0.8758932,0,0.3079064,0.8815079
16685,2023-01-20 11:09:31.842951,206197318,-28.68362,-28.73788,-0.9016787,-0.8474234,-0.864076,0,0.09139504,0.1131821
16717,2023-01-20 11:09:31.942860,206297224,-28.77374,-28.83366,-0.9016787,-0.8417618,-0.855286,0,0.06279172,-0.3435078
16749,2023-01-20 11:09:32.042828,206397190,-28.86386,-28.92717,-0.9016787,-0.8383706,-0.9059408,0,0.2477683,-0.5043535
16780,2023-01-20 11:09:32.142864,206497225,-28.95398,-29.02498,-0.9016787,-0.8306754,-0.9349411,0,0.4433947,-0.1136465
16814,2023-01-20 11:09:32.242846,206597209,-29.0441,-29.12325,-0.9016787,-0.8225235,-0.8792222,0,0.33755,0.8488331
16848,2023-01-20 11:09:32.342852,206697221,-29.13422,-29.21285,-0.9016787,-0.8230508,-0.7923887,0,-0.0482369,0.6113214
16880,2023-01-20 11:09:32.443157,206797539,-29.22433,-29.30077,-0.9016787,-0.8252481,-0.7562009,0,-0.2858222,0.3369741
16911,2023-01-20 11:09:32.542798,206897200,-29.31445,-29.39076,-0.9016787,-0.8253677,-0.764612,0,-0.3010477,-0.2342329
16944,2023-01-20 11:09:32.642774,206997188,-29.40457,-29.48586,-0.9016787,-0.8203872,-0.8033612,0,-0.1456068,-0.3422527
16977,2023-01-20 11:09:32.742788,207097205,-29.49469,-29.58698,-0.9016787,-0.8093838,-0.8314286,0,-0.007433933,0.1108065
17011,2023-01-20 11:09:32.842831,207197236,-29.58481,-29.69053,-0.9016787,-0.7959585,-0.7919261,0,0.0451978,-0.04794025
17043,2023-01-20 11:09:32.942846,207297222,-29.67493,-29.79677,-0.9016787,-0.7798306,-0.8331189,0,0.1828608,-0.1028252
17075,2023-01-20 11:09:33.042842,207397201,-29.76504,-29.90551,-0.9016787,-0.76121,-0.8610282,0,0.3288432,0.2647448
17106,2023-01-20 11:09:33.142897,207497255,-29.85516,-30.01277,-0.9016787,-0.7440713,-0.7922853,0,0.2633664,0.7576942
17140,2023-01-20 11:09:33.242827,207597198,-29.94528,-30.11235,-0.9016787,-0.7346085,-0.7416962,0,0.03425198,0.6171141
17174,2023-01-20 11:09:33.342830,207697233,-30.0354,-30.20691,-0.9016787,-0.73017,-0.7068793,0,-0.05389454,-0.0771904
17206,2023-01-20 11:09:33.443086,207797507,-30.12552,-30.30246,-0.9016787,-0.7247354,-0.7031428,0,-0.04580918,0.3671017
17237,2023-01-20 11:09:33.542770,207897189,-30.21564,-30.39495,-0.9016787,-0.7223599,-0.7014294,0,-0.11859,-0.1172485
17270,2023-01-20 11:09:33.642794,207997202,-30.30576,-30.48845,-0.9016787,-0.7189835,-0.7270904,0,-0.03205186,-0.05070972
17303,2023-01-20 11:09:33.742873,208097259,-30.39587,-30.58261,-0.9016787,-0.7149454,-0.7564614,0,0.06210854,-0.2538195
17337,2023-01-20 11:09:33.842964,208197334,-30.48599,-30.67974,-0.9016787,-0.7079337,-0.7276372,0,0.1934831,-0.1644564
17369,2023-01-20 11:09:33.942875,208297238,-30.57611,-30.77754,-0.9016787,-0.7002432,-0.7661584,0,0.2304909,0.187624
17401,2023-01-20 11:09:34.042863,208397221,-30.66623,-30.8724,-0.9016787,-0.6955069,-0.6996795,0,0.1199814,0.1079063
17432,2023-01-20 11:09:34.142866,208497221,-30.75635,-30.96323,-0.9016787,-0.6947964,-0.6994714,0,0.09883347,0.04265881
17466,2023-01-20 11:09:34.242848,208597203,-30.84646,-31.0544,-0.9016787,-0.6937442,-0.7090515,0,0.06782753,-0.06594276
17500,2023-01-20 11:09:34.342877,208697233,-30.93658,-31.14677,-0.9016787,-0.6914908,-0.7073067,0,0.09172319,0.09318924
17532,2023-01-20 11:09:34.443143,208797510,-31.02677,-31.23948,-0.9016787,-0.6889712,-0.6925858,0,0.06700084,0.1223841
17563,2023-01-20 11:09:34.542813,208897204,-31.11696,-31.33407,-0.9016787,-0.6845694,-0.7085171,0,0.1556818,-0.09130001
17597,2023-01-20 11:09:34.642818,208997215,-31.20714,-31.42566,-0.9016787,-0.6831656,-0.7242892,0,0.1466452,0.2470741
17630,2023-01-20 11:09:34.742810,209097188,-31.29733,-31.51397,-0.9016787,-0.6850381,-0.7075192,0,0.1052127,-0.008592606
17664,2023-01-20 11:09:34.842864,209197229,-31.38752,-31.60067,-0.9016787,-0.6885318,-0.7106295,0,0.04383626,0.09708595
17696,2023-01-20 11:09:34.942849,209297210,-31.47771,-31.68548,-0.9016787,-0.6939029,-0.682139,0,-0.01701689,-0.2307291
17728,2023-01-20 11:09:35.042881,209397240,-31.56789,-31.77286,-0.9016787,-0.6967154,-0.7290846,0,0.1334559,-0.4401131
