LineNo,UTC_Approx,TimeUS,TPE,PE,DVE,TVE,VE,DAE,TAE,AE
693,2023-01-20 11:08:47.422189,161676943,-0.8010379,-0.8010379,0.01410822,0.01410822,0.01410822,0,0.0005742623,0.001110062
1044,2023-01-20 11:08:47.517176,161776930,-0.7959775,-0.7959775,0.0147458,0.0147458,0.0147458,0,0.0003088695,0.001227121
1160,2023-01-20 11:08:47.631731,161894214,-0.7857193,-0.7857193,0.01699939,0.01699939,0.01699939,0,0.0001661268,0.001405994
1423,2023-01-20 11:08:47.739696,161996634,-0.7699992,-0.7699992,0.02272163,0.02272163,0.02272163,0,8.935205E-05,0.001621453
1842,2023-01-20 11:08:47.843220,162097166,-0.7552733,-0.7552733,0.02789037,0.02789037,0.02789037,0,4.805839E-05,0.001833949
1889,2023-01-20 11:08:47.943009,162197197,-0.7415078,-0.7415078,0.03218732,0.03218732,0.03218732,0,2.584842E-05,0.001978522
1934,2023-01-20 11:08:48.042832,162297156,-0.7278647,-0.7278647,0.03645754,0.03645754,0.03645754,0,1.390268E-05,0.002153571
1980,2023-01-20 11:08:48.142827,162397146,-0.7146258,-0.7146258,0.04017127,0.04017127,0.04017127,0,7.477622E-06,0.002356956
2033,2023-01-20 11:08:48.242845,162497148,-0.6999286,-0.6999286,0.04556753,0.04556753,0.04556753,0,4.021872E-06,0.002353656
2074,2023-01-20 11:08:48.342896,162597166,-0.6844565,-0.6844565,0.05113685,0.05113685,0.05113685,0,2.163182E-06,0.002334181
2132,2023-01-20 11:08:48.439055,162697188,-0.6725744,-0.6725744,0.0533083,0.0533083,0.0533083,0,1.163477E-06,0.002327257
2191,2023-01-20 11:08:48.529989,162797161,-0.6635329,-0.6635329,0.05403902,0.05403902,0.05403902,0,6.257808E-07,0.002357302
2251,2023-01-20 11:08:48.623063,162897190,-0.6557395,-0.6557395,0.0543199,0.0543199,0.0543199,0,3.365789E-07,0.002277431
2305,2023-01-20 11:08:48.723023,162997130,-0.6487994,-0.6487994,0.05278148,0.05278148,0.05278148,0,1.810305E-07,0.00225601
2361,2023-01-20 11:08:48.823063,163097155,-0.6445054,-0.6445054,0.05020964,0.05020964,0.05020964,0,9.736802E-08,0.002229678
2416,2023-01-20 11:08:48.923105,163197196,-0.6453553,-0.6453553,0.04246915,0.04246915,0.04246915,0,5.236981E-08,0.002229471
2456,2023-01-20 11:08:49.023047,163297141,-0.644136,-0.644136,0.03874012,0.03874012,0.03874012,0,2.816734E-08,0.002214652
2500,2023-01-20 11:08:49.123030,163397140,-0.6376734,-0.6376734,0.03919925,0.03919925,0.03919925,0,1.514993E-08,0.002140111
2542,2023-01-20 11:08:49.225578,163497159,-0.6305382,-0.6305382,0.04125589,0.04125589,0.04125589,0,8.148455E-09,0.002165573
2582,2023-01-20 11:08:49.336612,163597157,-0.6201406,-0.6201406,0.04477037,0.04477037,0.04477037,0,4.382682E-09,0.002097907
2625,2023-01-20 11:08:49.442921,163697194,-0.6104786,-0.6104786,0.04711604,0.04711604,0.04711604,0,2.357245E-09,0.002097897
2663,2023-01-20 11:08:49.542866,163797204,-0.6016749,-0.6016749,0.04886973,0.04886973,0.04886973,0,1.267854E-09,0.002097709
2703,2023-01-20 11:08:49.638935,163897148,-0.5923364,-0.5923364,0.0496625,0.0496625,0.0496625,0,6.819209E-10,0.002097684
2741,2023-01-20 11:08:49.729989,163997178,-0.5827267,-0.5827267,0.05355436,0.05355436,0.05355436,0,3.667742E-10,0.002097791
2784,2023-01-20 11:08:49.823051,164097148,-0.5723016,-0.5723016,0.05564214,0.05564214,0.05564214,0,1.972711E-10,0.002097905
2824,2023-01-20 11:08:49.923075,164197195,-0.5574908,-0.5574908,0.05993639,0.05993639,0.05993639,0,1.061032E-10,0.002097877
2864,2023-01-20 11:08:50.023019,164297148,-0.5468844,-0.5468844,0.06411378,0.06411378,0.06411378,0,5.706807E-11,0.002097667
2903,2023-01-20 11:08:50.123058,164397150,-0.5437353,-0.5437353,0.0608807,0.0608807,0.0608807,0,3.06943E-11,0.00209754
2946,2023-01-20 11:08:50.223112,164497184,-0.5400872,-0.5400872,0.05527403,0.05527403,0.05527403,0,1.650907E-11,0.002097767
2984,2023-01-20 11:08:50.323035,164597148,-0.5348296,-0.5348296,0.05021999,0.05021999,0.05021999,0,8.879474E-12,0.002097968
3026,2023-01-20 11:08:50.423030,164697185,-0.5303282,-0.5303282,0.04735278,0.04735278,0.04735278,0,4.775865E-12,0.002097929
3066,2023-01-20 11:08:50.522941,164797143,-0.5268931,-0.5268931,0.04700294,0.04700294,0.04700294,0,2.56872E-12,0.002097531
3106,2023-01-20 11:08:50.622912,164897138,-0.522119,-0.522119,0.04648583,0.04648583,0.04648583,0,1.381597E-12,0.00209699
3144,2023-01-20 11:08:50.722977,164997145,-0.5136364,-0.5136364,0.04839681,0.04839681,0.04839681,0,7.430981E-13,0.002097536
3185,2023-01-20 11:08:50.822999,165097137,-0.5055649,-0.5055649,0.05213105,0.05213105,0.05213105,0,3.996785E-13,0.00209723
3225,2023-01-20 11:08:50.923038,165197240,-0.4967268,-0.4967268,0.05446553,0.05446553,0.05446553,0,2.149688E-13,0.002097765
3265,2023-01-20 11:08:51.022901,165297150,-0.4871103,-0.4871103,0.04676392,0.04676392,0.04676392,0,1.156219E-13,0.002097555
3303,2023-01-20 11:08:51.122910,165397144,-0.4737792,-0.4737792,0.05717338,0.05717338,0.05717338,0,6.218775E-14,0.002098107
3346,2023-01-20 11:08:51.222949,165497182,-0.4613549,-0.4613549,0.05863788,0.05863788,0.05863788,0,3.344795E-14,0.002098021
3384,2023-01-20 11:08:51.322873,165597150,-0.4479062,-0.4479062,0.06269059,0.06269059,0.06269059,0,1.799012E-14,0.002097647
3426,2023-01-20 11:08:51.422879,165697194,-0.43814,-0.43814,0.06561009,0.06561009,0.06561009,0,9.676065E-15,0.002097922
3464,2023-01-20 11:08:51.522807,165797138,-0.4346769,-0.4346769,0.05542006,0.05542006,0.05542006,0,5.204314E-15,0.002097895
3505,2023-01-20 11:08:51.622804,165897147,-0.4319664,-0.4319664,0.05761963,0.05761963,0.05761963,0,2.799164E-15,0.002098287
3542,2023-01-20 11:08:51.722805,165997140,-0.4311188,-0.4311188,0.05132404,0.05132404,0.05132404,0,1.505543E-15,0.00209804
3585,2023-01-20 11:08:51.822817,166097148,-0.4290709,-0.4290709,0.05045297,0.05045297,0.05045297,0,8.097629E-16,0.002097915
3625,2023-01-20 11:08:51.922867,166197201,-0.4246904,-0.4246904,0.04673707,0.04673707,0.04673707,0,4.355345E-16,0.002098121
3665,2023-01-20 11:08:52.022815,166297149,-0.4193195,-0.4193195,0.04371537,0.04371537,0.04371537,0,2.342542E-16,0.002098345
3701,2023-01-20 11:08:52.122817,166397144,-0.4109607,-0.4109607,0.04733822,0.04733822,0.04733822,0,1.259946E-16,0.002098526
3736,2023-01-20 11:08:52.222888,166497210,-0.4051402,-0.4051402,0.05119547,0.05119547,0.05119547,0,6.776677E-17,0.002098192
3766,2023-01-20 11:08:52.322818,166597143,-0.4040441,-0.4040441,0.04518804,0.04518804,0.04518804,0,3.644865E-17,0.002098242
3801,2023-01-20 11:08:52.422882,166697215,-0.4027141,-0.4027141,0.0385883,0.0385883,0.0385883,0,1.960407E-17,0.00209822
3831,2023-01-20 11:08:52.522853,166797211,-0.4012883,-0.4012883,0.03726508,0.03726508,0.03726508,0,1.054414E-17,0.002098715
3864,2023-01-20 11:08:52.622775,166897146,-0.3999874,-0.3999874,0.03555081,0.03555081,0.03555081,0,5.671209E-18,0.002098431
3894,2023-01-20 11:08:52.722801,166997139,-0.3993164,-0.3993164,0.04047785,0.04047785,0.04047785,0,3.050285E-18,0.00209849
3929,2023-01-20 11:08:52.822829,167097141,-0.3977467,-0.3977467,0.0269449,0.0269449,0.0269449,0,1.64061E-18,0.002098571
3961,2023-01-20 11:08:52.922881,167197191,-0.3947288,-0.3947288,0.03043193,0.03043193,0.03043193,0,8.824092E-19,0.002098459
3994,2023-01-20 11:08:53.022849,167297165,-0.3908147,-0.3908147,0.03218469,0.03218469,0.03218469,0,4.746076E-19,0.002099001
4024,2023-01-20 11:08:53.122805,167397152,-0.3843688,-0.3843688,0.0263455,0.0263455,0.0263455,0,2.552697E-19,0.002098571
4059,2023-01-20 11:08:53.222826,167497195,-0.3795747,-0.3806013,0.0326004,0.03362705,0.02943684,-0.03270551,-0.002858074,0.0002893244
4089,2023-01-20 11:08:53.322837,167597196,-0.3781285,-0.3820952,0.02877503,0.03274174,0.02289402,-0.02886781,0.007818479,0.002362833
4124,2023-01-20 11:08:53.422863,167697223,-0.3781571,-0.38322,0.02535636,0.03041918,0.02010196,-0.02543811,-0.002990975,-0.00102422
4154,2023-01-20 11:08:53.522804,167797205,-0.3791309,-0.3848156,0.0223224,0.02800706,0.01568359,-0.02239437,-0.002110531,0.00139858
4187,2023-01-20 11:08:53.622778,167897203,-0.3803988,-0.3848876,0.01964056,0.02412932,0.008079173,-0.01970389,0.009311967,0.006045254
4217,2023-01-20 11:08:53.722800,167997193,-0.3804111,-0.3822598,0.01727536,0.01912404,-0.003562375,-0.01733106,0.01473506,0.001645994
4252,2023-01-20 11:08:53.822829,168097201,-0.3796882,-0.3810044,0.01519212,0.01650831,0.004256657,-0.01524111,0.06250089,0.03004759
4285,2023-01-20 11:08:53.922947,168197335,-0.3792292,-0.3813277,0.01335865,0.01545712,-0.02865731,-0.01340172,0.139005,0.055286
4318,2023-01-20 11:08:54.022913,168297317,-0.3800896,-0.3843729,0.01174572,0.01602898,-0.05034421,-0.0117836,0.2284631,0.1386179
4349,2023-01-20 11:08:54.122792,168397209,-0.379198,-0.3883818,0.01032717,0.01951098,-0.0697483,-0.01036046,0.2939847,0.1992209
4384,2023-01-20 11:08:54.222772,168497193,-0.3782305,-0.3970772,0.009079736,0.02792651,-0.0882388,-0.009109012,0.3206033,0.2653773
4414,2023-01-20 11:08:54.322846,168597243,-0.3773798,-0.4129278,0.007982876,0.04353086,-0.1320566,-0.008008614,0.4998077,0.3455167
4449,2023-01-20 11:08:54.422843,168697229,-0.376632,-0.4278265,0.007018457,0.05821288,-0.1282768,-0.007041086,0.5955754,0.4538347
4479,2023-01-20 11:08:54.522798,168797222,-0.3759745,-0.4397029,0.00617052,0.06989889,-0.1857829,-0.006190414,0.7432205,0.5553371
4512,2023-01-20 11:08:54.622794,168897243,-0.3753964,-0.4550921,0.005425008,0.08512066,-0.1973023,-0.005442499,0.8897573,0.6909592
4542,2023-01-20 11:08:54.722765,168997198,-0.3748881,-0.4709502,0.004769558,0.1008316,-0.2029621,-0.004784936,0.9160562,0.8007274
4577,2023-01-20 11:08:54.822787,169097204,-0.3744411,-0.4899185,0.004193294,0.1196707,-0.2453228,-0.004206814,1.005762,0.8750589
4609,2023-01-20 11:08:54.922935,169197342,-0.3740483,-0.511159,0.003686651,0.1407974,-0.2112942,-0.003698538,0.9204774,0.9232608
4642,2023-01-20 11:08:55.022816,169297212,-0.3737029,-0.5295429,0.003241222,0.1590811,-0.1793479,-0.003251673,0.873602,0.9411047
4672,2023-01-20 11:08:55.122826,169397212,-0.3733993,-0.5416347,0.002849617,0.171085,-0.1423539,-0.002858804,0.8104793,0.9167556
4707,2023-01-20 11:08:55.222822,169497201,-0.3731324,-0.5504056,0.002505324,0.1797785,-0.1091398,-0.002513402,0.7291966,0.8805584
4737,2023-01-20 11:08:55.322812,169597197,-0.3728977,-0.5532875,0.002202629,0.1825924,-0.06018198,-0.002209731,0.6188411,0.805169
4772,2023-01-20 11:08:55.422844,169697239,-0.3726914,-0.5539885,0.001936504,0.1832337,0.03147501,-0.001942748,0.4098623,0.6746148
4804,2023-01-20 11:08:55.522788,169797211,-0.37251,-0.5551152,0.001702528,0.1843077,0.06089152,-0.001708017,0.3811986,0.5494406
4837,2023-01-20 11:08:55.622772,169897210,-0.3723505,-0.5492844,0.001496814,0.1784307,0.1171815,-0.00150164,0.2769457,0.4295499
4867,2023-01-20 11:08:55.722907,169997315,-0.3722103,-0.5372854,0.001315948,0.1663911,0.130151,-0.00132019,0.2526428,0.3334653
4902,2023-01-20 11:08:55.822806,170097193,-0.3720869,-0.522117,0.001156929,0.1511869,0.1644446,-0.001160659,0.2487676,0.2746363
4934,2023-01-20 11:08:55.922866,170197256,-0.3719785,-0.5032486,0.001017118,0.1322871,0.13638,-0.001020398,0.2445141,0.2347469
4967,2023-01-20 11:08:56.022836,170297227,-0.3718832,-0.4857635,0.0008941956,0.1147745,0.1477774,-0.0008970787,0.2245636,0.2018026
4997,2023-01-20 11:08:56.122808,170397192,-0.3717994,-0.4710432,0.0007861201,0.10003,0.1319781,-0.0007886547,0.2601779,0.1877186
5032,2023-01-20 11:08:56.222824,170497203,-0.3717258,-0.4562542,0.0006910989,0.08521956,0.1395405,-0.0006933272,0.2486071,0.1947205
5062,2023-01-20 11:08:56.322842,170597223,-0.371661,-0.4396457,0.0006075614,0.06859222,0.1269933,-0.0006095203,0.177295,0.1859457
5097,2023-01-20 11:08:56.422848,170697238,-0.3716041,-0.4225359,0.0005341214,0.05146594,0.1327998,-0.0005358435,0.06626778,0.155616
5127,2023-01-20 11:08:56.522905,170797327,-0.371554,-0.4012672,0.0004695599,0.0301827,0.1674572,-0.0004710739,-0.08557893,0.07275585
5160,2023-01-20 11:08:56.622785,170897224,-0.3715101,-0.3755088,0.0004128033,0.004411521,0.2049211,-0.0004141342,-0.2811497,-0.05208116
5190,2023-01-20 11:08:56.722814,170997219,-0.3714714,-0.3411694,0.0003629062,-0.0299391,0.2081798,-0.0003640763,-0.4296259,-0.1976398
5225,2023-01-20 11:08:56.822849,171097230,-0.3714375,-0.3082473,0.0003190377,-0.06287108,0.2396248,-0.0003200663,-0.5059481,-0.3369513
5257,2023-01-20 11:08:56.922877,171197266,-0.3714075,-0.277009,0.0002804683,-0.09411813,0.2394861,-0.0002813726,-0.5621461,-0.4332766
5290,2023-01-20 11:08:57.022816,171297209,-0.3713813,-0.2493211,0.0002465571,-0.1218136,0.2051698,-0.0002473521,-0.5686755,-0.5104424
5321,2023-01-20 11:08:57.122812,171397197,-0.3713582,-0.2256548,0.0002167418,-0.1454867,0.2338158,-0.0002174406,-0.6555631,-0.5648932
5356,2023-01-20 11:08:57.222820,171497198,-0.3713378,-0.1987949,0.0001905288,-0.1723524,0.2199477,-0.0001911431,-0.7195286,-0.6199339
5386,2023-01-20 11:08:57.322866,171597243,-0.3713201,-0.1639366,0.0001674832,-0.207216,0.2109432,-0.0001680233,-0.803638,-0.6919115
5421,2023-01-20 11:08:57.422846,171697229,-0.3713044,-0.130904,0.0001472224,-0.2402532,0.1914594,-0.000147697,-0.7761675,-0.7341431
5451,2023-01-20 11:08:57.522780,171797199,-0.3712905,-0.094455,0.0001294097,-0.2767061,0.1258444,-0.000129827,-0.7714019,-0.7604755
5484,2023-01-20 11:08:57.622769,171897209,-0.3712784,-0.06718153,0.0001137506,-0.3039831,0.08564736,-0.0001141173,-0.7622648,-0.757161
5514,2023-01-20 11:08:57.722801,171997208,-0.3712634,-0.04572034,0.0002571447,-0.325286,0.05642105,0.01046903,-0.766381,-0.7493379
5549,2023-01-20 11:08:57.822866,172097248,-0.3712142,-0.03004545,0.0007356529,-0.3404332,0.01712556,0.006365617,-0.8150752,-0.7530432
5581,2023-01-20 11:08:57.922862,172197249,-0.3711125,-0.01574679,0.001347645,-0.354018,0.02950116,0.02628094,-0.9179407,-0.8067853
5616,2023-01-20 11:08:58.022843,172297233,-0.3709513,-0.0002202112,0.001388944,-0.3693421,0.05184949,-0.01901134,-1.007136,-0.8588374
5646,2023-01-20 11:08:58.122849,172397236,-0.3708679,0.02139359,0.0003052009,-0.3919562,-0.02140697,-0.01527719,-0.8668273,-0.9049037
5681,2023-01-20 11:08:58.223112,172497497,-0.3708779,0.03378421,-0.0003652236,-0.4050273,-0.05519005,-0.003358454,-0.7180727,-0.8367345
5711,2023-01-20 11:08:58.322845,172597230,-0.3708999,0.04296125,0.000190957,-0.4136702,-0.1502938,0.01814291,-0.6219015,-0.7627779
5746,2023-01-20 11:08:58.422855,172697249,-0.3707614,0.04352538,0.002961458,-0.4113253,-0.1937898,0.04299184,-0.5163789,-0.6696383
5776,2023-01-20 11:08:58.522795,172797224,-0.3701901,0.0406625,0.008909998,-0.4019426,-0.2003812,0.08311462,-0.4264963,-0.5602067
5809,2023-01-20 11:08:58.622787,172897235,-0.3688325,0.03013009,0.0185788,-0.3803838,-0.248024,0.1134756,-0.2745593,-0.4400806
5839,2023-01-20 11:08:58.722806,172997217,-0.3663706,0.01463661,0.03057729,-0.35043,-0.2716326,0.127488,-0.1633062,-0.3109038
5874,2023-01-20 11:08:58.822833,173097220,-0.3626763,-0.0063494,0.04288939,-0.3134375,-0.3021005,0.1195948,-0.05928839,-0.2157038
5906,2023-01-20 11:08:58.922919,173197322,-0.3577923,-0.03402092,0.05471979,-0.2690516,-0.3143896,0.2142791,0.1831939,-0.07679752
5940,2023-01-20 11:08:59.020756,173297249,-0.3515827,-0.0704993,0.07000576,-0.2110777,-0.3437367,0.2748811,0.478087,0.1145018
5971,2023-01-20 11:08:59.111712,173397315,-0.3436581,-0.1258368,0.08820344,-0.1296178,-0.3451138,0.3559729,0.936194,0.416244
6006,2023-01-20 11:08:59.203049,173497493,-0.333671,-0.1808806,0.1122323,-0.04055811,-0.3626472,0.3641659,1.120799,0.7715834
6036,2023-01-20 11:08:59.302774,173597215,-0.3210534,-0.2459558,0.1394901,0.06439257,-0.355516,0.3456018,1.304283,0.9895432
6071,2023-01-20 11:08:59.403228,173697343,-0.3056634,-0.3021742,0.1680385,0.1645493,-0.3034455,0.3801688,1.358286,1.148576
6100,2023-01-20 11:08:59.514197,173797210,-0.2873097,-0.3652444,0.1986157,0.2765504,-0.251658,0.4155092,1.567085,1.290374
6133,2023-01-20 11:08:59.620722,173897223,-0.2657704,-0.4180667,0.2321479,0.3844442,-0.2212608,0.519083,1.771304,1.45552
6163,2023-01-20 11:08:59.711605,173997200,-0.2405856,-0.4643683,0.2717187,0.4955014,-0.1345752,0.6166713,1.919165,1.642048
6199,2023-01-20 11:08:59.802781,174097222,-0.2110999,-0.4935718,0.3177178,0.6001897,0.0005648304,0.6282513,1.803473,1.743315
6231,2023-01-20 11:08:59.902772,174197243,-0.1768016,-0.516551,0.3674051,0.7071545,0.117401,0.6428076,1.841837,1.785869
6264,2023-01-20 11:09:00.002723,174297225,-0.1374722,-0.5209611,0.4175864,0.8010753,0.2159773,0.4845672,1.668049,1.767492
6294,2023-01-20 11:09:00.102737,174397313,-0.09339538,-0.5395508,0.461119,0.9072744,0.3121842,0.3201743,1.702721,1.744285
6329,2023-01-20 11:09:00.202853,174497499,-0.04558967,-0.538524,0.4920288,0.9849631,0.3961768,0.1666097,1.530424,1.692071
6359,2023-01-20 11:09:00.302605,174597199,0.004578653,-0.5499882,0.5084252,1.062992,0.4727545,0,1.542725,1.641187
6394,2023-01-20 11:09:00.402705,174697250,0.05563626,-0.5415635,0.5107648,1.107965,0.5224306,0,1.432931,1.578999
6426,2023-01-20 11:09:00.502595,174797195,0.1064556,-0.562319,0.5048245,1.173599,0.566024,0,1.693547,1.611126
6459,2023-01-20 11:09:00.602565,174897217,0.1564496,-0.5608844,0.4948661,1.2122,0.6044222,0,1.592228,1.661068
6489,2023-01-20 11:09:00.702605,174997225,0.2053422,-0.5653866,0.4830892,1.253818,0.673638,0,1.642965,1.695608
6525,2023-01-20 11:09:00.802638,175097227,0.2530133,-0.5464314,0.4705817,1.270026,0.7273412,0,1.460244,1.679903
6557,2023-01-20 11:09:00.902754,175197367,0.2993677,-0.5247521,0.4545822,1.278702,0.7748222,-0.7248196,0.7507861,1.502535
6590,2023-01-20 11:09:01.002593,175297227,0.3426125,-0.4853463,0.4049732,1.232932,0.7700665,-1.085765,0.2600014,1.081944
6620,2023-01-20 11:09:01.102670,175397229,0.3791254,-0.4591111,0.3229005,1.161137,0.7465246,-1.37642,-0.01907578,0.7477156
6655,2023-01-20 11:09:01.203049,175497536,0.4060504,-0.4240142,0.2148201,1.044885,0.697172,-1.278777,-0.007576828,0.4824746
6685,2023-01-20 11:09:01.302653,175597208,0.4214622,-0.3909864,0.09548269,0.9079313,0.5920128,-1.364196,-0.1338627,0.3374408
6720,2023-01-20 11:09:01.402630,175697252,0.42461,-0.358214,-0.03045509,0.752369,0.4709792,-1.384972,-0.2003957,0.1725564
6750,2023-01-20 11:09:01.502550,175797199,0.4149965,-0.3231117,-0.1581858,0.5799224,0.3871171,-1.369251,-0.4029897,0.0486651
6783,2023-01-20 11:09:01.602632,175897307,0.3926494,-0.2949805,-0.2862696,0.4013604,0.2531747,-1.548424,-0.6692187,-0.172544
6814,2023-01-20 11:09:01.702564,175997233,0.3572448,-0.2720383,-0.4181114,0.2111716,0.1374718,-1.159343,-0.4530154,-0.3321902
6849,2023-01-20 11:09:01.802546,176097210,0.3093188,-0.2587584,-0.5325378,0.03553928,0.02788012,-0.5734409,0.03931583,-0.2392187
6881,2023-01-20 11:09:01.902648,176197308,0.2517563,-0.2433339,-0.609767,-0.1146768,-0.05924474,-0.2069027,0.3015448,0.01581782
6914,2023-01-20 11:09:02.002567,176297223,0.1885264,-0.2379477,-0.647943,-0.2214689,-0.1361549,0,0.4885774,0.2449332
6944,2023-01-20 11:09:02.102596,176397240,0.122926,-0.2294304,-0.6622152,-0.3098589,-0.1477821,-0.2379805,0.1296784,0.2609585
6979,2023-01-20 11:09:02.202934,176497566,0.05637233,-0.2274941,-0.666325,-0.3824585,-0.1659269,0,0.1816983,0.2728856
7009,2023-01-20 11:09:02.302583,176597211,-0.009963884,-0.2065518,-0.6592851,-0.4626972,-0.2071798,0,0.03399381,0.2021577
7044,2023-01-20 11:09:02.402616,176697242,-0.0752784,-0.1954289,-0.6467038,-0.5265534,-0.1933581,0,-0.04586477,0.09967327
7074,2023-01-20 11:09:02.502535,176797210,-0.1391856,-0.1791212,-0.6315439,-0.5916083,-0.2155376,0,-0.1075475,0.01389112
7107,2023-01-20 11:09:02.602484,176897206,-0.2015127,-0.175718,-0.6153072,-0.6411019,-0.2885205,0,0.0003461337,-0.01140657
7137,2023-01-20 11:09:02.702542,176997219,-0.2621964,-0.1558193,-0.5987694,-0.7051465,-0.3393285,0,-0.2171408,-0.07102785
7172,2023-01-20 11:09:02.802603,177097236,-0.3212282,-0.1502914,-0.5823103,-0.7532471,-0.3741924,0,-0.1873447,-0.1460776
7204,2023-01-20 11:09:02.902738,177197376,-0.3786225,-0.1407823,-0.5659388,-0.8037789,-0.4043405,0.02253175,-0.2291532,-0.1885415
7237,2023-01-20 11:09:03.002590,177297232,-0.4343443,-0.1466839,-0.5487537,-0.836414,-0.4563519,0.03442964,-0.09008048,-0.1832537
7267,2023-01-20 11:09:03.102570,177397224,-0.4883156,-0.1326679,-0.5311414,-0.8867891,-0.4695654,0.02772511,-0.2128237,-0.1750539
7302,2023-01-20 11:09:03.202753,177497418,-0.5405479,-0.1393881,-0.5140684,-0.9152283,-0.5587355,0.02218552,-0.04888209,-0.1597042
7332,2023-01-20 11:09:03.302541,177597210,-0.5911143,-0.1433965,-0.4978166,-0.9455345,-0.6070228,0.01340468,-0.04794001,-0.1177765
7367,2023-01-20 11:09:03.402574,177697248,-0.6401039,-0.1672422,-0.4825226,-0.9553843,-0.6727021,0.007596378,0.1034835,-0.0365122
7397,2023-01-20 11:09:03.502560,177797233,-0.6876177,-0.2032002,-0.4682892,-0.9527068,-0.722882,0.002442361,0.2141146,0.06316765
7430,2023-01-20 11:09:03.602532,177897204,-0.7337552,-0.2536598,-0.4549052,-0.9350006,-0.7807864,0.0003281629,0.3597524,0.1774822
7461,2023-01-20 11:09:03.702562,177997221,-0.7785833,-0.2961642,-0.442055,-0.9244741,-0.8049195,0,0.2918647,0.2489309
7496,2023-01-20 11:09:03.802564,178097211,-0.8221493,-0.3497359,-0.4296407,-0.9020541,-0.7814026,0,0.1843566,0.2468842
7528,2023-01-20 11:09:03.902589,178197249,-0.8644927,-0.39326,-0.4175848,-0.8888175,-0.7556856,0,0.07630504,0.1939832
7561,2023-01-20 11:09:04.002553,178297225,-0.9056476,-0.4425645,-0.405855,-0.868938,-0.708643,0,-0.02984013,0.1145093
7592,2023-01-20 11:09:04.102532,178397213,-0.9456456,-0.4860811,-0.3944438,-0.8540083,-0.7038859,0,-0.03891485,0.05221017
7627,2023-01-20 11:09:04.202749,178497437,-0.9845183,-0.5354136,-0.3833427,-0.8324475,-0.6895514,0,-0.004274711,0.02699198
7657,2023-01-20 11:09:04.302545,178597210,-1.022297,-0.5840272,-0.3725477,-0.8108174,-0.7021672,0,0.1371233,0.0557722
7692,2023-01-20 11:09:04.402605,178697247,-1.059011,-0.6391743,-0.362054,-0.781891,-0.6808281,0,0.1928771,0.1107293
7722,2023-01-20 11:09:04.502587,178797245,-1.094692,-0.6871469,-0.3518559,-0.7594006,-0.6523872,0,0.1403736,0.1439664
7755,2023-01-20 11:09:04.602541,178897215,-1.129367,-0.7397996,-0.3419459,-0.7315133,-0.6768805,0,0.2213888,0.1641397
7785,2023-01-20 11:09:04.702562,178997211,-1.163066,-0.7882517,-0.3322999,-0.7071138,-0.6488604,0.006060607,0.2090114,0.180884
7820,2023-01-20 11:09:04.802603,179097229,-1.195351,-0.841556,-0.3100344,-0.6638296,-0.6487117,0.2484808,0.5849043,0.29028
7852,2023-01-20 11:09:04.902587,179197250,-1.22445,-0.890429,-0.2731311,-0.6071522,-0.6417006,0.2740117,0.7292701,0.4643499
7885,2023-01-20 11:09:05.002532,179297229,-1.250037,-0.9423238,-0.2401454,-0.5478583,-0.6043056,0.2377586,0.7260249,0.5827339
7915,2023-01-20 11:09:05.102529,179397203,-1.272925,-0.9834566,-0.2219322,-0.5114006,-0.5429674,0.05204253,0.3961178,0.561998
7950,2023-01-20 11:09:05.202602,179497254,-1.294676,-1.026014,-0.2129218,-0.4815835,-0.5367447,0.07373998,0.424561,0.4908563
7980,2023-01-20 11:09:05.302582,179597219,-1.315429,-1.065073,-0.2022435,-0.4525999,-0.509204,0.06887021,0.44153,0.4573166
8016,2023-01-20 11:09:05.402688,179697313,-1.335089,-1.105803,-0.1912734,-0.4205602,-0.470174,0.0686319,0.4642114,0.4569991
8048,2023-01-20 11:09:05.502539,179797220,-1.35367,-1.140411,-0.1807298,-0.3939888,-0.4342518,0.0524689,0.3952219,0.4445133
8081,2023-01-20 11:09:05.602504,179897238,-1.371237,-1.175777,-0.1709055,-0.3663656,-0.4074782,0.05099721,0.3899121,0.4161787
8111,2023-01-20 11:09:05.702651,179997325,-1.387819,-1.208944,-0.1608328,-0.3397073,-0.3854575,0.06155626,0.4460391,0.4288945
8146,2023-01-20 11:09:05.802601,180097217,-1.403312,-1.240831,-0.1488424,-0.3113234,-0.3648161,0.09243575,0.4992524,0.4639092
8178,2023-01-20 11:09:05.902589,180197245,-1.417419,-1.272749,-0.1328501,-0.2775202,-0.3183359,0.14483,0.6108268,0.5244403
8211,2023-01-20 11:09:06.002526,180297221,-1.429652,-1.303714,-0.1114968,-0.2374344,-0.3012049,0.1801603,0.685551,0.6100055
8241,2023-01-20 11:09:06.102567,180397253,-1.439536,-1.330646,-0.08645042,-0.19534,-0.2793118,0.1892446,0.7289714,0.6855474
8276,2023-01-20 11:09:06.202561,180497238,-1.446863,-1.357514,-0.0610565,-0.1504057,-0.2534949,0.1574567,0.7676755,0.7436657
8306,2023-01-20 11:09:06.302529,180597208,-1.451679,-1.40584,-0.03518747,-0.08102655,-0.2344216,0.3225903,1.133966,0.9147828
8341,2023-01-20 11:09:06.402561,180697243,-1.453671,-1.44678,-0.00467356,-0.01156412,-0.2049503,0.3292781,1.206098,1.104466
8371,2023-01-20 11:09:06.502538,180797212,-1.452475,-1.475921,0.02854254,0.05198874,-0.1703529,0.6380504,1.510348,1.258626
8404,2023-01-20 11:09:06.602540,180897206,-1.44742,-1.497959,0.07359667,0.124135,-0.09209631,0.6760036,1.48897,1.438672
8434,2023-01-20 11:09:06.702534,180997204,-1.437305,-1.506086,0.1287234,0.1975043,-0.009331638,0.742163,1.497149,1.550436
8469,2023-01-20 11:09:06.802574,181097248,-1.421335,-1.504912,0.1897216,0.2732984,0.1245809,0.7952432,1.408919,1.564744
8501,2023-01-20 11:09:06.902668,181197329,-1.399081,-1.491692,0.2540805,0.3466913,0.232396,0.7463849,1.299781,1.554595
8534,2023-01-20 11:09:07.002569,181297218,-1.370411,-1.468671,0.3169844,0.4152447,0.3339787,0.6799595,1.206387,1.479575
8564,2023-01-20 11:09:07.102576,181397222,-1.335716,-1.438398,0.3739851,0.4766677,0.3879692,0.4392084,1.001119,1.36238
8599,2023-01-20 11:09:07.202734,181497378,-1.295959,-1.400195,0.4173788,0.5216151,0.4827191,0.2939911,0.785237,1.156651
8629,2023-01-20 11:09:07.302583,181597225,-1.252612,-1.349202,0.4472952,0.5438849,0.5300317,0.3654976,0.711938,0.9534003
8665,2023-01-20 11:09:07.402669,181697310,-1.206548,-1.292524,0.4731692,0.5591451,0.5605221,0.3562292,0.6957796,0.8277484
8695,2023-01-20 11:09:07.502668,181797321,-1.158029,-1.233068,0.4955871,0.570626,0.5542931,0.1812184,0.6857669,0.7246534
8728,2023-01-20 11:09:07.602554,181897219,-1.107706,-1.176903,0.5088737,0.5780709,0.513778,0.1042957,0.8666269,0.711931
8758,2023-01-20 11:09:07.702571,181997215,-1.056532,-1.123481,0.5132976,0.5802469,0.4846857,0.05891378,0.9445357,0.7826408
8793,2023-01-20 11:09:07.802692,182097316,-1.005236,-1.076076,0.5120419,0.5828826,0.4276166,0.06948584,1.094839,0.8908188
8825,2023-01-20 11:09:07.902620,182197256,-0.9541196,-1.034278,0.511481,0.5916398,0.4022106,0.3887282,1.391246,1.075905
8858,2023-01-20 11:09:08.002571,182297219,-0.9025199,-0.9920036,0.5225808,0.6120644,0.4169653,0.51253,1.491707,1.266814
8888,2023-01-20 11:09:08.102582,182397248,-0.8492038,-0.9530627,0.54411,0.6479689,0.4550429,0.4176018,1.408761,1.362515
8923,2023-01-20 11:09:08.202547,182497230,-0.7936184,-0.9074802,0.5666261,0.6804878,0.4939242,0.3075199,1.200116,1.322088
8953,2023-01-20 11:09:08.302556,182597216,-0.7360051,-0.8511869,0.5839729,0.6991546,0.5150846,0.2177602,1.054386,1.21313
8988,2023-01-20 11:09:08.402700,182697339,-0.676996,-0.790404,0.5952276,0.7086356,0.5660571,0.2382997,1.027198,1.120474
9018,2023-01-20 11:09:08.502540,182797210,-0.6170154,-0.7266764,0.6037374,0.7133984,0.6003773,0.1737669,0.9791709,1.068335
9051,2023-01-20 11:09:08.602513,182897213,-0.5563587,-0.6617377,0.6088488,0.7142278,0.6230942,0.2071856,1.018617,1.050458
9081,2023-01-20 11:09:08.702545,182997213,-0.4952466,-0.5966773,0.6135632,0.7149939,0.590206,0.2423833,1.120918,1.081372
9116,2023-01-20 11:09:08.802576,183097212,-0.4335919,-0.5312822,0.6198041,0.7174944,0.5971082,0.3606223,1.245732,1.125282
9150,2023-01-20 11:09:08.902675,183197324,-0.3710222,-0.4654861,0.6330758,0.7275397,0.5976902,0.5220028,1.393666,1.238467
9183,2023-01-20 11:09:09.002338,183297229,-0.30661,-0.3966886,0.6559855,0.7460641,0.6498125,0.5935982,1.414147,1.314395
9213,2023-01-20 11:09:09.093386,183397178,-0.2394836,-0.3360528,0.6869547,0.7835239,0.6807964,0.6312,1.464995,1.372392
9246,2023-01-20 11:09:09.184547,183497251,-0.1689477,-0.2678328,0.7235531,0.8224382,0.7686534,0.632971,1.385755,1.402146
9279,2023-01-20 11:09:09.282996,183597222,-0.09460179,-0.185057,0.7625902,0.8530453,0.7971708,0.6271171,1.334773,1.380317
9312,2023-01-20 11:09:09.383078,183697317,-0.01633622,-0.09607625,0.8015439,0.8812839,0.8628348,0.6079327,1.220375,1.314994
9344,2023-01-20 11:09:09.482996,183797233,0.06575112,-0.002953708,0.8388605,0.9075654,0.8912573,0.5211329,1.138446,1.264307
9375,2023-01-20 11:09:09.582985,183897218,0.1513565,0.09399581,0.871311,0.9286717,0.943314,0.4285084,1.056372,1.193579
9408,2023-01-20 11:09:09.682982,183997198,0.2398201,0.1958996,0.8959206,0.9398412,0.9691583,0.3282326,0.9572079,1.110083
9442,2023-01-20 11:09:09.783023,184097219,0.3302763,0.29754,0.9110446,0.943781,0.9787414,0.1629631,0.7874614,1.00692
9476,2023-01-20 11:09:09.883041,184197254,0.4216711,0.4038581,0.9150471,0.9328601,0.9628637,0.1400763,0.7485562,0.905925
9507,2023-01-20 11:09:09.983011,184297247,0.5130199,0.5079183,0.9110585,0.9161603,0.9507534,0.1343281,0.7250459,0.8384073
9539,2023-01-20 11:09:10.083007,184397251,0.6037447,0.6210793,0.9033111,0.8859766,0.9535865,0.1530844,0.6405749,0.7786901
9571,2023-01-20 11:09:10.182989,184497237,0.6936147,0.7309331,0.8940972,0.8567788,0.9422569,0.1405161,0.6159153,0.7205176
9604,2023-01-20 11:09:10.282971,184597220,0.7825094,0.8417274,0.8839402,0.8247222,0.9100179,0.1398176,0.6200311,0.6870521
9637,2023-01-20 11:09:10.383077,184697327,0.8703631,0.9456508,0.8734283,0.7981407,0.8811797,0.156707,0.6659776,0.6716179
9669,2023-01-20 11:09:10.482903,184797245,0.9572039,1.046127,0.8639982,0.7750754,0.8753026,0.2027826,0.7036735,0.6878006
9702,2023-01-20 11:09:10.582970,184897423,1.043243,1.14127,0.8574415,0.759414,0.8322305,0.2252946,0.7468022,0.719882
9734,2023-01-20 11:09:10.682787,184997204,1.128752,1.232803,0.8531274,0.7490764,0.7834032,0.2239026,0.8287463,0.7600761
9767,2023-01-20 11:09:10.783032,185097382,1.213907,1.320026,0.8502687,0.7441491,0.7664829,0.2342036,0.9190257,0.8200734
9801,2023-01-20 11:09:10.883006,185197364,1.29883,1.402169,0.8483471,0.7450082,0.7651081,0.2275971,0.9514894,0.8800828
9832,2023-01-20 11:09:10.983016,185297396,1.383582,1.480393,0.8467014,0.7498899,0.7754481,0.2206198,0.9240379,0.9161273
9865,2023-01-20 11:09:11.082831,185397221,1.468153,1.562483,0.8446855,0.7503555,0.7304911,0.2202355,0.9113983,0.9193749
9897,2023-01-20 11:09:11.183015,185497413,1.552511,1.643398,0.8425349,0.7516477,0.7485406,0.2143647,0.8679835,0.898479
9930,2023-01-20 11:09:11.282804,185597214,1.636657,1.730382,0.8404789,0.7467538,0.7657992,0.2258921,0.8344882,0.8706298
9963,2023-01-20 11:09:11.383026,185697451,1.720606,1.81595,0.8385305,0.7431867,0.7506486,0.2251001,0.8263818,0.8487386
9994,2023-01-20 11:09:11.482781,185797205,1.804358,1.90686,0.8365694,0.7340668,0.773114,0.2236937,0.7434493,0.8054377
10025,2023-01-20 11:09:11.582968,185897388,1.887938,1.995001,0.8353073,0.7282441,0.7691415,0.2454666,0.7256658,0.7656299
10057,2023-01-20 11:09:11.682842,185997245,1.971458,2.08494,0.8353086,0.7218266,0.7562516,0.2641576,0.7084379,0.7279704
10090,2023-01-20 11:09:11.782985,186097368,2.055036,2.173199,0.8363406,0.7181784,0.8053682,0.2479606,0.6764988,0.6997373
10124,2023-01-20 11:09:11.882876,186197260,2.138731,2.25603,0.8375013,0.7202027,0.788428,0.2549262,0.7280392,0.6936482
10155,2023-01-20 11:09:11.982985,186297374,2.222542,2.338171,0.8385918,0.7229628,0.7955775,0.2386319,0.7325679,0.705088
10187,2023-01-20 11:09:12.082791,186397206,2.306428,2.418906,0.8389879,0.72651,0.8074581,0.2214805,0.7022282,0.7183106
10219,2023-01-20 11:09:12.183010,186497455,2.390309,2.498151,0.8385594,0.7307183,0.8172723,0.2285831,0.6928601,0.7234082
10252,2023-01-20 11:09:12.282771,186597194,2.474112,2.574512,0.8373003,0.7369009,0.7912149,0.2056148,0.7263297,0.7158105
10286,2023-01-20 11:09:12.383043,186697432,2.557706,2.650593,0.8342231,0.741336,0.8020026,0.1530996,0.6767859,0.7127169
10318,2023-01-20 11:09:12.482927,186797330,2.640865,2.719261,0.8287988,0.7504028,0.7680581,0.141823,0.747636,0.7201409
10349,2023-01-20 11:09:12.582944,186897371,2.723375,2.789455,0.8211352,0.7550551,0.7763745,0.09506475,0.7026351,0.7244807
10381,2023-01-20 11:09:12.682809,186997214,2.804977,2.855339,0.8107384,0.7603762,0.7378901,0.0592907,0.7232255,0.7248083
10414,2023-01-20 11:09:12.782989,187097363,2.88537,2.92175,0.7966296,0.7602493,0.7693703,0,0.6095523,0.695305
10448,2023-01-20 11:09:12.882882,187197256,2.964135,2.987726,0.7786989,0.7551079,0.7640448,0,0.5640485,0.6461236
10479,2023-01-20 11:09:12.982832,187297213,3.041008,3.056208,0.7590647,0.7438639,0.7450976,0,0.505282,0.5960593
10511,2023-01-20 11:09:13.082822,187397210,3.11588,3.123903,0.7388595,0.7308371,0.7573096,0,0.4708377,0.5424959
10543,2023-01-20 11:09:13.182852,187497247,3.188729,3.195156,0.7186493,0.7122226,0.7365035,0,0.423345,0.4861611
10576,2023-01-20 11:09:13.282808,187597194,3.259569,3.272453,0.6987155,0.6858316,0.7720146,0,0.2935414,0.4254374
10609,2023-01-20 11:09:13.382971,187697345,3.328437,3.34926,0.6791931,0.6583707,0.7490039,0,0.3191992,0.3694337
10641,2023-01-20 11:09:13.482808,187797204,3.395376,3.42885,0.660145,0.6266712,0.7275942,0,0.2771484,0.3229609
10672,2023-01-20 11:09:13.582777,187897202,3.460435,3.506037,0.6415949,0.5959937,0.6948341,0,0.3038965,0.2990173
10704,2023-01-20 11:09:13.682839,187997249,3.523666,3.574559,0.6235474,0.5726539,0.6871189,0,0.3263029,0.3034692
10737,2023-01-20 11:09:13.782815,188097201,3.584845,3.640269,0.5947605,0.539336,0.6345661,-0.3230655,0.04489986,0.2685058
10771,2023-01-20 11:09:13.882939,188197317,3.641093,3.699366,0.5288652,0.4705916,0.5610183,-0.5305704,-0.2077495,0.04492676
10802,2023-01-20 11:09:13.982843,188297217,3.690636,3.751494,0.4649721,0.4041136,0.5022086,-0.4664713,-0.1105516,-0.06511999
10834,2023-01-20 11:09:14.082823,188397205,3.734194,3.794034,0.4087971,0.3489564,0.3727803,-0.4101152,0.1555257,-0.03471041
10866,2023-01-20 11:09:14.182938,188497330,3.772489,3.828156,0.3594082,0.3037408,0.3312336,-0.360567,0.2750002,0.09248442
10900,2023-01-20 11:09:14.282835,188597221,3.806159,3.845572,0.3159857,0.276572,0.2373812,-0.3170046,0.5313466,0.2544697
10934,2023-01-20 11:09:14.382866,188697243,3.83576,3.857151,0.2778095,0.2564182,0.131409,-0.2787052,0.7028807,0.4246498
10966,2023-01-20 11:09:14.482802,188797202,3.861785,3.869307,0.2442455,0.2367242,0.09171052,-0.2450331,0.6961234,0.5515926
10997,2023-01-20 11:09:14.582782,188897211,3.884665,3.877893,0.2147366,0.2215088,0.04937229,-0.215429,0.7462409,0.6238381
11029,2023-01-20 11:09:14.682833,188997242,3.904782,3.882117,0.1887929,0.2114577,0.02425727,-0.1894016,0.7970074,0.6848143
11062,2023-01-20 11:09:14.782817,189097195,3.922468,3.884201,0.1659836,0.2042512,0.01469148,-0.1665188,0.809798,0.7375273
11096,2023-01-20 11:09:14.882916,189197306,3.938018,3.884099,0.1459302,0.1998492,0.01077531,-0.1464007,0.8478742,0.7705649
11127,2023-01-20 11:09:14.982840,189297250,3.951689,3.884336,0.1282994,0.1956523,-0.005939157,-0.128713,0.8406078,0.7806917
11159,2023-01-20 11:09:15.082793,189397198,3.963707,3.882262,0.1127987,0.1942437,-0.008250262,-0.1131624,0.8900685,0.814364
11191,2023-01-20 11:09:15.182833,189497228,3.974273,3.88039,0.09917078,0.1930541,0.01680753,-0.09949052,0.9119436,0.8527777
11224,2023-01-20 11:09:15.282817,189597195,3.983564,3.877943,0.08718927,0.1928103,-0.01445925,-0.0874704,0.9351344,0.8625209
11260,2023-01-20 11:09:15.382862,189697221,3.897254,3.876734,6.316093E-05,0.02058349,0.01752151,0.003229907,0.9324638,0.896638
11292,2023-01-20 11:09:15.482826,189797221,3.897309,3.876717,0.001537633,0.02212937,0.01629763,0.03303029,0.8995736,0.8768102
11325,2023-01-20 11:09:15.582790,189897232,3.897702,3.878991,0.007616706,0.02632764,0.04824848,0.09692025,0.91215,0.8676631
11357,2023-01-20 11:09:15.682768,189997181,3.898994,3.881355,0.02053028,0.03816974,0.07716279,0.1724371,0.9851283,0.8960953
11390,2023-01-20 11:09:15.782814,190097183,3.901846,3.886089,0.04053441,0.05629124,0.1121974,0.2475696,1.062246,0.9533414
11424,2023-01-20 11:09:15.882852,190197213,3.906918,3.893252,0.06757467,0.08124106,0.1065355,0.3224068,1.203016,1.044689
11455,2023-01-20 11:09:15.982847,190297208,3.914862,3.902566,0.1015923,0.1138884,0.1214483,0.3969991,1.338187,1.154431
11487,2023-01-20 11:09:16.082829,190397193,3.926336,3.913184,0.1425967,0.1557479,0.1688665,0.4714784,1.402211,1.261904
11519,2023-01-20 11:09:16.182878,190497245,3.942027,3.927588,0.1906716,0.20511,0.2038944,0.5460119,1.500266,1.363123
11552,2023-01-20 11:09:16.282812,190597179,3.962632,3.942238,0.2458864,0.2662804,0.2251791,0.6206685,1.652165,1.471314
11585,2023-01-20 11:09:16.382872,190697237,3.988847,3.962711,0.3082809,0.334417,0.2936439,0.6954535,1.685819,1.578987
11617,2023-01-20 11:09:16.482824,190797203,4.021384,3.98592,0.3779059,0.4133703,0.3673797,0.7703815,1.770663,1.701504
11648,2023-01-20 11:09:16.582777,190897174,4.06096,4.018489,0.45481,0.4972804,0.4381702,0.8454598,1.830191,1.85552
11680,2023-01-20 11:09:16.682817,190997205,4.108297,4.050235,0.5390334,0.5970955,0.5422958,0.9206861,2.016073,1.984762
11713,2023-01-20 11:09:16.782799,191097173,4.164123,4.094594,0.6306119,0.7001404,0.6374344,0.9960554,2.101503,2.132587
11747,2023-01-20 11:09:16.882951,191197318,4.229169,4.140676,0.7295764,0.8180695,0.7016845,1.07156,2.438071,2.283712
11778,2023-01-20 11:09:16.982844,191297206,4.30416,4.198146,0.8359398,0.9419535,0.7693937,1.147182,2.713464,2.494869
11810,2023-01-20 11:09:17.082811,191397175,4.389769,4.248464,0.9496478,1.090953,0.8275325,1.222865,3.093331,2.753196
11842,2023-01-20 11:09:17.182836,191497203,4.4866,4.313339,1.070572,1.243833,0.9052999,1.29852,3.347163,3.022557
11875,2023-01-20 11:09:17.282819,191597181,4.595214,4.375421,1.198566,1.418359,0.968759,1.374068,3.636805,3.265727
11908,2023-01-20 11:09:17.382857,191697213,4.716183,4.460783,1.333522,1.588922,1.110704,1.449466,3.700873,3.442594
11940,2023-01-20 11:09:17.482866,191797249,4.850111,4.546878,1.47539,1.778623,1.247796,1.524712,3.909244,3.583687
11971,2023-01-20 11:09:17.582813,191897229,4.997624,4.659507,1.62415,1.962267,1.405932,1.599816,4.041248,3.730228
12003,2023-01-20 11:09:17.682785,191997179,5.1593,4.769099,1.779739,2.16994,1.55533,1.674769,4.372618,3.916419
12036,2023-01-20 11:09:17.782818,192097179,5.335653,4.909056,1.942048,2.368645,1.724298,1.74954,4.47973,4.086697
12070,2023-01-20 11:09:17.882850,192197208,5.527194,5.045571,2.110984,2.592607,1.879359,1.824112,4.862746,4.195424
12101,2023-01-20 11:09:17.982847,192297209,5.734408,5.214365,2.286435,2.806478,2.038729,1.897768,5.111444,4.337835
12134,2023-01-20 11:09:18.082821,192397200,5.95777,5.383605,2.467705,3.04187,2.190095,1.954816,5.479095,4.515874
12166,2023-01-20 11:09:18.182925,192497324,6.197648,5.580194,2.652251,3.269705,2.393216,1.978395,5.45354,4.748595
12199,2023-01-20 11:09:18.275357,192597184,6.454195,5.788035,2.837322,3.503482,2.568121,1.980295,5.546265,4.92113
12232,2023-01-20 11:09:18.366433,192697234,6.72749,6.026676,3.021713,3.722527,2.786763,1.968791,5.514719,5.096126
12264,2023-01-20 11:09:18.463067,192797220,7.017438,6.271642,3.20336,3.949156,3.012621,1.925775,5.523906,5.187021
12295,2023-01-20 11:09:18.562958,192897182,7.323688,6.533881,3.379419,4.169225,3.217933,1.856851,5.42063,5.312189
12328,2023-01-20 11:09:18.662935,192997185,7.645704,6.81026,3.548598,4.384042,3.44201,1.783541,5.415545,5.307945
12361,2023-01-20 11:09:18.762983,193097232,7.982928,7.101412,3.710871,4.592387,3.685788,1.710274,5.30334,5.366015
12395,2023-01-20 11:09:18.863046,193197330,8.33481,7.415212,3.866296,4.785894,3.90061,1.637027,5.296703,5.326479
12426,2023-01-20 11:09:18.962871,193297210,8.700845,7.748525,4.014931,4.96725,4.099531,1.563773,5.24428,5.342227
12458,2023-01-20 11:09:19.062825,193397171,9.080521,8.095257,4.156819,5.142084,4.307525,1.49049,5.180976,5.288436
12490,2023-01-20 11:09:19.162882,193497204,9.473401,8.466146,4.292009,5.299264,4.492399,1.417146,5.131132,5.256533
12523,2023-01-20 11:09:19.262924,193597177,9.879026,8.852104,4.420528,5.447451,4.681341,1.343713,5.030171,5.170764
12558,2023-01-20 11:09:19.363089,193697244,10.29696,9.253667,4.542396,5.585687,4.907529,1.270166,4.688604,5.026652
12590,2023-01-20 11:09:19.463041,193797256,10.7268,9.685033,4.657627,5.699394,5.124565,1.196473,4.393901,4.767261
12621,2023-01-20 11:09:19.562846,193897214,11.16816,10.14099,4.766226,5.793394,5.305242,1.122601,4.165539,4.53839
12654,2023-01-20 11:09:19.662766,193997169,11.62056,10.61884,4.868165,5.869889,5.448596,1.048536,4.015924,4.281039
12688,2023-01-20 11:09:19.762810,194097179,12.0834,11.12343,4.963381,5.923354,5.58208,0.9742824,3.995367,4.143806
12722,2023-01-20 11:09:19.862842,194197205,12.55603,11.65676,5.051814,5.951085,5.673839,0.8998476,3.759129,4.003243
12753,2023-01-20 11:09:19.962838,194297211,13.03782,12.20635,5.133404,5.964871,5.767141,0.8252382,3.555589,3.806349
12786,2023-01-20 11:09:20.062847,194397216,13.52808,12.77432,5.208096,5.961862,5.831035,0.7504619,3.360847,3.620633
12818,2023-01-20 11:09:20.162901,194497258,14.02617,13.35123,5.275836,5.950776,5.88003,0.6755254,3.278721,3.452291
12850,2023-01-20 11:09:20.262820,194597179,14.5314,13.93612,5.336575,5.931852,5.918257,0.6004331,3.152447,3.318147
12884,2023-01-20 11:09:20.362840,194697209,15.04309,14.53448,5.390264,5.898877,5.900175,0.5251927,3.013288,3.211469
12916,2023-01-20 11:09:20.462811,194797198,15.56054,15.14142,5.436855,5.855973,5.942762,0.4498105,2.659557,3.011104
12949,2023-01-20 11:09:20.562775,194897185,16.08305,15.747,5.476308,5.812363,5.923411,0.374291,2.592912,2.815482
12982,2023-01-20 11:09:20.662786,194997191,16.60991,16.36551,5.50858,5.752975,5.944598,0.2986399,2.40456,2.67806
13015,2023-01-20 11:09:20.762838,195097221,17.1404,16.98606,5.533631,5.687975,5.92183,0.2228623,2.221405,2.499082
13049,2023-01-20 11:09:20.862845,195197222,17.67381,17.61087,5.551425,5.614363,5.892734,0.1469637,1.987981,2.31205
13080,2023-01-20 11:09:20.962840,195297219,18.2094,18.24507,5.561949,5.526282,5.870114,0.0724778,1.736202,2.085509
13113,2023-01-20 11:09:21.062798,195397177,18.74647,18.87663,5.56609,5.435929,5.809514,0.01899478,1.582392,1.880237
13144,2023-01-20 11:09:21.162844,195497221,19.28451,19.49633,5.56679,5.35497,5.773283,0.0007289589,1.554254,1.715776
13178,2023-01-20 11:09:21.262826,195597202,19.82329,20.12251,5.566798,5.267584,5.686162,0,1.450563,1.639537
13212,2023-01-20 11:09:21.362835,195697211,20.36278,20.74595,5.566798,5.183623,5.626518,0,1.379454,1.510786
13244,2023-01-20 11:09:21.462915,195797320,20.90294,21.36057,5.566798,5.109169,5.547884,0,1.386369,1.462304
13275,2023-01-20 11:09:21.562782,195897233,21.44375,21.9598,5.566798,5.050753,5.504752,0,1.407313,1.436139
13308,2023-01-20 11:09:21.662741,195997177,21.9852,22.55464,5.566798,4.997357,5.434527,0,1.430815,1.449681
13341,2023-01-20 11:09:21.762788,196097174,22.52723,23.13826,5.566798,4.95577,5.35625,0,1.553402,1.465138
13375,2023-01-20 11:09:21.862846,196197215,23.06984,23.70476,5.566798,4.931871,5.336899,0,1.564464,1.530594
13406,2023-01-20 11:09:21.962829,196297202,23.613,24.26582,5.566798,4.913976,5.255407,0,1.652105,1.570498
13439,2023-01-20 11:09:22.062847,196397234,24.15669,24.83099,5.566798,4.892496,5.226465,0,1.586461,1.622377
13470,2023-01-20 11:09:22.162803,196497211,24.70089,25.39179,5.566798,4.875899,5.198314,0,1.565943,1.596331
13504,2023-01-20 11:09:22.262764,196597168,25.24558,25.94613,5.566798,4.866251,5.143998,0,1.607782,1.584751
13538,2023-01-20 11:09:22.362820,196697204,25.79073,26.49025,5.566798,4.867284,5.105622,0,1.708918,1.593734
13570,2023-01-20 11:09:22.462813,196797205,26.33635,27.02918,5.566798,4.873966,5.107462,0,1.678054,1.641849
13601,2023-01-20 11:09:22.562792,196897209,26.88239,27.57219,5.566798,4.876998,5.090024,0,1.645945,1.6193
13634,2023-01-20 11:09:22.662758,196997169,27.42885,28.1178,5.566798,4.877852,5.079675,0,1.60043,1.610979
13667,2023-01-20 11:09:22.762844,197097231,27.97572,28.6576,5.566798,4.884908,5.065637,0,1.664829,1.602728
13701,2023-01-20 11:09:22.862832,197197208,28.52296,29.20131,5.566798,4.888448,5.035966,0,1.69108,1.61927
13732,2023-01-20 11:09:22.962818,197297191,29.07058,29.74268,5.566798,4.894703,5.051896,0,1.655098,1.607208
13765,2023-01-20 11:09:23.062836,197397206,29.61855,30.27508,5.566798,4.910272,5.034458,0,1.706284,1.637808
13796,2023-01-20 11:09:23.162850,197497217,30.16687,30.80915,5.566798,4.92452,5.056991,0,1.706629,1.658592
13830,2023-01-20 11:09:23.262822,197597194,30.71552,31.33646,5.566798,4.945851,5.053915,0,1.754922,1.687463
13864,2023-01-20 11:09:23.362949,197697330,31.26447,31.85299,5.566798,4.978287,5.055817,0,1.840141,1.741343
13896,2023-01-20 11:09:23.462874,197797266,31.81373,32.37225,5.566798,5.008287,5.04459,0,1.940213,1.813975
13927,2023-01-20 11:09:23.562793,197897198,32.36329,32.88966,5.566798,5.040426,5.035975,0,1.974962,1.874418
13960,2023-01-20 11:09:23.662767,197997163,32.91314,33.40748,5.566798,5.072462,5.071096,0,1.995213,1.934067
13993,2023-01-20 11:09:23.762812,198097185,33.46325,33.93384,5.566798,5.0962,5.046297,0,2.031344,1.954994
14027,2023-01-20 11:09:23.862835,198197203,34.0136,34.46418,5.566798,5.116222,5.10671,0,1.899832,1.968208
14058,2023-01-20 11:09:23.962830,198297205,34.5642,34.99313,5.566798,5.13786,5.115271,0,1.825779,1.918732
14091,2023-01-20 11:09:24.062841,198397230,35.11503,35.52564,5.566798,5.15619,5.156612,0,1.821106,1.868919
14122,2023-01-20 11:09:24.162812,198497221,35.66611,36.05708,5.566798,5.175831,5.176998,0,1.859811,1.83985
14156,2023-01-20 11:09:24.262774,198597173,36.21741,36.58284,5.566798,5.201371,5.202988,0,1.877943,1.862183
14190,2023-01-20 11:09:24.362834,198697207,36.76891,37.11416,5.566798,5.221544,5.24605,0,1.816795,1.852897
14223,2023-01-20 11:09:24.462838,198797219,37.32061,37.65663,5.566798,5.23078,5.223342,0,1.922628,1.845623
14254,2023-01-20 11:09:24.562776,198897186,37.87252,38.19908,5.566798,5.240241,5.242868,0,1.867147,1.850177
14287,2023-01-20 11:09:24.662804,198997222,38.42463,38.73974,5.566798,5.251686,5.250779,0,1.914682,1.842823
14320,2023-01-20 11:09:24.762801,199097213,38.97691,39.27608,5.566798,5.267628,5.281499,0,1.84164,1.845371
14354,2023-01-20 11:09:24.862818,199197216,39.52935,39.81008,5.566798,5.28607,5.295577,0,1.810191,1.839453
14385,2023-01-20 11:09:24.962828,199297207,40.08195,40.35245,5.566798,5.296295,5.331181,0,1.747674,1.798301
14418,2023-01-20 11:09:25.062806,199397178,40.63471,40.90133,5.566798,5.300182,5.355877,0,1.672211,1.770931
14449,2023-01-20 11:09:25.162843,199497214,41.18766,41.44862,5.566798,5.305836,5.367534,0,1.746484,1.752006
14483,2023-01-20 11:09:25.262809,199597174,41.74072,41.99725,5.566798,5.31027,5.330641,0,1.826264,1.783715
14517,2023-01-20 11:09:25.362967,199697322,42.29391,42.54409,5.566798,5.316622,5.352289,0,1.715095,1.786004
14549,2023-01-20 11:09:25.462819,199797194,42.84729,43.08509,5.566798,5.328995,5.406466,0,1.64439,1.743814
14582,2023-01-20 11:09:25.562762,199897174,43.40075,43.63116,5.566798,5.336383,5.396729,0,1.712543,1.686647
14615,2023-01-20 11:09:25.662772,199997181,43.95436,44.18328,5.566798,5.337877,5.39856,0,1.698575,1.664525
14648,2023-01-20 11:09:25.762792,200097175,44.50809,44.73334,5.566798,5.341549,5.398287,0,1.718769,1.629358
14682,2023-01-20 11:09:25.862835,200197205,45.06191,45.28613,5.566798,5.342584,5.414137,0,1.644381,1.606181
14713,2023-01-20 11:09:25.962888,200297252,45.61588,45.8372,5.566798,5.345479,5.427249,0,1.685324,1.596243
14746,2023-01-20 11:09:26.062801,200397179,46.16992,46.38366,5.566798,5.353058,5.435064,0,1.695687,1.618332
14777,2023-01-20 11:09:26.162791,200497195,46.72411,46.93513,5.566798,5.355772,5.429226,0,1.704945,1.633837
14811,2023-01-20 11:09:26.262784,200597182,47.27835,47.47757,5.566798,5.367584,5.434093,0,1.781288,1.67275
14845,2023-01-20 11:09:26.362840,200697212,47.83271,48.00867,5.566798,5.390841,5.413201,0,1.821466,1.741215
14877,2023-01-20 11:09:26.462815,200797197,48.38718,48.54992,5.566798,5.404059,5.403734,0,1.907691,1.805822
14908,2023-01-20 11:09:26.562773,200897185,48.94166,49.09427,5.566798,5.414186,5.386832,0,1.90413,1.826618
14941,2023-01-20 11:09:26.662803,200997224,49.49633,49.63714,5.566798,5.425992,5.395323,0,1.965533,1.881679
14974,2023-01-20 11:09:26.762762,201097180,50.05101,50.18792,5.566798,5.429889,5.380602,0,1.912232,1.888315
15008,2023-01-20 11:09:26.862809,201197207,50.60578,50.73185,5.566798,5.440733,5.377013,0,1.92119,1.875096
15039,2023-01-20 11:09:26.962831,201297198,51.16067,51.26544,5.566798,5.462028,5.405582,0,2.000854,1.908224
15072,2023-01-20 11:09:27.062815,201397176,51.71556,51.808,5.566798,5.474352,5.419135,0,1.92115,1.928616
15103,2023-01-20 11:09:27.162837,201497207,52.27054,52.35445,5.566798,5.482892,5.446655,0,1.821249,1.877971
15137,2023-01-20 11:09:27.262840,201597221,52.82564,52.90069,5.566798,5.491749,5.459482,0,1.826182,1.828179
15171,2023-01-20 11:09:27.362818,201697210,53.38074,53.45484,5.566798,5.492702,5.455081,0,1.914295,1.813874
15203,2023-01-20 11:09:27.462831,201797222,53.93587,54.01051,5.566798,5.492159,5.468537,0,1.99227,1.882718
15234,2023-01-20 11:09:27.562799,201897181,54.49118,54.56135,5.566798,5.496632,5.438676,0,2.04374,1.942111
15267,2023-01-20 11:09:27.662806,201997181,55.04649,55.10966,5.566798,5.503634,5.429399,0,2.046114,2.001395
15300,2023-01-20 11:09:27.762835,202097204,55.60181,55.65385,5.566798,5.514747,5.414238,0,2.046402,2.029952
15334,2023-01-20 11:09:27.862855,202197222,56.15717,56.18969,5.566798,5.534278,5.464236,0,1.977105,2.031982
15366,2023-01-20 11:09:27.962970,202297337,56.71269,56.73018,5.566798,5.549308,5.480713,0,2.04444,2.023311
15398,2023-01-20 11:09:28.062830,202397193,57.26822,57.27241,5.566798,5.562609,5.501006,0,1.953924,2.013899
15429,2023-01-20 11:09:28.162845,202497201,57.82374,57.81186,5.566798,5.578678,5.522065,0,1.934243,1.985956
15463,2023-01-20 11:09:28.262813,202597171,58.37926,58.36336,5.566798,5.582706,5.558535,0,1.837489,1.941734
15497,2023-01-20 11:09:28.362853,202697217,58.93492,58.91991,5.566798,5.581812,5.545611,0,1.901992,1.89381
15529,2023-01-20 11:09:28.457141,202797209,59.49066,59.47466,5.566798,5.582794,5.572582,0,1.950072,1.888922
15560,2023-01-20 11:09:28.548087,202897230,60.04639,60.03558,5.566798,5.577609,5.560098,0,1.876694,1.892489
15593,2023-01-20 11:09:28.642864,202997187,60.60213,60.59264,5.566798,5.576281,5.56754,0,1.878724,1.821133
15626,2023-01-20 11:09:28.742861,203097182,61.15786,61.14202,5.566798,5.582643,5.541159,0,2.028435,1.821957
15660,2023-01-20 11:09:28.842888,203197209,61.71361,61.69437,5.566798,5.586036,5.553217,0,2.012863,1.871615
15692,2023-01-20 11:09:28.942876,203297198,62.26955,62.24571,5.566798,5.590636,5.570479,0,2.015928,1.899599
15724,2023-01-20 11:09:29.042855,203397175,62.8255,62.78981,5.566798,5.602481,5.556241,0,1.980447,1.907143
15755,2023-01-20 11:09:29.142904,203497218,63.38145,63.33959,5.566798,5.608658,5.599525,0,1.917238,1.902036
15789,2023-01-20 11:09:29.242895,203597217,63.9374,63.8926,5.566798,5.611598,5.619814,0,1.85725,1.874424
15823,2023-01-20 11:09:29.342863,203697210,64.49334,64.44327,5.566798,5.616876,5.621585,0,1.887242,1.840692
15855,2023-01-20 11:09:29.442831,203797198,65.04929,65.00288,5.566798,5.613219,5.639097,0,1.764402,1.811682
15887,2023-01-20 11:09:29.542809,203897191,65.60524,65.56597,5.566798,5.606071,5.668826,0,1.671281,1.730532
15920,2023-01-20 11:09:29.642866,203997210,66.16133,66.12524,5.566798,5.602887,5.678998,0,1.701593,1.667904
15954,2023-01-20 11:09:29.742957,204097190,66.71749,66.69145,5.566798,5.592843,5.662196,0,1.665238,1.636639
15988,2023-01-20 11:09:29.843113,204197313,67.27366,67.25614,5.566798,5.584312,5.673825,0,1.681826,1.611191
16020,2023-01-20 11:09:29.942936,204297206,67.82982,67.81404,5.566798,5.582574,5.676155,0,1.658648,1.618667
16052,2023-01-20 11:09:30.042857,204397186,68.38598,68.37191,5.566798,5.580865,5.660748,0,1.655356,1.59985
16083,2023-01-20 11:09:30.142832,204497206,68.94214,68.92612,5.566798,5.582814,5.693655,0,1.650632,1.612915
16117,2023-01-20 11:09:30.242783,204597176,69.4983,69.47491,5.566798,5.590191,5.681398,0,1.719186,1.633975
16151,2023-01-20 11:09:30.342843,204697221,70.05446,70.03087,5.566798,5.590392,5.686317,0,1.625675,1.640244
16183,2023-01-20 11:09:30.442816,204797193,70.61063,70.58693,5.566798,5.590494,5.699481,0,1.605313,1.625499
16216,2023-01-20 11:09:30.542828,204897223,71.16679,71.13815,5.566798,5.595431,5.671239,0,1.66909,1.614221
16249,2023-01-20 11:09:30.642780,204997188,71.723,71.6952,5.566798,5.594601,5.671161,0,1.6802,1.631682
16282,2023-01-20 11:09:30.742771,205097185,72.27937,72.25282,5.566798,5.593351,5.661797,0,1.688531,1.643779
16316,2023-01-20 11:09:30.842802,205197204,72.83575,72.80563,5.566798,5.596925,5.683888,0,1.660283,1.639269
16391,2023-01-20 11:09:30.942844,205297211,73.39212,73.36519,5.566798,5.593731,5.688595,0,1.608213,1.631524
16423,2023-01-20 11:09:31.042823,205397173,73.9485,73.92336,5.566798,5.591935,5.679649,0,1.617537,1.60534
16454,2023-01-20 11:09:31.142968,205497324,74.50487,74.4754,5.566798,5.596271,5.666959,0,1.645336,1.585665
16488,2023-01-20 11:09:31.242840,205597203,75.06124,75.03683,5.566798,5.591207,5.679383,0,1.565775,1.555696
16522,2023-01-20 11:09:31.342868,205697239,75.61761,75.60047,5.566798,5.583941,5.701013,0,1.521725,1.515213
16553,2023-01-20 11:09:31.443068,205797450,76.174,76.15016,5.566798,5.590631,5.647959,0,1.648923,1.492662
16584,2023-01-20 11:09:31.542787,205897186,76.73037,76.69971,5.566798,5.597452,5.666067,0,1.700278,1.539864
16617,2023-01-20 11:09:31.642773,205997173,77.28674,77.24665,5.566798,5.606891,5.648595,0,1.788807,1.584119
16650,2023-01-20 11:09:31.742795,206097174,77.84312,77.78607,5.566798,5.623844,5.63333,0,1.891661,1.685301
16684,2023-01-20 11:09:31.842886,206197253,78.39948,78.32738,5.566798,5.638903,5.611526,0,1.862699,1.746371
16716,2023-01-20 11:09:31.942844,206297208,78.95586,78.86777,5.566798,5.654899,5.650947,0,1.779273,1.770454
16748,2023-01-20 11:09:32.042811,206397173,79.51224,79.39299,5.566798,5.686046,5.626509,0,1.934717,1.762232
16779,2023-01-20 11:09:32.142848,206497209,80.06861,79.91966,5.566798,5.715743,5.654167,0,1.947808,1.828914
16813,2023-01-20 11:09:32.242829,206597192,80.62498,80.45148,5.566798,5.740299,5.641812,0,2.013638,1.854926
16847,2023-01-20 11:09:32.342836,206697205,81.18136,80.98285,5.566798,5.765309,5.671924,0,1.980038,1.888993
16879,2023-01-20 11:09:32.443141,206797523,81.73773,81.52757,5.566798,5.776954,5.713289,0,1.893965,1.886697
16910,2023-01-20 11:09:32.542782,206897184,82.29411,82.07816,5.566798,5.782745,5.719904,0,1.851411,1.866201
16943,2023-01-20 11:09:32.642758,206997172,82.85048,82.6265,5.566798,5.790772,5.720994,0,1.907305,1.850144
16976,2023-01-20 11:09:32.742772,207097189,83.40685,83.18371,5.566798,5.789942,5.71526,0,1.896432,1.865186
17010,2023-01-20 11:09:32.842815,207197220,83.96323,83.74384,5.566798,5.786183,5.748904,0,1.866524,1.867793
17042,2023-01-20 11:09:32.942829,207297205,84.51961,84.30083,5.566798,5.785577,5.712158,0,1.947689,1.860119
17074,2023-01-20 11:09:33.042826,207397185,85.07597,84.86131,5.566798,5.781456,5.722308,0,1.905867,1.883316
17105,2023-01-20 11:09:33.142881,207497239,85.63235,85.4221,5.566798,5.777052,5.708367,0,1.890626,1.875618
17139,2023-01-20 11:09:33.242807,207597178,86.18873,85.98225,5.566798,5.773283,5.763946,0,1.692975,1.832499
17173,2023-01-20 11:09:33.342814,207697217,86.7451,86.55411,5.566798,5.757794,5.805102,0,1.53713,1.722854
17205,2023-01-20 11:09:33.443070,207797491,87.30148,87.12829,5.566798,5.739991,5.794421,0,1.544307,1.637968
17236,2023-01-20 11:09:33.542754,207897173,87.85785,87.69779,5.566798,5.726857,5.804359,0,1.592241,1.59864
17269,2023-01-20 11:09:33.642777,207997186,88.41423,88.27164,5.566798,5.709386,5.780245,0,1.565476,1.570791
17302,2023-01-20 11:09:33.742857,208097243,88.9706,88.84321,5.566798,5.694181,5.788858,0,1.592035,1.567839
17336,2023-01-20 11:09:33.842948,208197318,89.52697,89.40957,5.566798,5.6842,5.780801,0,1.627099,1.55625
17368,2023-01-20 11:09:33.942855,208297218,90.08335,89.9823,5.566798,5.667843,5.738125,0,1.574663,1.552963
17400,2023-01-20 11:09:34.042846,208397204,90.63972,90.56112,5.566798,5.645401,5.762465,0,1.468128,1.516435
17431,2023-01-20 11:09:34.142850,208497205,91.19609,91.13785,5.566798,5.62504,5.752826,0,1.406564,1.446207
17465,2023-01-20 11:09:34.242832,208597187,91.75247,91.7184,5.566798,5.60087,5.753281,0,1.366896,1.398477
17499,2023-01-20 11:09:34.342860,208697216,92.30884,92.29637,5.566798,5.579259,5.721313,0,1.386267,1.371668
17531,2023-01-20 11:09:34.443127,208797494,92.86564,92.87015,5.566798,5.562296,5.731529,0,1.38451,1.367243
17562,2023-01-20 11:09:34.542793,208897184,93.42244,93.45029,5.566798,5.538947,5.700743,0,1.371684,1.344499
17596,2023-01-20 11:09:34.642802,208997199,93.97923,94.02473,5.566798,5.52131,5.680843,0,1.350853,1.33863
17629,2023-01-20 11:09:34.742794,209097172,94.53603,94.58894,5.566798,5.513897,5.673337,0,1.392373,1.345837
17663,2023-01-20 11:09:34.842848,209197213,95.09284,95.15623,5.566798,5.503409,5.638011,0,1.363128,1.353374
17695,2023-01-20 11:09:34.942833,209297194,95.64964,95.72162,5.566798,5.494815,5.640874,0,1.323666,1.339801
17727,2023-01-20 11:09:35.042866,209397224,96.20644,96.2836,5.566798,5.48963,5.63006,0,1.352498,1.316284
17758,2023-01-20 11:09:35.142966,209497325,96.76323,96.85246,5.566798,5.47757,5.612506,0,1.297075,1.296107
17792,2023-01-20 11:09:35.242805,209597178,97.32003,97.42171,5.566798,5.465108,5.610836,0,1.282647,1.267959
17826,2023-01-20 11:09:35.342847,209697250,97.87683,97.98529,5.566798,5.458341,5.581227,0,1.291943,1.237083
17858,2023-01-20 11:09:35.443056,209797468,98.43363,98.55033,5.566798,5.450099,5.593236,0,1.297882,1.236494
17891,2023-01-20 11:09:35.542807,209897202,98.99043,99.11152,5.566798,5.445704,5.550503,0,1.34087,1.25323
17924,2023-01-20 11:09:35.642826,209997207,99.54723,99.66415,5.566798,5.449874,5.575665,0,1.298473,1.275661
17957,2023-01-20 11:09:35.742867,210097240,100.104,100.2198,5.566798,5.451007,5.553289,0,1.379219,1.309191
17991,2023-01-20 11:09:35.842842,210197217,100.6608,100.7746,5.566798,5.453067,5.533174,0,1.400091,1.328776
18023,2023-01-20 11:09:35.942804,210297194,101.2176,101.3284,5.566798,5.456027,5.539647,0,1.412562,1.340141
18055,2023-01-20 11:09:36.042782,210397171,101.7744,101.8734,5.566798,5.467784,5.510788,0,1.502843,1.380724
18086,2023-01-20 11:09:36.142836,210497202,102.3312,102.4216,5.566798,5.476447,5.491313,0,1.525508,1.408405
18120,2023-01-20 11:09:36.242824,210597177,102.888,102.9667,5.566798,5.488155,5.515271,0,1.52628,1.429586
18154,2023-01-20 11:09:36.342967,210697320,103.4448,103.5034,5.566798,5.508224,5.48174,0,1.652071,1.50093
18186,2023-01-20 11:09:36.439029,210797251,104.0016,104.0415,5.566798,5.526866,5.468524,0,1.706016,1.549994
18217,2023-01-20 11:09:36.529959,210897197,104.5584,104.5777,5.566798,5.54756,5.463319,0,1.735695,1.601641
18250,2023-01-20 11:09:36.622994,210997175,105.1152,105.1073,5.566798,5.574708,5.48191,0,1.738972,1.647342
18283,2023-01-20 11:09:36.723003,211097181,105.672,105.6367,5.566798,5.60214,5.500084,0,1.778036,1.691411
18317,2023-01-20 11:09:36.823060,211197232,106.2288,106.1713,5.566798,5.624269,5.503366,0,1.737608,1.708604
18349,2023-01-20 11:09:36.923061,211297219,106.7856,106.704,5.566798,5.648429,5.540762,0,1.74357,1.723531
18381,2023-01-20 11:09:37.023071,211397222,107.3424,107.2483,5.566798,5.660851,5.561487,0,1.708114,1.718609
18412,2023-01-20 11:09:37.123055,211497222,107.8992,107.8,5.566798,5.666017,5.598526,0,1.614097,1.684659
18446,2023-01-20 11:09:37.222982,211597169,108.456,108.3479,5.566798,5.674923,5.620535,0,1.613953,1.649773
18480,2023-01-20 11:09:37.323004,211697224,109.0128,108.9017,5.566798,5.677901,5.641508,0,1.584487,1.621898
18512,2023-01-20 11:09:37.425540,211797251,109.5696,109.4578,5.566798,5.678576,5.635594,0,1.604863,1.597112
18543,2023-01-20 11:09:37.536489,211897191,110.1264,110.0092,5.566798,5.683966,5.653664,0,1.591504,1.579946
18576,2023-01-20 11:09:37.638895,211997175,110.6832,110.5747,5.566798,5.675333,5.671998,0,1.503668,1.547235
18609,2023-01-20 11:09:37.729890,212097247,111.24,111.1452,5.566798,5.661632,5.676144,0,1.470037,1.49545
18643,2023-01-20 11:09:37.822885,212197231,111.7968,111.7102,5.566798,5.653409,5.6747,0,1.397492,1.448302
18675,2023-01-20 11:09:37.922869,212297197,112.3536,112.283,5.566798,5.637413,5.705288,0,1.297747,1.380029
18707,2023-01-20 11:09:38.022862,212397179,112.9104,112.8569,5.566798,5.620245,5.707612,0,1.286299,1.334268
18738,2023-01-20 11:09:38.122889,212497217,113.4672,113.4273,5.566798,5.606671,5.697172,0,1.292781,1.31645
18772,2023-01-20 11:09:38.222845,212597186,114.024,114.0028,5.566798,5.587941,5.715912,0,1.231871,1.288727
