LineNo,UTC_Approx,TimeUS,TPN,PN,DVN,TVN,VN,DAN,TAN,AN
692,2023-01-20 11:08:47.422176,161676929,6.639023,6.639023,-0.03303371,-0.03303371,-0.03303371,0,-0.0009065262,-0.00165785
1043,2023-01-20 11:08:47.517162,161776915,6.624416,6.624416,-0.03527148,-0.03527148,-0.03527148,0,-0.000487579,-0.001573175
1159,2023-01-20 11:08:47.631715,161894199,6.606935,6.606935,-0.03843127,-0.03843127,-0.03843127,0,-0.0002622465,-0.001415587
1422,2023-01-20 11:08:47.739680,161996619,6.589347,6.589347,-0.04237962,-0.04237962,-0.04237962,0,-0.0001410504,-0.001162581
1841,2023-01-20 11:08:47.843205,162097151,6.576921,6.576921,-0.04362778,-0.04362778,-0.04362778,0,-7.586458E-05,-0.0008986542
1888,2023-01-20 11:08:47.942994,162197182,6.568419,6.568419,-0.04152121,-0.04152121,-0.04152121,0,-4.080409E-05,-0.0007519864
1933,2023-01-20 11:08:48.042817,162297141,6.551949,6.551949,-0.04480924,-0.04480924,-0.04480924,0,-2.194665E-05,-0.0005733939
1979,2023-01-20 11:08:48.142812,162397132,6.530371,6.530371,-0.05162729,-0.05162729,-0.05162729,0,-1.18041E-05,-0.000368047
2032,2023-01-20 11:08:48.242830,162497133,6.504953,6.504953,-0.05931446,-0.05931446,-0.05931446,0,-6.348889E-06,-0.0001248834
2073,2023-01-20 11:08:48.342882,162597152,6.477474,6.477474,-0.06947605,-0.06947605,-0.06947605,0,-3.414778E-06,0.0001302115
2131,2023-01-20 11:08:48.439041,162697173,6.455162,6.455162,-0.07453343,-0.07453343,-0.07453343,0,-1.836653E-06,0.0002716589
2190,2023-01-20 11:08:48.529976,162797147,6.437187,6.437187,-0.07639108,-0.07639108,-0.07639108,0,-9.878521E-07,0.0004390472
2250,2023-01-20 11:08:48.623048,162897175,6.42035,6.42035,-0.07838888,-0.07838888,-0.07838888,0,-5.313206E-07,0.0005299067
2304,2023-01-20 11:08:48.723008,162997115,6.400537,6.400537,-0.08235857,-0.08235857,-0.08235857,0,-2.85773E-07,0.0006256471
2360,2023-01-20 11:08:48.823049,163097141,6.383472,6.383472,-0.08437558,-0.08437558,-0.08437558,0,-1.537043E-07,0.0007081284
2415,2023-01-20 11:08:48.923091,163197182,6.367461,6.367461,-0.08456753,-0.08456753,-0.08456753,0,-8.267052E-08,0.0008074258
2455,2023-01-20 11:08:49.023033,163297127,6.352314,6.352314,-0.08418375,-0.08418375,-0.08418375,0,-4.44647E-08,0.0008825252
2499,2023-01-20 11:08:49.123015,163397125,6.334117,6.334117,-0.08608881,-0.08608881,-0.08608881,0,-2.391554E-08,0.0009204727
2541,2023-01-20 11:08:49.225563,163497145,6.315722,6.315722,-0.09038695,-0.09038695,-0.09038695,0,-1.286308E-08,0.001019852
2581,2023-01-20 11:08:49.336590,163597137,6.291584,6.291584,-0.09717652,-0.09717652,-0.09717652,0,-6.918462E-09,0.001047648
2624,2023-01-20 11:08:49.442906,163697179,6.267671,6.267671,-0.1032926,-0.1032926,-0.1032926,0,-3.721125E-09,0.001047671
2662,2023-01-20 11:08:49.542851,163797189,6.244459,6.244459,-0.108398,-0.108398,-0.108398,0,-2.001424E-09,0.001048045
2702,2023-01-20 11:08:49.638908,163897119,6.219216,6.219216,-0.1144385,-0.1144385,-0.1144385,0,-1.076474E-09,0.001048097
2740,2023-01-20 11:08:49.729976,163997164,6.19282,6.19282,-0.1246385,-0.1246385,-0.1246385,0,-5.789866E-10,0.001047881
2783,2023-01-20 11:08:49.823036,164097133,6.169699,6.169699,-0.1292038,-0.1292038,-0.1292038,0,-3.114105E-10,0.001047652
2823,2023-01-20 11:08:49.923060,164197180,6.14851,6.14851,-0.1297487,-0.1297487,-0.1297487,0,-1.674935E-10,0.001047707
2863,2023-01-20 11:08:50.023004,164297133,6.131094,6.131094,-0.1302033,-0.1302033,-0.1302033,0,-9.008711E-11,0.001048127
2902,2023-01-20 11:08:50.123044,164397136,6.118817,6.118817,-0.1248698,-0.1248698,-0.1248698,0,-4.845375E-11,0.001048379
2945,2023-01-20 11:08:50.223098,164497170,6.108796,6.108796,-0.119792,-0.119792,-0.119792,0,-2.606105E-11,0.001047925
2983,2023-01-20 11:08:50.323021,164597134,6.102413,6.102413,-0.1134577,-0.1134577,-0.1134577,0,-1.401705E-11,0.001047523
3025,2023-01-20 11:08:50.423016,164697171,6.095103,6.095103,-0.10861,-0.10861,-0.10861,0,-7.539135E-12,0.001047602
3065,2023-01-20 11:08:50.522927,164797129,6.085382,6.085382,-0.1040431,-0.1040431,-0.1040431,0,-4.054956E-12,0.001048399
3105,2023-01-20 11:08:50.622898,164897124,6.074748,6.074748,-0.09786239,-0.09786239,-0.09786239,0,-2.180976E-12,0.001049479
3143,2023-01-20 11:08:50.722962,164997130,6.06012,6.06012,-0.1058207,-0.1058207,-0.1058207,0,-1.173048E-12,0.001048389
3184,2023-01-20 11:08:50.822984,165097122,6.044668,6.044668,-0.1038529,-0.1038529,-0.1038529,0,-6.309291E-13,0.001048999
3224,2023-01-20 11:08:50.923024,165197226,6.024496,6.024496,-0.1088572,-0.1088572,-0.1088572,0,-3.393479E-13,0.001047929
3264,2023-01-20 11:08:51.022887,165297136,6.00295,6.00295,-0.1134245,-0.1134245,-0.1134245,0,-1.825198E-13,0.00104835
3302,2023-01-20 11:08:51.122896,165397130,5.974104,5.974104,-0.1207781,-0.1207781,-0.1207781,0,-9.816905E-14,0.001047243
3345,2023-01-20 11:08:51.222935,165497168,5.946948,5.946948,-0.1343716,-0.1343716,-0.1343716,0,-5.280065E-14,0.001047417
3383,2023-01-20 11:08:51.322859,165597136,5.916963,5.916963,-0.141674,-0.141674,-0.141674,0,-2.839906E-14,0.001048165
3425,2023-01-20 11:08:51.422865,165697180,5.888965,5.888965,-0.1513701,-0.1513701,-0.1513701,0,-1.527456E-14,0.001047616
3463,2023-01-20 11:08:51.522793,165797124,5.859197,5.859197,-0.15046,-0.15046,-0.15046,0,-8.215488E-15,0.001047669
3504,2023-01-20 11:08:51.622790,165897132,5.83722,5.83722,-0.1544425,-0.1544425,-0.1544425,0,-4.418735E-15,0.001046883
3541,2023-01-20 11:08:51.722790,165997125,5.828376,5.828376,-0.1545928,-0.1545928,-0.1545928,0,-2.376636E-15,0.001047379
3584,2023-01-20 11:08:51.822802,166097133,5.818458,5.818458,-0.145592,-0.145592,-0.145592,0,-1.278284E-15,0.001047628
3624,2023-01-20 11:08:51.922853,166197187,5.80573,5.80573,-0.1472191,-0.1472191,-0.1472191,0,-6.875304E-16,0.001047216
3664,2023-01-20 11:08:52.022799,166297134,5.793323,5.793323,-0.1328831,-0.1328831,-0.1328831,0,-3.697912E-16,0.001046767
3700,2023-01-20 11:08:52.122802,166397129,5.781148,5.781148,-0.1426248,-0.1426248,-0.1426248,0,-1.988938E-16,0.001046404
3735,2023-01-20 11:08:52.222854,166497177,5.771245,5.771245,-0.136389,-0.136389,-0.136389,0,-1.069759E-16,0.001047074
3765,2023-01-20 11:08:52.322804,166597129,5.767148,5.767148,-0.1338435,-0.1338435,-0.1338435,0,-5.753746E-17,0.001046974
3800,2023-01-20 11:08:52.422867,166697200,5.764019,5.764019,-0.1244051,-0.1244051,-0.1244051,0,-3.094678E-17,0.001047018
3830,2023-01-20 11:08:52.522839,166797197,5.76548,5.76548,-0.1081884,-0.1081884,-0.1081884,0,-1.664486E-17,0.001046025
3863,2023-01-20 11:08:52.622761,166897131,5.76604,5.76604,-0.1150322,-0.1150322,-0.1150322,0,-8.952508E-18,0.001046596
3893,2023-01-20 11:08:52.722786,166997124,5.768799,5.768799,-0.09831149,-0.09831149,-0.09831149,0,-4.815146E-18,0.001046478
3928,2023-01-20 11:08:52.822814,167097126,5.767979,5.767979,-0.09953611,-0.09953611,-0.09953611,0,-2.589847E-18,0.001046314
3960,2023-01-20 11:08:52.922867,167197177,5.762764,5.762764,-0.08403725,-0.08403725,-0.08403725,0,-1.392961E-18,0.001046539
3993,2023-01-20 11:08:53.022834,167297150,5.754862,5.754862,-0.0855877,-0.0855877,-0.0855877,0,-7.4921E-19,0.001045452
4023,2023-01-20 11:08:53.122791,167397138,5.741034,5.741034,-0.09397607,-0.09397607,-0.09397607,0,-4.02966E-19,0.001046314
4058,2023-01-20 11:08:53.222812,167497181,5.729578,5.732318,-0.09135054,-0.09409102,-0.09765644,0.09164508,0.07203403,0.01194008
4088,2023-01-20 11:08:53.322823,167597182,5.724946,5.734352,-0.08025748,-0.089663,-0.0842068,0.08051625,0.05976987,0.03084186
4123,2023-01-20 11:08:53.422848,167697208,5.723817,5.736717,-0.07053224,-0.08343264,-0.07956083,0.07075965,0.06978104,0.04603248
4153,2023-01-20 11:08:53.522786,167797187,5.72658,5.743466,-0.06199604,-0.07888263,-0.06847899,0.06219592,0.033754,0.03736387
4186,2023-01-20 11:08:53.622763,167897188,5.731084,5.747561,-0.05449839,-0.07097544,-0.06553932,0.0546741,0.0355762,0.02844399
4216,2023-01-20 11:08:53.722786,167997179,5.735251,5.749006,-0.04791025,-0.06166513,-0.06461784,0.04806472,0.07667854,0.04659224
4251,2023-01-20 11:08:53.822815,168097187,5.737966,5.744693,-0.04211992,-0.0488466,-0.06164861,0.04225572,0.08929254,0.05178673
4284,2023-01-20 11:08:53.922933,168197321,5.734017,5.728828,-0.03703009,-0.03184088,-0.07192415,0.03714948,0.207606,0.100779
4317,2023-01-20 11:08:54.022849,168297253,5.725486,5.717385,-0.03255569,-0.02445449,-0.06285911,0.03266066,0.1416971,0.1588648
4348,2023-01-20 11:08:54.122777,168397194,5.722054,5.715265,-0.02862213,-0.02183319,-0.07455717,0.02871442,0.07415687,0.1268219
4383,2023-01-20 11:08:54.222758,168497179,5.719374,5.718787,-0.02516384,-0.02457668,-0.02124523,0.02524497,-0.01425986,0.07889857
4413,2023-01-20 11:08:54.322832,168597229,5.717017,5.734167,-0.02212336,-0.03927302,-0.0294492,0.02219469,-0.05964641,0.01539574
4448,2023-01-20 11:08:54.422827,168697214,5.714945,5.746282,-0.01945025,-0.05078752,-0.05066163,0.01951296,-0.03149978,-0.0046119
4478,2023-01-20 11:08:54.522780,168797204,5.713124,5.758011,-0.01710012,-0.0619872,-0.04397202,0.01715525,0.03562531,0.01398699
4511,2023-01-20 11:08:54.622779,168897228,5.711522,5.758964,-0.01503392,-0.06247594,-0.0929178,0.01508239,0.2108313,0.07607935
4541,2023-01-20 11:08:54.722750,168997183,5.710114,5.745829,-0.01321735,-0.04893208,-0.1277375,0.01325997,0.3404579,0.1725674
4576,2023-01-20 11:08:54.822768,169097186,5.708876,5.726862,-0.01162026,-0.02960731,-0.1792796,0.01165772,0.6158267,0.3104858
4608,2023-01-20 11:08:54.922921,169197328,5.707788,5.6975,-0.01021612,7.196903E-05,-0.2237597,0.01024905,0.7816648,0.48083
4641,2023-01-20 11:08:55.022801,169297197,5.706831,5.664717,-0.008981619,0.03313264,-0.2105215,0.009010579,0.8224087,0.6212972
4671,2023-01-20 11:08:55.122811,169397197,5.705989,5.625389,-0.007896267,0.07270432,-0.2430289,0.007921726,0.9655405,0.7516724
4706,2023-01-20 11:08:55.222808,169497187,5.705249,5.594642,-0.006942043,0.1036653,-0.2478603,0.006964426,0.9461079,0.8365836
4736,2023-01-20 11:08:55.322797,169597182,5.704599,5.581458,-0.006103109,0.1170384,-0.207873,0.006122786,0.7480251,0.7980902
4771,2023-01-20 11:08:55.422829,169697224,5.704028,5.568659,-0.005365528,0.1300025,-0.1612537,0.005382827,0.7133449,0.7445224
4803,2023-01-20 11:08:55.522774,169797197,5.703525,5.55455,-0.004717064,0.1442575,-0.1421201,0.004732273,0.7487677,0.7434398
4836,2023-01-20 11:08:55.622759,169897196,5.703084,5.54118,-0.004146953,0.1577561,-0.1321179,0.004160324,0.7722082,0.7646972
4866,2023-01-20 11:08:55.722844,169997252,5.702694,5.528074,-0.003645721,0.1709752,-0.07456943,0.003657475,0.7162816,0.7679124
4901,2023-01-20 11:08:55.822791,170097178,5.702353,5.51611,-0.003205046,0.1830376,-0.04996794,0.003215379,0.6204256,0.7253073
4933,2023-01-20 11:08:55.922849,170197239,5.702051,5.500892,-0.002817611,0.1983408,-0.0006514129,0.002826696,0.5978712,0.6865574
4966,2023-01-20 11:08:56.022822,170297213,5.701788,5.490473,-0.002476986,0.2088383,0.02344284,0.002484972,0.608495,0.6516637
4996,2023-01-20 11:08:56.122794,170397178,5.701556,5.480204,-0.002177512,0.219175,0.07533243,0.002184533,0.608304,0.6391293
5031,2023-01-20 11:08:56.222809,170497188,5.701353,5.478251,-0.00191422,0.2211876,0.0784255,0.001920392,0.5690044,0.6301199
5061,2023-01-20 11:08:56.322827,170597208,5.701174,5.486305,-0.001682739,0.213186,0.08767156,0.001688164,0.505679,0.579562
5096,2023-01-20 11:08:56.422834,170697224,5.701016,5.489195,-0.001479224,0.2103421,0.1306641,0.001483993,0.4991405,0.5305662
5126,2023-01-20 11:08:56.522891,170797313,5.700876,5.475665,-0.001300292,0.2239109,0.1072765,0.001304485,0.7006106,0.5855245
5159,2023-01-20 11:08:56.622771,170897210,5.700754,5.468858,-0.00114298,0.2307528,0.1048492,0.001146665,0.6913163,0.6280351
5189,2023-01-20 11:08:56.722800,170997205,5.700649,5.466739,-0.001004674,0.2329052,0.125901,0.001007913,0.609781,0.6425263
5224,2023-01-20 11:08:56.822834,171097215,5.700551,5.471808,-0.0008830779,0.2278596,0.159813,0.0008859251,0.4396478,0.5728188
5256,2023-01-20 11:08:56.922862,171197251,5.700472,5.483277,-0.0007761725,0.2164186,0.1915294,0.000778675,0.3288904,0.4777396
5289,2023-01-20 11:08:57.022801,171297194,5.700398,5.491125,-0.0006821831,0.2085915,0.1953731,0.0006843826,0.3018102,0.3866598
5320,2023-01-20 11:08:57.122797,171397182,5.700329,5.484218,-0.0005995486,0.2155119,0.2161845,0.0006014816,0.3703896,0.3658389
5355,2023-01-20 11:08:57.222805,171497183,5.70028,5.476818,-0.0005268968,0.222935,0.2420852,0.0005285956,0.363827,0.3566934
5385,2023-01-20 11:08:57.322851,171597228,5.700231,5.452629,-0.0004630226,0.2471389,0.2532611,0.0004645155,0.4966982,0.4171246
5420,2023-01-20 11:08:57.422831,171697214,5.700182,5.435672,-0.0004068654,0.2641036,0.2665041,0.0004081773,0.4767907,0.4447263
5450,2023-01-20 11:08:57.522765,171797184,5.700139,5.41184,-0.0003574931,0.2879408,0.2456163,0.0003586457,0.5548334,0.4927369
5483,2023-01-20 11:08:57.622754,171897194,5.700114,5.397886,-0.0003140857,0.3019137,0.2766912,0.0003150984,0.5663074,0.5229593
5513,2023-01-20 11:08:57.722787,171997194,5.700045,5.383053,-0.001828824,0.3151633,0.2648454,-0.110573,0.5356919,0.5469913
5548,2023-01-20 11:08:57.822852,172097234,5.699599,5.372338,-0.007309372,0.3199514,0.2565577,-0.07885839,0.5677835,0.57571
5580,2023-01-20 11:08:57.922847,172197234,5.69848,5.352983,-0.01609827,0.3293985,0.2273754,-0.4132337,0.3979128,0.5907275
5615,2023-01-20 11:08:58.022828,172297218,5.695785,5.342051,-0.04094904,0.3127851,0.1776206,-0.7489831,0.1306097,0.5009804
5645,2023-01-20 11:08:58.122834,172397221,5.68938,5.332441,-0.09021097,0.2667275,0.1280481,-0.9898573,-0.1242974,0.2727882
5680,2023-01-20 11:08:58.223098,172497483,5.676786,5.324923,-0.163715,0.1881484,0.01331788,-1.280619,-0.3833087,0.01472831
5710,2023-01-20 11:08:58.322815,172597201,5.655638,5.316957,-0.260302,0.07837959,-0.08555035,-1.402173,-0.5177749,-0.2258422
5745,2023-01-20 11:08:58.422837,172697231,5.623963,5.301252,-0.3717901,-0.04907959,-0.2040145,-1.255912,-0.4137508,-0.3660841
5775,2023-01-20 11:08:58.522780,172797209,5.581014,5.279062,-0.4838457,-0.1818944,-0.3420345,-1.294208,-0.4416688,-0.4082615
5808,2023-01-20 11:08:58.622773,172897221,5.526945,5.243684,-0.5944,-0.3111389,-0.4559429,-1.218916,-0.3220686,-0.4116801
5838,2023-01-20 11:08:58.722788,172997199,5.462015,5.196698,-0.7010087,-0.4356919,-0.6054094,-1.192678,-0.2146976,-0.3742316
5873,2023-01-20 11:08:58.822819,173097206,5.386672,5.138227,-0.8018821,-0.5534372,-0.7139763,-1.096571,-0.09401153,-0.2620252
5905,2023-01-20 11:08:58.922905,173197308,5.30171,5.070827,-0.8934295,-0.6625476,-0.8618413,-0.9573573,0.09579048,-0.1377229
5939,2023-01-20 11:08:59.020743,173297235,5.208247,4.997706,-0.9703725,-0.7598317,-0.9473554,-0.5366281,0.5035442,0.1004735
5970,2023-01-20 11:08:59.111651,173397247,5.108371,4.935638,-1.021005,-0.8482718,-1.019223,-0.3347669,0.5332272,0.2925647
6005,2023-01-20 11:08:59.203035,173497479,5.004571,4.860343,-1.053183,-0.9089547,-1.036633,-0.576587,0.2469638,0.2765992
6035,2023-01-20 11:08:59.302760,173597201,4.897693,4.817588,-1.084353,-1.004248,-1.029411,-0.8664075,-0.4690499,0.04626646
6070,2023-01-20 11:08:59.403211,173697328,4.787207,4.759988,-1.127191,-1.099972,-1.073065,-1.119491,-0.7682532,-0.3292347
6099,2023-01-20 11:08:59.514182,173797196,4.671556,4.717262,-1.186566,-1.232272,-1.12041,-1.146387,-1.051442,-0.6702481
6132,2023-01-20 11:08:59.620709,173897209,4.549418,4.657239,-1.255548,-1.363369,-1.171111,-1.009399,-0.931968,-0.8863952
6162,2023-01-20 11:08:59.711592,173997186,4.420394,4.589793,-1.322005,-1.491404,-1.296623,-0.9968666,-0.9506629,-0.9277481
6198,2023-01-20 11:08:59.802767,174097208,4.285057,4.497307,-1.381416,-1.593666,-1.361667,-0.7487409,-0.5669766,-0.8330361
6230,2023-01-20 11:08:59.902758,174197229,4.144367,4.376974,-1.429928,-1.662535,-1.513632,-0.7519398,-0.2935387,-0.6661154
6263,2023-01-20 11:09:00.002704,174297206,3.999236,4.240634,-1.47006,-1.711458,-1.592782,-0.574448,-0.03788586,-0.4414405
6293,2023-01-20 11:09:00.102671,174397246,3.850726,4.109317,-1.496649,-1.75524,-1.642901,-0.3796809,0.04670566,-0.2534804
6328,2023-01-20 11:09:00.202840,174497485,3.70042,3.965655,-1.505795,-1.77103,-1.669181,0.0003670649,0.4054571,-0.06955978
6358,2023-01-20 11:09:00.302587,174597181,3.550372,3.822477,-1.492344,-1.764449,-1.673877,0,0.4352435,0.1065445
6393,2023-01-20 11:09:00.402690,174697235,3.402451,3.670923,-1.465226,-1.733698,-1.66202,0,0.4752409,0.2330683
6425,2023-01-20 11:09:00.502581,174797181,3.257615,3.496561,-1.431642,-1.670587,-1.685386,0,0.8037835,0.3617032
6458,2023-01-20 11:09:00.602550,174897202,3.1163,3.323457,-1.395302,-1.602459,-1.642809,0,0.8751927,0.5160754
6488,2023-01-20 11:09:00.702571,174997191,2.978676,3.133726,-1.358055,-1.513105,-1.643818,0,1.111053,0.667033
6524,2023-01-20 11:09:00.802624,175097213,2.84478,2.950225,-1.320861,-1.426305,-1.585979,0,1.159031,0.8179532
6556,2023-01-20 11:09:00.902731,175197344,2.714581,2.747034,-1.284056,-1.316509,-1.58652,0.03162027,1.541909,1.027756
6589,2023-01-20 11:09:01.002578,175297212,2.588092,2.553739,-1.246503,-1.21215,-1.568555,0.04963588,1.692072,1.288208
6619,2023-01-20 11:09:01.102657,175397215,2.465402,2.34913,-1.208109,-1.091838,-1.528929,0.07069535,1.993728,1.542531
6654,2023-01-20 11:09:01.203034,175497521,2.346598,2.161483,-1.168862,-0.9837464,-1.493577,0.06874514,2.032888,1.766625
6684,2023-01-20 11:09:01.302639,175597194,2.231707,1.971416,-1.130291,-0.8699996,-1.394156,-0.01147733,2.026538,1.906914
6719,2023-01-20 11:09:01.402615,175697237,2.120487,1.800207,-1.095394,-0.7751134,-1.327696,0.05316953,2.033766,1.989598
6749,2023-01-20 11:09:01.502536,175797185,2.012673,1.625669,-1.061968,-0.6749635,-1.259588,0.03516322,2.121225,2.036208
6782,2023-01-20 11:09:01.602568,175897243,1.908116,1.473435,-1.030298,-0.5956173,-1.152894,0.01918012,2.004297,2.061283
6813,2023-01-20 11:09:01.702549,175997219,1.806616,1.302356,-1.000798,-0.4965373,-1.04274,0.001425063,2.112508,2.082191
6848,2023-01-20 11:09:01.802532,176097196,1.707962,1.156444,-0.9732759,-0.4217578,-0.9731357,-0.004931251,2.024682,2.086817
6880,2023-01-20 11:09:01.902585,176197245,1.611977,1.015408,-0.9472429,-0.3506738,-0.8969638,-0.004040082,2.038145,2.054614
6913,2023-01-20 11:09:02.002552,176297208,1.51855,0.8974258,-0.922015,-0.3008907,-0.7519124,0,1.883455,1.988785
6943,2023-01-20 11:09:02.102581,176397225,1.427624,0.7870502,-0.8972208,-0.2566469,-0.6774924,-0.008905171,1.798988,1.913698
6978,2023-01-20 11:09:02.202919,176497551,1.339154,0.6972278,-0.8728322,-0.2309063,-0.6158808,0,1.741533,1.836966
7008,2023-01-20 11:09:02.302569,176597197,1.253109,0.6054103,-0.8487247,-0.2010261,-0.5263156,0,1.687962,1.769222
7043,2023-01-20 11:09:02.402601,176697227,1.169453,0.5326663,-0.8250847,-0.1882985,-0.4409942,0,1.501256,1.675564
7073,2023-01-20 11:09:02.502520,176797195,1.088131,0.4598309,-0.8020585,-0.1737586,-0.356014,0,1.347313,1.541754
7106,2023-01-20 11:09:02.602469,176897191,1.009072,0.4055411,-0.7797583,-0.1762278,-0.2672934,0,1.140283,1.39299
7136,2023-01-20 11:09:02.702505,176997182,0.9322178,0.3781966,-0.7579498,-0.2039286,-0.1712504,0,0.794689,1.176006
7171,2023-01-20 11:09:02.802588,177097221,0.8575173,0.3619949,-0.7366831,-0.2411607,-0.09340921,0,0.5984185,0.9478292
7203,2023-01-20 11:09:02.902721,177197359,0.7848542,0.3594455,-0.7185236,-0.2931147,-0.06803104,-0.3172866,0.1127049,0.6497476
7236,2023-01-20 11:09:03.002576,177297218,0.7132483,0.3592094,-0.7168902,-0.3628513,-0.07685483,-0.4684493,-0.05589008,0.3058557
7266,2023-01-20 11:09:03.102556,177397210,0.6410147,0.3627512,-0.7289895,-0.4507261,-0.1037803,-0.436816,-0.1707105,0.07890528
7301,2023-01-20 11:09:03.202739,177497404,0.5672703,0.3613994,-0.7455258,-0.539655,-0.1419071,-0.4211054,-0.1771436,-0.02724547
7331,2023-01-20 11:09:03.302526,177597196,0.4918334,0.3573862,-0.7625428,-0.6280955,-0.2279965,-0.317803,-0.05736919,-0.06677521
7366,2023-01-20 11:09:03.402559,177697233,0.414847,0.3445577,-0.7761858,-0.7058964,-0.3120624,-0.2540183,0.04493629,-0.05226051
7396,2023-01-20 11:09:03.502546,177797219,0.3367631,0.3419234,-0.7840299,-0.7891902,-0.3617221,-0.1749634,-0.02727489,-0.02216811
7429,2023-01-20 11:09:03.602517,177897189,0.2582652,0.3270724,-0.7846047,-0.8534119,-0.4053243,-0.07150666,0.0342634,-0.01405154
7460,2023-01-20 11:09:03.702547,177997206,0.1800951,0.2969226,-0.7780544,-0.8948819,-0.4292866,0,0.1159524,0.003086719
7495,2023-01-20 11:09:03.802549,178097196,0.1029007,0.2594747,-0.7651952,-0.9217693,-0.4692255,0,0.1395875,0.06432383
7527,2023-01-20 11:09:03.902575,178197235,0.02722661,0.209335,-0.7482674,-0.9303759,-0.5142693,0,0.2021594,0.1166938
7560,2023-01-20 11:09:04.002538,178297210,-0.04664997,0.1565935,-0.7295546,-0.932798,-0.5507613,0,0.2568163,0.1751938
7591,2023-01-20 11:09:04.102518,178397199,-0.1186164,0.105042,-0.7102141,-0.9338725,-0.5867506,0,0.2814636,0.2244811
7626,2023-01-20 11:09:04.202720,178497408,-0.1886432,0.0489634,-0.6908287,-0.9284353,-0.6322441,0,0.3926269,0.2823258
7656,2023-01-20 11:09:04.302531,178597196,-0.2567423,-0.01319107,-0.6716884,-0.9152396,-0.6549898,0,0.444218,0.3455414
7691,2023-01-20 11:09:04.402591,178697233,-0.3229463,-0.07821684,-0.6529329,-0.8976623,-0.6763737,0,0.4692353,0.3959286
7721,2023-01-20 11:09:04.502573,178797231,-0.3872976,-0.1220408,-0.6346278,-0.8998845,-0.6989003,0,0.3214419,0.3847724
7754,2023-01-20 11:09:04.602528,178897201,-0.4498426,-0.1714917,-0.6167976,-0.8951485,-0.6773663,0,0.3234177,0.3525676
7784,2023-01-20 11:09:04.702548,178997197,-0.5106292,-0.2300964,-0.599422,-0.879955,-0.7022695,0.01093248,0.4611162,0.3731145
7819,2023-01-20 11:09:04.802573,179097199,-0.5688685,-0.2926135,-0.55927,-0.835525,-0.7223016,0.4482338,1.076599,0.5745607
7851,2023-01-20 11:09:04.902574,179197236,-0.6213603,-0.3625144,-0.4927058,-0.7515517,-0.6770266,0.4942944,1.325571,0.9184389
7884,2023-01-20 11:09:05.002517,179297214,-0.6675165,-0.4308711,-0.4332063,-0.6698517,-0.6722178,0.401562,1.327944,1.126481
7914,2023-01-20 11:09:05.102515,179397189,-0.7089853,-0.5042412,-0.4070581,-0.6118022,-0.6418611,-0.5871914,0.2850761,0.9477659
7949,2023-01-20 11:09:05.202588,179497240,-0.7505039,-0.5737204,-0.4279934,-0.6047769,-0.6471717,-0.8909627,-0.1212798,0.4949419
7979,2023-01-20 11:09:05.302567,179597205,-0.7955374,-0.6493824,-0.4748498,-0.6210048,-0.6502954,-0.9075094,-0.1472781,0.1664812
8015,2023-01-20 11:09:05.402617,179697242,-0.8460797,-0.7262307,-0.5363963,-0.6562452,-0.7184122,-1.052333,-0.1820609,0.0113311
8047,2023-01-20 11:09:05.502521,179797202,-0.9033762,-0.8337654,-0.6088839,-0.6784946,-0.814423,-0.9724256,0.191353,0.009516428
8080,2023-01-20 11:09:05.602489,179897224,-0.9681018,-0.9414124,-0.683827,-0.7105164,-0.8714653,-0.9971255,0.2446253,0.1084687
8110,2023-01-20 11:09:05.702579,179997253,-1.040353,-1.045748,-0.7592616,-0.7538666,-0.9473301,-0.9803604,0.2316266,0.1578085
8145,2023-01-20 11:09:05.802587,180097203,-1.120095,-1.151881,-0.833397,-0.8016117,-1.007876,-0.9694433,0.2441692,0.1666277
8177,2023-01-20 11:09:05.902574,180197230,-1.20714,-1.270921,-0.905211,-0.8414297,-1.060019,-0.9389271,0.3022586,0.1821904
8210,2023-01-20 11:09:06.002511,180297206,-1.301149,-1.390568,-0.9720967,-0.8826771,-1.10641,-0.8011827,0.4160303,0.2327057
8240,2023-01-20 11:09:06.102553,180397239,-1.401369,-1.496239,-1.028674,-0.9338039,-1.152656,-0.6424018,0.4739695,0.3020308
8275,2023-01-20 11:09:06.202546,180497223,-1.506485,-1.606689,-1.069321,-0.9691173,-1.164643,-0.1800653,0.9279094,0.4394172
8305,2023-01-20 11:09:06.302515,180597194,-1.61435,-1.735927,-1.08289,-0.9613125,-1.156668,-0.07038868,1.156021,0.7202687
8340,2023-01-20 11:09:06.402547,180697229,-1.722431,-1.860686,-1.076779,-0.9385247,-1.143979,-0.02749996,1.288216,0.9204237
8370,2023-01-20 11:09:06.502523,180797197,-1.829309,-1.975409,-1.059178,-0.9130781,-1.112235,0.1174896,1.392009,1.069091
8403,2023-01-20 11:09:06.602526,180897192,-1.933834,-2.087658,-1.030868,-0.8770439,-1.080629,0.07683606,1.38667,1.125893
8433,2023-01-20 11:09:06.702519,180997189,-2.035237,-2.190602,-0.9974322,-0.8420672,-1.047804,0.08698025,1.380202,1.153561
8468,2023-01-20 11:09:06.802559,181097233,-2.133098,-2.293,-0.9593202,-0.7994186,-1.009303,0.3650174,1.679785,1.242365
8500,2023-01-20 11:09:06.902653,181197314,-2.226595,-2.393937,-0.9100149,-0.7426726,-0.9679144,0.4006327,1.824953,1.403376
8533,2023-01-20 11:09:07.002540,181297189,-2.314686,-2.490594,-0.8523762,-0.6764677,-0.8924909,0.3899493,1.822045,1.545136
8563,2023-01-20 11:09:07.102561,181397208,-2.396815,-2.592408,-0.7913992,-0.5958062,-0.7750167,0.340778,1.661858,1.625479
8598,2023-01-20 11:09:07.202720,181497364,-2.47289,-2.683076,-0.7326372,-0.522451,-0.7165251,0.2428216,1.493897,1.582865
8628,2023-01-20 11:09:07.302568,181597210,-2.543432,-2.767957,-0.6802447,-0.45572,-0.5985923,0.3175871,1.465852,1.518555
8664,2023-01-20 11:09:07.402606,181697247,-2.608819,-2.837476,-0.6285445,-0.3998876,-0.4465276,0.3279493,1.245484,1.464274
8694,2023-01-20 11:09:07.502601,181797254,-2.669039,-2.894584,-0.5777893,-0.3522443,-0.3758546,0.1781654,0.9297211,1.312472
8727,2023-01-20 11:09:07.602540,181897204,-2.72452,-2.935058,-0.5344448,-0.3239068,-0.2254403,0.1086838,0.6203985,1.073977
8757,2023-01-20 11:09:07.702557,181997201,-2.776123,-2.96489,-0.4997372,-0.3109708,-0.1425897,0.06363925,0.4177389,0.8550859
8792,2023-01-20 11:09:07.802628,182097252,-2.824608,-2.983863,-0.4714577,-0.3122023,-0.105802,0.07562242,0.3926714,0.6852968
8824,2023-01-20 11:09:07.902606,182197242,-2.87061,-2.994527,-0.4512112,-0.3272937,-0.0407407,-0.2495141,-0.04269794,0.4561853
8857,2023-01-20 11:09:08.002556,182297204,-2.915329,-3.002711,-0.4454819,-0.3580994,-0.06774683,-0.2416805,-0.03593439,0.240153
8887,2023-01-20 11:09:08.102568,182397234,-2.960007,-3.026557,-0.449113,-0.3825627,-0.08878086,-0.2497583,0.09803024,0.1385766
8922,2023-01-20 11:09:08.202533,182497216,-3.005301,-3.051869,-0.4569106,-0.4103432,-0.1334421,-0.2022224,0.2547663,0.1700183
8952,2023-01-20 11:09:08.302542,182597202,-3.051414,-3.086957,-0.4648495,-0.4293063,-0.2053651,-0.1454306,0.3636329,0.2276756
8987,2023-01-20 11:09:08.402685,182697324,-3.098185,-3.12296,-0.4698733,-0.4450985,-0.2051702,-0.05368384,0.4392377,0.3037564
9017,2023-01-20 11:09:08.502525,182797195,-3.145158,-3.157197,-0.4680884,-0.4560496,-0.2573657,0.09058401,0.5323944,0.3763061
9050,2023-01-20 11:09:08.602498,182897198,-3.191435,-3.189493,-0.4559019,-0.4578437,-0.2185149,0.1849558,0.4803993,0.4453673
9080,2023-01-20 11:09:08.702530,182997198,-3.235978,-3.215199,-0.4341215,-0.4549006,-0.2018503,0.2175577,0.3967607,0.451042
9115,2023-01-20 11:09:08.802562,183097198,-3.278037,-3.23782,-0.4076746,-0.4478915,-0.1617237,0.1210753,0.2154842,0.3700013
9149,2023-01-20 11:09:08.902603,183197252,-3.317529,-3.252518,-0.3832687,-0.44828,-0.1552841,0.07170914,0.2024362,0.2840195
9182,2023-01-20 11:09:09.002326,183297215,-3.354738,-3.267769,-0.3619097,-0.4488778,-0.1554109,0.05202539,0.1636497,0.236209
9212,2023-01-20 11:09:09.093373,183397164,-3.389967,-3.279118,-0.3436455,-0.4544948,-0.172065,0.01277414,0.1969765,0.2223655
9245,2023-01-20 11:09:09.184527,183497229,-3.423573,-3.295648,-0.3297191,-0.4576439,-0.2408834,-0.0602643,0.2328869,0.2277959
9278,2023-01-20 11:09:09.282982,183597208,-3.456046,-3.311036,-0.3206677,-0.4656781,-0.2514224,-0.06733588,0.2085737,0.213772
9311,2023-01-20 11:09:09.383014,183697253,-3.487815,-3.331665,-0.3154691,-0.4716193,-0.2448674,-0.09762258,0.1821955,0.2060822
9343,2023-01-20 11:09:09.482974,183797211,-3.519225,-3.351397,-0.3128766,-0.4807043,-0.3127257,-0.03886848,0.2813934,0.2181615
9374,2023-01-20 11:09:09.582971,183897204,-3.550338,-3.376694,-0.3090953,-0.4827391,-0.3460903,0.004419717,0.4108622,0.2659492
9407,2023-01-20 11:09:09.682968,183997184,-3.580933,-3.402278,-0.3022303,-0.4808854,-0.3709423,0.105306,0.5420494,0.3557598
9441,2023-01-20 11:09:09.783000,184097196,-3.610585,-3.431898,-0.2901629,-0.4688494,-0.3864389,0.1383831,0.5844433,0.4379999
9475,2023-01-20 11:09:09.883028,184197240,-3.638775,-3.463056,-0.2737066,-0.4494262,-0.3998493,0.1171227,0.6079419,0.4806294
9506,2023-01-20 11:09:09.982996,184297232,-3.66526,-3.496569,-0.2563902,-0.4250807,-0.368742,0.1109432,0.6307424,0.5198612
9538,2023-01-20 11:09:10.082993,184397237,-3.689998,-3.52901,-0.2387142,-0.399703,-0.3303899,0.1264734,0.5861011,0.5446789
9570,2023-01-20 11:09:10.182975,184497223,-3.712947,-3.561462,-0.2207648,-0.3722498,-0.2964122,0.1165946,0.5119407,0.5451473
9603,2023-01-20 11:09:10.282956,184597205,-3.734118,-3.589519,-0.2031514,-0.3477507,-0.2994685,0.1174314,0.4875589,0.5156788
9636,2023-01-20 11:09:10.383063,184697313,-3.753545,-3.614793,-0.1858187,-0.3245708,-0.2699859,0.1339909,0.4360731,0.4713314
9668,2023-01-20 11:09:10.482888,184797230,-3.771216,-3.635672,-0.1677675,-0.3033119,-0.2308497,0.1772916,0.458743,0.4450136
9701,2023-01-20 11:09:10.582952,184897405,-3.786974,-3.654856,-0.1475181,-0.279636,-0.1807535,0.2001104,0.5015559,0.460546
9733,2023-01-20 11:09:10.682773,184997190,-3.800617,-3.669054,-0.1256977,-0.2572608,-0.171839,0.2016667,0.4691197,0.4748022
9766,2023-01-20 11:09:10.783018,185097368,-3.812029,-3.682082,-0.1029714,-0.2329177,-0.1409762,0.2141104,0.5014934,0.4839872
9800,2023-01-20 11:09:10.882991,185197349,-3.821141,-3.704218,-0.07985657,-0.1967798,-0.1162137,0.2100461,0.5943143,0.5116211
9831,2023-01-20 11:09:10.982999,185297379,-3.827951,-3.723998,-0.05699887,-0.1609512,-0.1050535,0.2052529,0.6066317,0.5629131
9864,2023-01-20 11:09:11.082817,185397207,-3.832516,-3.748197,-0.03503798,-0.1193568,-0.06843812,0.2056651,0.598731,0.5946996
9896,2023-01-20 11:09:11.182997,185497395,-3.834926,-3.767316,-0.01380544,-0.08141592,-0.02974364,0.2007956,0.6057498,0.6188917
9929,2023-01-20 11:09:11.282789,185597200,-3.835244,-3.794508,0.006875866,-0.03385991,-0.01571011,0.2118787,0.6895121,0.6428972
9962,2023-01-20 11:09:11.383008,185697433,-3.833515,-3.814229,0.02711197,0.007826082,0.00493775,0.2127199,0.6610608,0.6566634
9993,2023-01-20 11:09:11.482766,185797190,-3.829783,-3.827779,0.04697605,0.04497105,0.04084738,0.2141984,0.6385055,0.6451379
10024,2023-01-20 11:09:11.582950,185897370,-3.824061,-3.833531,0.06710996,0.07657926,0.0967958,0.2366033,0.5722803,0.6375768
10056,2023-01-20 11:09:11.682827,185997230,-3.816292,-3.840242,0.08782633,0.1117759,0.1504925,0.2523284,0.6505108,0.6384608
10089,2023-01-20 11:09:11.782972,186097354,-3.80644,-3.840765,0.1086623,0.142987,0.1518825,0.2339883,0.6727254,0.6559271
10123,2023-01-20 11:09:11.882861,186197245,-3.794533,-3.84444,0.1288322,0.1787392,0.194866,0.2388106,0.6902905,0.6710589
10154,2023-01-20 11:09:11.982971,186297360,-3.780646,-3.841411,0.1482125,0.2089775,0.2266843,0.221666,0.6671782,0.6786644
10186,2023-01-20 11:09:12.082777,186397192,-3.764888,-3.841016,0.1662677,0.2423959,0.219666,0.2043238,0.7489388,0.6910838
10218,2023-01-20 11:09:12.182992,186497437,-3.747399,-3.834511,0.1828838,0.2699959,0.2458275,0.2089728,0.7300544,0.7067362
10251,2023-01-20 11:09:12.282757,186597180,-3.728315,-3.831348,0.1981114,0.3011442,0.2455575,0.1867005,0.7554139,0.7140558
10285,2023-01-20 11:09:12.383029,186697418,-3.707814,-3.822055,0.211097,0.3253371,0.2679807,0.1380984,0.701413,0.7132334
10317,2023-01-20 11:09:12.482849,186797252,-3.686159,-3.813179,0.221378,0.3483989,0.2815234,0.1267367,0.709986,0.702539
10348,2023-01-20 11:09:12.582930,186897357,-3.663601,-3.797972,0.2290959,0.3634667,0.3159493,0.08427946,0.6094576,0.6728985
10380,2023-01-20 11:09:12.682794,186997199,-3.640423,-3.789886,0.2338982,0.383361,0.32641,0.0523811,0.6437998,0.650707
10413,2023-01-20 11:09:12.782971,187097345,-3.616935,-3.776626,0.2350278,0.3947184,0.3404912,0,0.5941792,0.6259102
10447,2023-01-20 11:09:12.882867,187197241,-3.593544,-3.763806,0.2324154,0.4026775,0.315854,0,0.6753296,0.6290011
10478,2023-01-20 11:09:12.982815,187297196,-3.570524,-3.747272,0.2279208,0.4046689,0.3174916,0,0.6829164,0.6453473
10510,2023-01-20 11:09:13.082808,187397196,-3.548002,-3.744269,0.2225505,0.4188179,0.2856069,0,0.8581099,0.6991786
10542,2023-01-20 11:09:13.182838,187497233,-3.526038,-3.738259,0.2168193,0.4290397,0.2875313,0,0.8857067,0.7818
10575,2023-01-20 11:09:13.282793,187597179,-3.504655,-3.741284,0.2109883,0.4476173,0.2669188,0,1.001383,0.8632299
10608,2023-01-20 11:09:13.382952,187697326,-3.483854,-3.739739,0.2051878,0.4610725,0.2698648,0,0.9797865,0.922498
10640,2023-01-20 11:09:13.482793,187797189,-3.463629,-3.733192,0.1994821,0.4690454,0.2760001,0,0.9161133,0.9390993
10671,2023-01-20 11:09:13.582763,187897188,-3.443968,-3.720726,0.1939018,0.4706596,0.320018,0,0.8151962,0.9054332
10703,2023-01-20 11:09:13.682825,187997235,-3.424858,-3.707354,0.1884606,0.4709566,0.3347405,0,0.7628935,0.8610454
10736,2023-01-20 11:09:13.782801,188097187,-3.406366,-3.688155,0.1797667,0.4615559,0.3456848,-0.09764673,0.5997141,0.7802752
10770,2023-01-20 11:09:13.882865,188197243,-3.389365,-3.67554,0.1598531,0.4460277,0.3828092,-0.1603685,0.4640615,0.6424453
10801,2023-01-20 11:09:13.982829,188297203,-3.374391,-3.657763,0.1405427,0.4239158,0.379924,-0.1409958,0.3924119,0.5293182
10833,2023-01-20 11:09:14.082809,188397191,-3.361224,-3.645554,0.1235641,0.4078945,0.4125123,-0.1239625,0.3736185,0.4750174
10865,2023-01-20 11:09:14.182863,188497255,-3.349649,-3.628097,0.1086361,0.3870846,0.3710354,-0.1089864,0.4542544,0.4456196
10899,2023-01-20 11:09:14.282820,188597206,-3.339472,-3.613043,0.09551142,0.3690823,0.3933052,-0.09581938,0.3907551,0.4364491
10933,2023-01-20 11:09:14.382851,188697228,-3.330525,-3.592737,0.0839722,0.3461841,0.3954932,-0.08424295,0.323127,0.4059938
10965,2023-01-20 11:09:14.482787,188797187,-3.322657,-3.56824,0.07382696,0.3194104,0.3690795,-0.074065,0.3155425,0.3718348
10996,2023-01-20 11:09:14.582768,188897197,-3.315741,-3.541604,0.06490743,0.2907708,0.3756931,-0.06511671,0.2844109,0.3467235
11028,2023-01-20 11:09:14.682818,188997227,-3.30966,-3.528543,0.05706554,0.2759486,0.3396167,-0.05724953,0.3776146,0.3548911
11061,2023-01-20 11:09:14.782803,189097181,-3.304314,-3.513537,0.05017107,0.2593947,0.3497654,-0.05033284,0.3616844,0.3848307
11095,2023-01-20 11:09:14.882852,189197242,-3.299614,-3.508216,0.0441096,0.2527116,0.3311675,-0.04425182,0.4758872,0.4353953
11126,2023-01-20 11:09:14.982826,189297236,-3.295481,-3.498949,0.03878042,0.2422478,0.3164644,-0.03890546,0.4596515,0.4613488
11158,2023-01-20 11:09:15.082778,189397183,-3.291847,-3.497828,0.03409511,0.2400759,0.2824299,-0.03420504,0.4771315,0.4922832
11190,2023-01-20 11:09:15.182819,189497214,-3.288653,-3.49358,0.02997585,0.2349029,0.2337048,-0.0300725,0.601689,0.5368627
11223,2023-01-20 11:09:15.282803,189597181,-3.285844,-3.494776,0.02635427,0.2352865,0.2175271,-0.02643924,0.670301,0.6119553
11259,2023-01-20 11:09:15.382848,189697207,-3.286211,-3.493209,4.815143E-05,0.2070464,0.1863328,0.002462356,0.8305613,0.697746
11291,2023-01-20 11:09:15.482812,189797207,-3.286169,-3.498754,0.001172232,0.2137565,0.2017988,0.02518101,0.8504847,0.7750257
11324,2023-01-20 11:09:15.582775,189897217,-3.285869,-3.499705,0.00580668,0.2196424,0.1781693,0.07388823,0.8840085,0.834086
11356,2023-01-20 11:09:15.682753,189997166,-3.284884,-3.513755,0.01565148,0.2445223,0.1945163,0.1314593,1.031409,0.9052581
11389,2023-01-20 11:09:15.782800,190097169,-3.282711,-3.520232,0.03090186,0.2684235,0.1975019,0.1887374,1.050483,0.9816336
11423,2023-01-20 11:09:15.882838,190197199,-3.278843,-3.519481,0.0515163,0.2921544,0.244693,0.2457904,1.051317,1.021733
11454,2023-01-20 11:09:15.982832,190297193,-3.272787,-3.50997,0.07745002,0.3146326,0.2663438,0.3026567,1.044798,1.041577
11486,2023-01-20 11:09:16.082815,190397179,-3.26404,-3.495919,0.1087102,0.3405894,0.297417,0.3594368,1.091902,1.053334
11518,2023-01-20 11:09:16.182859,190497226,-3.252078,-3.472994,0.1453606,0.3662767,0.3364575,0.4162583,1.07881,1.058237
11551,2023-01-20 11:09:16.282793,190597160,-3.23637,-3.441531,0.1874543,0.3926157,0.3923663,0.4731736,1.113946,1.068293
11584,2023-01-20 11:09:16.382858,190697223,-3.216384,-3.404267,0.2350214,0.4229046,0.4552643,0.5301867,1.196599,1.097271
11616,2023-01-20 11:09:16.482795,190797174,-3.191579,-3.360119,0.2881007,0.4566405,0.4756401,0.5873089,1.262155,1.088738
11647,2023-01-20 11:09:16.582762,190897159,-3.161408,-3.310343,0.3467295,0.4956638,0.5190088,0.6445457,1.290471,1.008994
11679,2023-01-20 11:09:16.682803,190997191,-3.12532,-3.25213,0.4109381,0.5377471,0.5473444,0.7018953,1.351357,0.9558311
11712,2023-01-20 11:09:16.782785,191097159,-3.082761,-3.188979,0.480754,0.5869722,0.6186277,0.7593539,1.374784,0.9480767
11746,2023-01-20 11:09:16.882878,191197245,-3.033172,-3.1044,0.5562007,0.6274287,0.7062832,0.8169156,1.284334,0.963985
11777,2023-01-20 11:09:16.982830,191297192,-2.976002,-3.017852,0.637288,0.6791386,0.7438304,0.8745671,1.325245,0.9589038
11809,2023-01-20 11:09:17.082793,191397157,-2.910737,-2.904635,0.7239745,0.7178732,0.8680778,0.9322647,1.152562,0.9494844
11841,2023-01-20 11:09:17.182822,191497189,-2.836916,-2.792678,0.8161625,0.7719239,0.9359882,0.9899412,1.21108,0.9769789
11874,2023-01-20 11:09:17.282804,191597167,-2.754113,-2.662583,0.9137399,0.8222094,1.01574,1.047536,1.182519,1.058074
11907,2023-01-20 11:09:17.382843,191697199,-2.661892,-2.535967,1.016625,0.8907003,1.064883,1.105017,1.343006,1.172411
11939,2023-01-20 11:09:17.482847,191797230,-2.55979,-2.38811,1.12478,0.9531,1.167937,1.162381,1.235459,1.303842
11970,2023-01-20 11:09:17.582798,191897214,-2.447332,-2.248026,1.238189,1.038883,1.262473,1.219638,1.446284,1.423499
12002,2023-01-20 11:09:17.682771,191997165,-2.324076,-2.097814,1.356804,1.130541,1.314281,1.276779,1.551263,1.589163
12035,2023-01-20 11:09:17.782804,192097165,-2.189631,-1.953596,1.480542,1.244506,1.375458,1.333781,1.809792,1.831318
12069,2023-01-20 11:09:17.882836,192197194,-2.043607,-1.780231,1.609332,1.345955,1.493945,1.390632,1.7107,2.175676
12100,2023-01-20 11:09:17.982832,192297194,-1.885637,-1.608104,1.743089,1.465557,1.592164,1.446784,1.775734,2.504543
12133,2023-01-20 11:09:18.082803,192397182,-1.715353,-1.386447,1.881282,1.552376,1.742008,1.490276,1.426996,2.678027
12165,2023-01-20 11:09:18.182842,192497241,-1.53248,-1.170234,2.021973,1.659727,1.864559,1.508251,1.521738,2.669275
12198,2023-01-20 11:09:18.275344,192597170,-1.336899,-0.889467,2.163064,1.715632,1.960001,1.5097,1.138308,2.54372
12231,2023-01-20 11:09:18.366420,192697220,-1.128549,-0.61992,2.303636,1.795008,2.085467,1.500929,1.28245,2.314845
12263,2023-01-20 11:09:18.463029,192797182,-0.9075038,-0.329165,2.442117,1.863778,2.144143,1.468136,1.242278,2.176278
12294,2023-01-20 11:09:18.562943,192897167,-0.6740317,-0.02381659,2.576337,1.926122,2.172531,1.415591,1.347514,1.880699
12327,2023-01-20 11:09:18.662920,192997170,-0.4285385,0.2953272,2.705313,1.981447,2.23295,1.359702,1.274737,1.705205
12360,2023-01-20 11:09:18.762968,193097217,-0.171452,0.6202306,2.829023,2.037341,2.230785,1.303846,1.348731,1.420959
12394,2023-01-20 11:09:18.863028,193197312,0.09680969,0.9629196,2.947514,2.081404,2.250923,1.248006,1.269249,1.313761
12425,2023-01-20 11:09:18.962857,193297196,0.3758597,1.312431,3.060827,2.124256,2.270201,1.19216,1.187802,1.080962
12457,2023-01-20 11:09:19.062811,193397157,0.6653103,1.68888,3.168997,2.145428,2.341097,1.136292,0.9533544,0.9723912
12489,2023-01-20 11:09:19.162868,193497190,0.9648263,2.0818,3.272061,2.155088,2.328957,1.080377,0.8817342,0.7390165
12522,2023-01-20 11:09:19.262910,193597163,1.27406,2.48686,3.370039,2.157239,2.351281,1.024395,0.8448582,0.72497
12557,2023-01-20 11:09:19.363075,193697230,1.592675,2.889906,3.462946,2.165715,2.311244,0.9683255,0.9187996,0.6681247
12589,2023-01-20 11:09:19.463026,193797241,1.92037,3.2903,3.550794,2.180864,2.339768,0.9121444,0.9095076,0.8413814
12620,2023-01-20 11:09:19.562831,193897199,2.256846,3.681127,3.633585,2.209305,2.307027,0.8558277,0.9783813,0.8896839
12653,2023-01-20 11:09:19.662750,193997154,2.601741,4.086422,3.711299,2.226618,2.307502,0.7993634,0.7682613,0.9839809
12687,2023-01-20 11:09:19.762795,194097164,2.95459,4.500875,3.783889,2.237603,2.352584,0.7427551,0.5383556,0.8230328
12721,2023-01-20 11:09:19.862828,194197191,3.314906,4.895983,3.851306,2.270229,2.370477,0.6860088,0.6367301,0.7935835
12752,2023-01-20 11:09:19.962823,194297196,3.682198,5.269175,3.913508,2.32653,2.359514,0.6291296,0.8594306,0.7964451
12785,2023-01-20 11:09:20.062833,194397202,4.055958,5.62909,3.97045,2.397317,2.377967,0.572123,1.052005,0.9543544
12817,2023-01-20 11:09:20.162883,194497240,4.435679,5.974244,4.022092,2.483527,2.384021,0.5149943,1.170628,1.059724
12849,2023-01-20 11:09:20.262806,194597165,4.82085,6.32049,4.068397,2.568758,2.424245,0.4577469,1.180908,1.189261
12883,2023-01-20 11:09:20.362825,194697194,5.210944,6.668628,4.109328,2.651643,2.43553,0.4003865,1.189818,1.172943
12915,2023-01-20 11:09:20.462796,194797183,5.605426,7.030964,4.144847,2.719309,2.478426,0.342918,1.124519,1.218859
12948,2023-01-20 11:09:20.562761,194897171,6.003766,7.395821,4.174924,2.782869,2.494334,0.2853449,1.261947,1.152436
12981,2023-01-20 11:09:20.662772,194997177,6.405422,7.776911,4.199527,2.828038,2.509896,0.2276714,1.214673,1.251395
13014,2023-01-20 11:09:20.762824,195097207,6.809851,8.162111,4.218626,2.866365,2.532651,0.1699016,1.185941,1.217463
13048,2023-01-20 11:09:20.862830,195197207,7.216496,8.553131,4.232191,2.895556,2.587285,0.1120394,0.9736177,1.19381
13079,2023-01-20 11:09:20.962826,195297205,7.624812,8.947531,4.240214,2.917495,2.642732,0.05525425,0.8578336,1.045139
13112,2023-01-20 11:09:21.062783,195397162,8.034255,9.330369,4.243371,2.947257,2.661249,0.01448088,0.9997368,1.036212
13143,2023-01-20 11:09:21.162829,195497206,8.444433,9.697404,4.243904,2.990933,2.619006,0.0005557299,1.239784,1.067319
13177,2023-01-20 11:09:21.262812,195597188,8.855179,10.06427,4.24391,3.034816,2.657968,0,1.369266,1.235342
13211,2023-01-20 11:09:21.362821,195697197,9.266464,10.4253,4.24391,3.085072,2.628994,0,1.524319,1.319198
13243,2023-01-20 11:09:21.462851,195797256,9.678266,10.79197,4.24391,3.130205,2.671425,0,1.564933,1.461576
13274,2023-01-20 11:09:21.562767,195897218,10.09056,11.15597,4.24391,3.1785,2.719009,0,1.593255,1.501421
13307,2023-01-20 11:09:21.662726,195997162,10.50333,11.53806,4.24391,3.209179,2.740908,0,1.510551,1.569297
13340,2023-01-20 11:09:21.762774,196097160,10.91656,11.92756,4.24391,3.232908,2.774919,0,1.508814,1.49665
13374,2023-01-20 11:09:21.862831,196197200,11.33022,12.32431,4.24391,3.249822,2.841644,0,1.394731,1.514075
13405,2023-01-20 11:09:21.962814,196297187,11.74431,12.72538,4.24391,3.262836,2.877155,0,1.441882,1.445664
13438,2023-01-20 11:09:22.062832,196397219,12.15879,13.11047,4.24391,3.292235,2.858552,0,1.652882,1.514096
13469,2023-01-20 11:09:22.162788,196497196,12.57367,13.47688,4.24391,3.340703,2.863666,0,1.892458,1.643861
13503,2023-01-20 11:09:22.262749,196597153,12.98892,13.82879,4.24391,3.40404,2.916197,0,2.099391,1.849214
13537,2023-01-20 11:09:22.362805,196697189,13.40452,14.16717,4.24391,3.481267,2.914711,0,2.305056,2.044327
13569,2023-01-20 11:09:22.462799,196797191,13.82048,14.50674,4.24391,3.55765,2.971618,0,2.320991,2.23586
13600,2023-01-20 11:09:22.562777,196897194,14.23676,14.85254,4.24391,3.62813,3.007709,0,2.337492,2.28842
13633,2023-01-20 11:09:22.662743,196997154,14.65336,15.19846,4.24391,3.698809,3.0837,0,2.36864,2.355659
13666,2023-01-20 11:09:22.762829,197097216,15.07027,15.54101,4.24391,3.773175,3.119366,0,2.482979,2.411768
13700,2023-01-20 11:09:22.862818,197197194,15.48747,15.88914,4.24391,3.842245,3.209949,0,2.551391,2.493949
13731,2023-01-20 11:09:22.962804,197297177,15.90496,16.23929,4.24391,3.909572,3.281591,0,2.5736,2.539884
13764,2023-01-20 11:09:23.062799,197397169,16.32271,16.60281,4.24391,3.963809,3.332654,0,2.686211,2.635338
13795,2023-01-20 11:09:23.162836,197497203,16.74072,16.97923,4.24391,4.005404,3.358837,0,2.726611,2.6601
13829,2023-01-20 11:09:23.262807,197597179,17.15899,17.37229,4.24391,4.030607,3.406987,0,2.606986,2.696176
13863,2023-01-20 11:09:23.362934,197697315,17.57749,17.77269,4.24391,4.048714,3.490392,0,2.489757,2.611172
13895,2023-01-20 11:09:23.462811,197797203,17.99623,18.18069,4.24391,4.059443,3.525192,0,2.494349,2.567298
13926,2023-01-20 11:09:23.562775,197897180,18.41519,18.58881,4.24391,4.07029,3.600727,0,2.477554,2.528996
13959,2023-01-20 11:09:23.662752,197997148,18.83437,18.99399,4.24391,4.084296,3.622847,0,2.545941,2.542432
13992,2023-01-20 11:09:23.762797,198097170,19.25375,19.40043,4.24391,4.097229,3.645248,0,2.594956,2.565861
14026,2023-01-20 11:09:23.862821,198197189,19.67332,19.81561,4.24391,4.101623,3.687894,0,2.55294,2.59491
14057,2023-01-20 11:09:23.962816,198297191,20.09307,20.23057,4.24391,4.106412,3.694671,0,2.551388,2.576239
14090,2023-01-20 11:09:24.062827,198397216,20.51301,20.63849,4.24391,4.118429,3.703885,0,2.703304,2.600217
14121,2023-01-20 11:09:24.162795,198497204,20.93313,21.03666,4.24391,4.140387,3.704259,0,2.83342,2.680065
14155,2023-01-20 11:09:24.262759,198597158,21.35342,21.43489,4.24391,4.162436,3.701648,0,2.947201,2.810747
14189,2023-01-20 11:09:24.362820,198697193,21.77386,21.83875,4.24391,4.17902,3.748435,0,2.86319,2.851179
14222,2023-01-20 11:09:24.462821,198797202,22.19446,22.23844,4.24391,4.199924,3.774897,0,2.883097,2.88378
14253,2023-01-20 11:09:24.562762,198897172,22.61521,22.63167,4.24391,4.22745,3.827794,0,2.865542,2.902817
14286,2023-01-20 11:09:24.662789,198997207,23.03612,23.04045,4.24391,4.239572,3.845918,0,2.750759,2.880105
14319,2023-01-20 11:09:24.762772,199097184,23.45715,23.4567,4.24391,4.244359,3.910445,0,2.640889,2.787839
14353,2023-01-20 11:09:24.862803,199197201,23.87831,23.88203,4.24391,4.240192,3.965713,0,2.486433,2.707908
14384,2023-01-20 11:09:24.962814,199297193,24.29959,24.3202,4.24391,4.223302,4.033922,0,2.357469,2.540435
14417,2023-01-20 11:09:25.062792,199397164,24.72099,24.77259,4.24391,4.192311,4.072036,0,2.184826,2.428258
14448,2023-01-20 11:09:25.162828,199497199,25.14254,25.22961,4.24391,4.156837,4.08931,0,1.982828,2.231392
14482,2023-01-20 11:09:25.262795,199597160,25.56418,25.6893,4.24391,4.118783,4.164301,0,1.821399,2.063367
14516,2023-01-20 11:09:25.362904,199697259,25.98591,26.14539,4.24391,4.084425,4.152166,0,1.903773,1.932642
14548,2023-01-20 11:09:25.462805,199797180,26.40778,26.59518,4.24391,4.056515,4.138563,0,2.024107,1.94808
14581,2023-01-20 11:09:25.562748,199897160,26.82972,27.04297,4.24391,4.030658,4.093264,0,2.1374,2.025744
14614,2023-01-20 11:09:25.662758,199997167,27.25177,27.49706,4.24391,3.998622,4.093526,0,2.032783,2.115808
14647,2023-01-20 11:09:25.762778,200097161,27.67392,27.94921,4.24391,3.96862,4.069869,0,1.937213,2.086263
14681,2023-01-20 11:09:25.862821,200197191,28.09613,28.40165,4.24391,3.938385,4.074357,0,1.832345,2.026254
14712,2023-01-20 11:09:25.962873,200297237,28.51845,28.84904,4.24391,3.913324,4.059136,0,1.843965,1.960599
14745,2023-01-20 11:09:26.062786,200397164,28.94083,29.29626,4.24391,3.88848,4.037269,0,1.767669,1.947147
14776,2023-01-20 11:09:26.162776,200497180,29.36332,29.74743,4.24391,3.859796,4.015156,0,1.787195,1.874683
14810,2023-01-20 11:09:26.262769,200597167,29.78586,30.19074,4.24391,3.83903,4.006847,0,1.876073,1.885426
14844,2023-01-20 11:09:26.362825,200697197,30.20848,30.62178,4.24391,3.830609,3.971413,0,1.92506,1.902475
14876,2023-01-20 11:09:26.462796,200797178,30.63118,31.05573,4.24391,3.819352,3.915713,0,2.081902,1.960369
14907,2023-01-20 11:09:26.562758,200897170,31.05389,31.48328,4.24391,3.814523,3.884098,0,2.166568,2.055635
14940,2023-01-20 11:09:26.662789,200997210,31.47676,31.90547,4.24391,3.815202,3.838166,0,2.29585,2.177263
14973,2023-01-20 11:09:26.762748,201097166,31.89962,32.32823,4.24391,3.815297,3.815129,0,2.210963,2.206146
15007,2023-01-20 11:09:26.862795,201197193,32.32256,32.7649,4.24391,3.801569,3.814753,0,2.145263,2.236871
15038,2023-01-20 11:09:26.962816,201297183,32.74558,33.20367,4.24391,3.785822,3.778687,0,2.089882,2.169674
15071,2023-01-20 11:09:27.062801,201397162,33.16861,33.64439,4.24391,3.768126,3.776726,0,2.033904,2.148805
15102,2023-01-20 11:09:27.162822,201497192,33.59171,34.08123,4.24391,3.754384,3.778733,0,2.007613,2.090441
15136,2023-01-20 11:09:27.262826,201597207,34.01489,34.51022,4.24391,3.748578,3.774664,0,2.013323,2.08318
15170,2023-01-20 11:09:27.362803,201697195,34.43808,34.93827,4.24391,3.74372,3.785305,0,1.968372,2.048277
15202,2023-01-20 11:09:27.462808,201797199,34.86129,35.36568,4.24391,3.739513,3.801258,0,1.919022,2.029591
15233,2023-01-20 11:09:27.562784,201897166,35.28463,35.78661,4.24391,3.741935,3.81356,0,1.96841,1.99323
15266,2023-01-20 11:09:27.662791,201997166,35.70798,36.20713,4.24391,3.744765,3.836938,0,1.950208,1.983105
15299,2023-01-20 11:09:27.762802,202097171,36.13133,36.62333,4.24391,3.751911,3.820047,0,1.949337,1.946915
15333,2023-01-20 11:09:27.862841,202197208,36.55471,37.04522,4.24391,3.753405,3.803204,0,1.991621,1.961559
15365,2023-01-20 11:09:27.962955,202297322,36.97823,37.47518,4.24391,3.746955,3.793881,0,1.918468,1.93685
15397,2023-01-20 11:09:28.062816,202397179,37.40174,37.90073,4.24391,3.744921,3.846252,0,1.850885,1.90418
15428,2023-01-20 11:09:28.162831,202497187,37.82525,38.3175,4.24391,3.751659,3.850111,0,1.884062,1.889046
15462,2023-01-20 11:09:28.262798,202597156,38.24876,38.73308,4.24391,3.759591,3.843655,0,1.775637,1.861111
15496,2023-01-20 11:09:28.362839,202697203,38.67237,39.14427,4.24391,3.772011,3.86232,0,1.88932,1.84939
15528,2023-01-20 11:09:28.457126,202797192,39.09604,39.5506,4.24391,3.789352,3.854231,0,2.134287,1.970397
15559,2023-01-20 11:09:28.548074,202897215,39.51971,39.95884,4.24391,3.804779,3.824445,0,2.066767,2.070212
15592,2023-01-20 11:09:28.642851,202997173,39.94338,40.37287,4.24391,3.814425,3.888238,0,1.780961,2.051502
15625,2023-01-20 11:09:28.742847,203097168,40.36705,40.7836,4.24391,3.827362,3.807831,0,2.175726,2.058641
15659,2023-01-20 11:09:28.842873,203197194,40.79073,41.20317,4.24391,3.831474,3.829672,0,2.183381,2.1744
15691,2023-01-20 11:09:28.942862,203297184,41.21456,41.62285,4.24391,3.835619,3.801003,0,2.207579,2.227004
15723,2023-01-20 11:09:29.042840,203397160,41.63839,42.04082,4.24391,3.841479,3.81201,0,2.176517,2.261636
15754,2023-01-20 11:09:29.142889,203497203,42.06223,42.46191,4.24391,3.844228,3.802624,0,2.127711,2.233434
15788,2023-01-20 11:09:29.242881,203597203,42.48606,42.88385,4.24391,3.846127,3.782183,0,2.169452,2.241874
15822,2023-01-20 11:09:29.342848,203697195,42.9099,43.30013,4.24391,3.853676,3.758797,0,2.281331,2.250162
15854,2023-01-20 11:09:29.442817,203797184,43.33373,43.72479,4.24391,3.852851,3.78712,0,2.230783,2.306699
15886,2023-01-20 11:09:29.542794,203897176,43.75756,44.15098,4.24391,3.850492,3.779488,0,2.181675,2.272918
15919,2023-01-20 11:09:29.642831,203997175,44.1815,44.5628,4.24391,3.862616,3.753188,0,2.298963,2.293854
15953,2023-01-20 11:09:29.742942,204097175,44.6055,44.96941,4.24391,3.879999,3.730116,0,2.431049,2.34771
15987,2023-01-20 11:09:29.843049,204197249,45.0295,45.3854,4.24391,3.888007,3.767296,0,2.422765,2.431527
16019,2023-01-20 11:09:29.942922,204297192,45.45349,45.80194,4.24391,3.895458,3.785417,0,2.379061,2.417548
16051,2023-01-20 11:09:30.042843,204397172,45.87748,46.21751,4.24391,3.903886,3.782127,0,2.397268,2.429425
16082,2023-01-20 11:09:30.142817,204497191,46.30148,46.62883,4.24391,3.916566,3.799342,0,2.408698,2.427436
16116,2023-01-20 11:09:30.242769,204597162,46.72548,47.03355,4.24391,3.935839,3.780805,0,2.509241,2.472878
16150,2023-01-20 11:09:30.342829,204697207,47.14948,47.4394,4.24391,3.953983,3.789951,0,2.537786,2.50033
16182,2023-01-20 11:09:30.442801,204797178,47.57347,47.85101,4.24391,3.966366,3.785964,0,2.543233,2.545856
16215,2023-01-20 11:09:30.542814,204897209,47.99747,48.26159,4.24391,3.979794,3.801869,0,2.519315,2.535977
16248,2023-01-20 11:09:30.642761,204997170,48.4215,48.68477,4.24391,3.980644,3.840514,0,2.436488,2.530229
16281,2023-01-20 11:09:30.742757,205097171,48.84566,49.11185,4.24391,3.977714,3.845236,0,2.422761,2.467424
16315,2023-01-20 11:09:30.842788,205197190,49.26982,49.51753,4.24391,3.996195,3.85305,0,2.572862,2.478456
16390,2023-01-20 11:09:30.942829,205297196,49.69397,49.913,4.24391,4.024887,3.844029,0,2.764696,2.594443
16422,2023-01-20 11:09:31.042809,205397159,50.11814,50.32135,4.24391,4.040702,3.846268,0,2.711183,2.690263
16453,2023-01-20 11:09:31.142894,205497250,50.54229,50.73394,4.24391,4.052255,3.871248,0,2.63382,2.668324
16487,2023-01-20 11:09:31.242826,205597189,50.96645,51.1418,4.24391,4.068563,3.875162,0,2.638012,2.670254
16521,2023-01-20 11:09:31.342853,205697224,51.39061,51.54418,4.24391,4.090336,3.936483,0,2.667564,2.673886
16552,2023-01-20 11:09:31.443054,205797436,51.81477,51.95069,4.24391,4.107987,3.937172,0,2.727831,2.723902
16583,2023-01-20 11:09:31.542772,205897171,52.23893,52.36644,4.24391,4.116405,3.976687,0,2.625911,2.717491
16616,2023-01-20 11:09:31.642760,205997159,52.66309,52.78759,4.24391,4.119408,4.006842,0,2.502205,2.688418
16649,2023-01-20 11:09:31.742779,206097159,53.08725,53.20675,4.24391,4.124408,4.02354,0,2.628486,2.676823
16683,2023-01-20 11:09:31.842872,206197239,53.5114,53.62255,4.24391,4.132758,3.999093,0,2.641158,2.671131
16715,2023-01-20 11:09:31.942827,206297191,53.93556,54.03229,4.24391,4.147182,4.028954,0,2.622543,2.672323
16747,2023-01-20 11:09:32.042797,206397159,54.35971,54.41389,4.24391,4.189735,4.027986,0,2.902312,2.714686
16778,2023-01-20 11:09:32.142834,206497195,54.78387,54.78529,4.24391,4.242499,4.056667,0,2.991903,2.862638
16812,2023-01-20 11:09:32.242815,206597178,55.20803,55.16998,4.24391,4.281957,4.041649,0,3.045227,2.973948
16846,2023-01-20 11:09:32.342821,206697190,55.63219,55.56137,4.24391,4.314725,4.073414,0,2.985645,3.004496
16878,2023-01-20 11:09:32.443126,206797508,56.05635,55.97064,4.24391,4.329613,4.128709,0,2.799655,2.96925
16909,2023-01-20 11:09:32.542763,206897165,56.48051,56.38952,4.24391,4.334897,4.198049,0,2.692196,2.863494
16942,2023-01-20 11:09:32.642743,206997157,56.90466,56.81511,4.24391,4.333466,4.205146,0,2.655055,2.789629
16975,2023-01-20 11:09:32.742758,207097175,57.32882,57.25245,4.24391,4.320287,4.233796,0,2.582914,2.696957
17009,2023-01-20 11:09:32.842800,207197205,57.75298,57.6916,4.24391,4.305292,4.212393,0,2.653518,2.672027
17041,2023-01-20 11:09:32.942806,207297182,58.17714,58.1269,4.24391,4.294149,4.237005,0,2.643856,2.647685
17073,2023-01-20 11:09:33.042812,207397171,58.60129,58.56755,4.24391,4.277655,4.220778,0,2.624234,2.657755
17104,2023-01-20 11:09:33.142868,207497225,59.02545,59.00742,4.24391,4.261947,4.199836,0,2.670053,2.652802
17138,2023-01-20 11:09:33.242792,207597163,59.44961,59.43782,4.24391,4.255697,4.162407,0,2.784451,2.693744
17172,2023-01-20 11:09:33.342800,207697203,59.87377,59.86784,4.24391,4.249838,4.199049,0,2.744191,2.71982
17204,2023-01-20 11:09:33.443055,207797476,60.29793,60.29699,4.24391,4.244848,4.192778,0,2.810278,2.752046
17235,2023-01-20 11:09:33.542735,207897154,60.72208,60.72045,4.24391,4.245541,4.17135,0,2.758911,2.767789
17268,2023-01-20 11:09:33.642762,207997171,61.14624,61.15501,4.24391,4.235146,4.176236,0,2.700526,2.758294
17301,2023-01-20 11:09:33.742843,208097229,61.5704,61.59348,4.24391,4.220834,4.158472,0,2.642163,2.707893
17335,2023-01-20 11:09:33.842877,208197247,61.99456,62.04259,4.24391,4.195883,4.200542,0,2.467997,2.653299
17367,2023-01-20 11:09:33.942841,208297204,62.41871,62.50525,4.24391,4.157377,4.20599,0,2.336452,2.525233
17399,2023-01-20 11:09:34.042832,208397190,62.84288,62.96778,4.24391,4.118998,4.229797,0,2.25964,2.436662
17430,2023-01-20 11:09:34.142835,208497190,63.26703,63.4232,4.24391,4.087743,4.176344,0,2.320656,2.362874
17464,2023-01-20 11:09:34.242817,208597172,63.69119,63.88049,4.24391,4.054613,4.2164,0,2.233186,2.354582
17498,2023-01-20 11:09:34.342846,208697202,64.11535,64.33407,4.24391,4.025189,4.147971,0,2.306,2.317547
17530,2023-01-20 11:09:34.443113,208797480,64.53983,64.78194,4.24391,4.001801,4.151997,0,2.255733,2.314231
17561,2023-01-20 11:09:34.542778,208897169,64.96431,65.23048,4.24391,3.977738,4.109634,0,2.242377,2.293152
17595,2023-01-20 11:09:34.642788,208997185,65.38879,65.68221,4.24391,3.950487,4.112686,0,2.163774,2.273358
17628,2023-01-20 11:09:34.742779,209097157,65.81327,66.13005,4.24391,3.927133,4.080997,0,2.159489,2.208081
17662,2023-01-20 11:09:34.842833,209197198,66.23775,66.58251,4.24391,3.899159,4.087306,0,2.099629,2.198323
17694,2023-01-20 11:09:34.942818,209297179,66.66223,67.03259,4.24391,3.873554,4.053504,0,2.106967,2.149521
17726,2023-01-20 11:09:35.042850,209397209,67.08672,67.47002,4.24391,3.860614,4.050865,0,2.108922,2.136988
17757,2023-01-20 11:09:35.142889,209497248,67.5112,67.90352,4.24391,3.851591,4.029562,0,2.203123,2.158799
17791,2023-01-20 11:09:35.242790,209597163,67.93568,68.34033,4.24391,3.839257,3.987237,0,2.144002,2.205105
17825,2023-01-20 11:09:35.342832,209697235,68.36016,68.77375,4.24391,3.830326,3.975919,0,2.12715,2.175154
17857,2023-01-20 11:09:35.443041,209797453,68.78465,69.21542,4.24391,3.813143,4.008546,0,2.067561,2.179293
17890,2023-01-20 11:09:35.542777,209897172,69.20912,69.65696,4.24391,3.796078,3.949081,0,2.093915,2.128281
17923,2023-01-20 11:09:35.642812,209997193,69.63361,70.09155,4.24391,3.785966,3.924039,0,2.081925,2.123114
17956,2023-01-20 11:09:35.742853,210097226,70.05809,70.52518,4.24391,3.776815,3.930765,0,2.117014,2.116399
17990,2023-01-20 11:09:35.842827,210197202,70.48257,70.95967,4.24391,3.766806,3.890898,0,2.134124,2.149381
18022,2023-01-20 11:09:35.942790,210297180,70.90705,71.3926,4.24391,3.758363,3.869636,0,2.122391,2.146621
18054,2023-01-20 11:09:36.042767,210397156,71.33154,71.81047,4.24391,3.764979,3.86883,0,2.211013,2.193264
18085,2023-01-20 11:09:36.142822,210497188,71.75601,72.22267,4.24391,3.777255,3.830562,0,2.337377,2.242958
18119,2023-01-20 11:09:36.242809,210597162,72.1805,72.63487,4.24391,3.789535,3.817464,0,2.364743,2.333193
18153,2023-01-20 11:09:36.342898,210697251,72.60498,73.04121,4.24391,3.807685,3.826905,0,2.395007,2.389974
18185,2023-01-20 11:09:36.439015,210797236,73.02946,73.44749,4.24391,3.825873,3.810142,0,2.485116,2.453292
18216,2023-01-20 11:09:36.529946,210897183,73.45394,73.84989,4.24391,3.847963,3.807197,0,2.548796,2.500353
18249,2023-01-20 11:09:36.622979,210997160,73.87843,74.24442,4.24391,3.877914,3.783758,0,2.634839,2.567196
18282,2023-01-20 11:09:36.722988,211097166,74.3029,74.6497,4.24391,3.897113,3.774073,0,2.616318,2.593542
18316,2023-01-20 11:09:36.823041,211197213,74.72739,75.04939,4.24391,3.921903,3.800958,0,2.693557,2.635377
18348,2023-01-20 11:09:36.923046,211297204,75.15187,75.45078,4.24391,3.945004,3.787606,0,2.735851,2.665563
18380,2023-01-20 11:09:37.023056,211397207,75.57635,75.84631,4.24391,3.973949,3.768348,0,2.847022,2.717065
18411,2023-01-20 11:09:37.123040,211497207,76.00083,76.23634,4.24391,4.008402,3.789573,0,2.926539,2.789357
18445,2023-01-20 11:09:37.222967,211597154,76.42532,76.62465,4.24391,4.044579,3.829379,0,2.900594,2.873007
18479,2023-01-20 11:09:37.322989,211697209,76.84979,77.03119,4.24391,4.062514,3.875775,0,2.791951,2.857501
18511,2023-01-20 11:09:37.425525,211797237,77.27427,77.43743,4.24391,4.080751,3.877115,0,2.806775,2.836517
18542,2023-01-20 11:09:37.536473,211897176,77.69875,77.84895,4.24391,4.09371,3.920074,0,2.711984,2.799978
18575,2023-01-20 11:09:37.638882,211997161,78.12324,78.25859,4.24391,4.108563,3.949357,0,2.714817,2.766965
18608,2023-01-20 11:09:37.729878,212097233,78.54771,78.66435,4.24391,4.127279,3.992262,0,2.738956,2.762784
18642,2023-01-20 11:09:37.822871,212197217,78.9722,79.06785,4.24391,4.148261,4.0092,0,2.753334,2.769998
18674,2023-01-20 11:09:37.922854,212297182,79.39669,79.48321,4.24391,4.157392,4.007403,0,2.757587,2.751934
18706,2023-01-20 11:09:38.022847,212397164,79.82117,79.89573,4.24391,4.169354,4.07835,0,2.769747,2.758446
18737,2023-01-20 11:09:38.122874,212497202,80.24564,80.30498,4.24391,4.184579,4.039865,0,2.819829,2.775059
18771,2023-01-20 11:09:38.222831,212597172,80.67013,80.72108,4.24391,4.192953,4.057359,0,2.765517,2.778735
18805,2023-01-20 11:09:38.322899,212697256,81.0946,81.14931,4.24391,4.189203,4.129818,0,2.584918,2.712894
18837,2023-01-20 11:09:38.422802,212797176,81.51909,81.57455,4.24391,4.188456,4.123885,0,2.619722,2.669904
18868,2023-01-20 11:09:38.522771,212897160,81.94357,82.0155,4.24391,4.171977,4.129048,0,2.516964,2.607671
