LineNo,UTC_Approx,TimeUS,RDes,R,ROut,PDes,P,POut,YDes,Y,YOut,ADes,A,AOut
674,2023-01-20 11:08:47.421786,161676519,9.127155,0.03650197,0.02125516,-3.053786,-0.03455582,-0.007275044,34.8353,0.04089973,0.03951022,-0.7143974,-0.7143974,0
1027,2023-01-20 11:08:47.516785,161776518,8.92091,-0.02505309,0.02113353,-4.02174,-0.02109392,-0.009801463,80.49108,-0.01382625,0.1386489,0.4435539,0.4435539,0
1143,2023-01-20 11:08:47.631323,161893827,8.716278,0.02988811,0.02030564,-4.989222,0.0198774,-0.0123594,129.9985,0.06108547,0.2767338,-0.5966187,-0.5966187,0
1406,2023-01-20 11:08:47.739264,161996224,8.543842,0.01327234,0.0200818,-5.961135,-0.01200453,-0.01443143,176.8675,-0.04235302,0.423598,0.1750946,0.1750946,0
1825,2023-01-20 11:08:47.842803,162096748,8.369275,0.006621961,0.01966161,-6.952123,0.0430921,-0.01692164,211.6799,0.005479999,0.5618162,0.7507324,0.7507324,0
1870,2023-01-20 11:08:47.942573,162196760,8.179693,0.007804123,0.01903982,-7.956313,0.008410847,-0.01927691,238.6606,0.04279827,0.6656578,0.2318382,0.2318382,0
1917,2023-01-20 11:08:48.042432,162296756,7.986341,-0.009726951,0.01875611,-8.926728,-0.04210663,-0.02133456,265.6418,0.0003676129,0.7559512,-0.3428459,-0.3428459,0
1963,2023-01-20 11:08:48.142426,162396746,7.924517,-0.02497257,0.01871369,-9.345345,0.01610213,-0.02213363,277.7833,-0.04180682,0.832899,0.106144,0.106144,0
2016,2023-01-20 11:08:48.242446,162496749,7.962262,-0.02584507,0.01898202,-9.30012,-0.05963569,-0.02165837,277.7835,0.04804031,0.861142,-0.7857323,-0.7857323,0
2057,2023-01-20 11:08:48.342514,162596784,8.002525,-0.04856312,0.01931766,-9.259965,-0.04823855,-0.02146728,277.7836,-0.01563536,0.869314,-0.5405426,-0.5405426,0
2113,2023-01-20 11:08:48.438676,162696771,8.024953,-0.03276539,0.01935181,-9.241226,-0.05576431,-0.02129909,277.7836,0.02305022,0.8717372,0.7561684,0.7561684,0
2174,2023-01-20 11:08:48.529638,162796775,8.151969,-0.1012958,0.01939116,-9.186351,-0.02443579,-0.02179168,277.7863,0.06077012,0.8724222,-1.06945,-1.06945,0
2234,2023-01-20 11:08:48.622672,162896799,8.010627,0.02586914,0.01875347,-9.237028,-0.001301781,-0.02169571,277.7839,0.00810062,0.8725773,0.1937866,0.1937866,0
2288,2023-01-20 11:08:48.722638,162996745,8.003049,0.008370915,0.01908516,-9.214437,-0.04261723,-0.02146411,277.7844,0.01316052,0.8726375,-0.9696007,-0.9696007,0
2343,2023-01-20 11:08:48.822645,163096737,8.020889,0.01051483,0.01867118,-9.205872,-0.01523518,-0.02163567,277.7843,-0.0501855,0.8726885,-0.1761436,-0.1761436,0
2397,2023-01-20 11:08:48.922681,163196772,8.048612,-0.06328208,0.01926115,-8.985853,-0.01818874,-0.02099075,272.3885,0.03391154,0.8717575,1.078415,1.078415,0
2439,2023-01-20 11:08:49.022654,163296748,8.231574,-0.02351733,0.01985195,-7.989587,-0.03673095,-0.01817842,245.4074,0.01609033,0.8297804,1.488304,1.488304,0
2483,2023-01-20 11:08:49.122653,163396763,8.423495,0.0319346,0.01988439,-6.993213,0.02106648,-0.01640368,218.4261,0.03536333,0.7574131,0.3133774,0.3133774,0
2525,2023-01-20 11:08:49.225127,163496753,8.615709,0.02061451,0.02036914,-5.990917,0.02332171,-0.01386653,191.4447,0.02977376,0.6762378,-1.111603,-1.111603,0
2565,2023-01-20 11:08:49.336162,163596752,9.423656,-0.001218747,0.02305687,-1.708014,0.02207727,0.001113561,-0.03159612,0.01061268,0.516021,-1.491642,-1.491642,0
2606,2023-01-20 11:08:49.442490,163696763,9.426594,0.07265822,0.0216631,-1.694061,0.01051835,-0.003931978,-0.03134988,-0.002252769,0.1516291,0.1629829,0.1629829,0
2646,2023-01-20 11:08:49.542462,163796800,9.403754,0.3295945,0.02102666,-1.697016,0.5090747,-0.007128335,-0.03135057,-0.1257422,0.04445029,1.371384,1.371384,0
2686,2023-01-20 11:08:49.638568,163896745,9.405447,-0.01869235,0.02254269,-1.685233,-0.09301906,-0.003710304,-0.03110467,-0.935901,0.01298515,-0.4926682,-0.4926682,0
2724,2023-01-20 11:08:49.729627,163996781,9.398209,-0.1107991,0.02273052,-1.683296,-0.3334816,-0.001522553,-0.03110456,-1.160953,0.003558835,-0.7866859,-0.7866859,0
2767,2023-01-20 11:08:49.822625,164096721,9.400515,-0.002269353,0.02259624,-1.691585,-0.01169386,-0.003221021,-0.03135052,-0.8538533,0.0007120883,-1.626301,-1.626301,0
2805,2023-01-20 11:08:49.922623,164196743,9.394656,0.1572636,0.0207765,-1.679575,-0.2423676,-0.001518621,-0.03110338,-1.147382,-6.532621E-05,0.2902031,0.2902031,0
2847,2023-01-20 11:08:50.022623,164296752,9.400211,0.09101067,0.02107357,-1.672075,-0.291592,-0.00180409,-0.03085878,-1.963332,9.993585E-05,0.0041008,0.0041008,0
2886,2023-01-20 11:08:50.122655,164396747,9.394229,0.07253503,0.02105724,-1.679612,0.005220389,-0.005233434,-0.0311032,-1.132261,0.0005309698,-1.540756,-1.540756,0
2929,2023-01-20 11:08:50.222728,164496800,9.382894,0.05703238,0.02173642,-1.679254,-0.008296979,-0.004225194,-0.03097989,1.308601,0.0002721657,-0.4792213,-0.4792213,0
2967,2023-01-20 11:08:50.322659,164596772,9.381322,0.1058129,0.02202584,-1.673869,-0.1333628,-0.002762472,-0.03085602,1.985292,-0.0002927576,-0.1132965,-0.1132965,0
3007,2023-01-20 11:08:50.422614,164696769,9.38897,-0.2206538,0.02448285,-1.673621,-0.009181628,-0.003914497,-0.03085859,0.2272282,-0.0006731029,-0.9052277,-0.9052277,0
3049,2023-01-20 11:08:50.522549,164796751,9.377493,-0.09721965,0.02251516,-1.664511,-0.1126644,-0.003853762,-0.03073378,-2.186856,-0.0001386409,-1.756763,-1.756763,0
3089,2023-01-20 11:08:50.622533,164896759,9.381289,-0.06684358,0.02181411,-1.657384,0.1783891,-0.005859535,-0.05138817,-1.721577,0.00136245,-1.3381,-1.3381,0
3127,2023-01-20 11:08:50.722592,164996760,9.334319,-0.9186519,0.03248803,-1.683283,-1.37185,0.005526356,-0.1856445,-2.803524,-0.001304622,3.697491,3.697491,0
3168,2023-01-20 11:08:50.822597,165096735,9.272312,0.9629084,0.01922332,-1.651308,-0.9792485,0.003443525,-0.1099111,-3.7741,-3.332733E-05,-4.452038,-4.452038,0
3206,2023-01-20 11:08:50.922625,165196827,9.273703,0.3417522,0.02286763,-1.674557,-0.604051,-2.465816E-05,-0.2418297,0.3555002,-0.0005153434,-8.046913,-8.046913,0
3248,2023-01-20 11:08:51.022513,165296762,9.298306,-0.1070491,0.02655919,-1.668282,-0.0666794,-0.004909759,-0.1900699,-1.710519,-0.0004170107,-1.664543,-1.664543,0
3286,2023-01-20 11:08:51.122529,165396763,9.32343,-0.5124877,0.02855167,-1.677679,0.6745561,-0.0106868,-0.3262918,3.038875,-0.0007015898,-2.169704,-2.169704,0
3329,2023-01-20 11:08:51.222569,165496802,9.294262,0.2011632,0.02291709,-1.725452,0.8222725,-0.009636295,-0.3057602,1.677836,-0.001413318,2.664375,2.664375,0
3367,2023-01-20 11:08:51.322488,165596765,9.296838,0.3403446,0.02353471,-1.62846,-0.7154244,0.00284942,-0.2120773,-2.528371,-0.0008368816,2.858162,2.858162,0
3407,2023-01-20 11:08:51.422471,165696786,9.323054,-0.8228276,0.03323811,-1.653608,-0.2428273,-0.004584825,-0.280065,-0.3537693,-0.0007230798,0.4218102,0.4218102,0
3447,2023-01-20 11:08:51.522430,165796761,9.29087,-0.1042296,0.02598489,-1.678791,1.05342,-0.01394051,-0.2739177,-0.2215217,-0.0007494977,-0.2392769,-0.2392769,0
3488,2023-01-20 11:08:51.622412,165896755,9.289096,0.3768745,0.02125687,-1.655373,-0.3485579,-0.000624645,-0.3700596,2.236779,-0.001213011,-4.686069,-4.686069,0
3525,2023-01-20 11:08:51.722428,165996763,9.242415,1.269326,0.014087,-1.658108,0.6492104,-0.008994922,-0.3090797,-1.110996,-0.001381747,3.461838,3.461838,0
3568,2023-01-20 11:08:51.822419,166096750,9.274577,0.4084693,0.02329047,-1.611707,-1.116476,0.004358643,-0.2776061,-2.315753,-0.0007902914,-3.452873,-3.452873,0
3606,2023-01-20 11:08:51.922443,166196777,9.314899,-1.405827,0.03678661,-1.627475,0.03313664,-0.007271611,-0.3287506,-1.096384,-0.0008592238,0.5894661,0.5894661,0
3648,2023-01-20 11:08:52.022434,166296769,9.26662,0.4843431,0.0226718,-1.618131,0.1009935,-0.003774376,-0.3837063,1.750451,-0.0008672512,-5.293083,-5.293083,0
3684,2023-01-20 11:08:52.122436,166396763,9.296263,-1.066356,0.03302275,-1.614643,0.1630889,-0.00627582,-0.4282118,1.891616,-0.001676914,2.094841,2.094841,0
3719,2023-01-20 11:08:52.222476,166496799,9.249385,0.6550382,0.01945933,-1.581626,0.01338738,-0.0023584,-0.3452251,-1.50998,-0.001393748,-0.9171486,-0.9171486,0
3749,2023-01-20 11:08:52.322438,166596763,9.267473,0.7918102,0.02066735,-1.563327,-1.424524,0.008610379,-0.3571504,-1.459823,-0.001240816,-2.289295,-2.289295,0
3782,2023-01-20 11:08:52.422453,166696786,9.251286,0.0133479,0.02434361,-1.593007,-0.08383919,-0.005913781,-0.3523556,-1.934772,-0.0005354905,-0.9811401,-0.9811401,0
3814,2023-01-20 11:08:52.522449,166796807,9.266901,0.6118054,0.02106401,-1.606691,0.6821562,-0.007917313,-0.4745614,3.774158,-0.001221059,-4.345894,-4.345894,0
3847,2023-01-20 11:08:52.622376,166896747,9.293508,-0.4692943,0.02854937,-1.58606,-0.356703,-0.002362029,-0.404115,-0.493165,-0.001668206,2.229595,2.229595,0
3877,2023-01-20 11:08:52.722407,166996745,9.224118,1.514906,0.01264016,-1.571305,-0.1480875,-0.003365689,-0.4181305,-1.106283,-0.001190415,0.6234169,0.6234169,0
3912,2023-01-20 11:08:52.822409,167096721,9.209106,0.768221,0.0204812,-1.56347,-0.9694439,0.004912384,-0.4380472,-0.8436745,-0.001609204,0.7507324,0.7507324,0
3942,2023-01-20 11:08:52.922453,167196763,9.248714,-0.7422256,0.03009007,-1.555284,0.2427197,-0.008242575,-0.4103851,-1.039641,-0.0006639067,-6.447601,-6.447601,0
3977,2023-01-20 11:08:53.022456,167296772,9.247726,0.2197942,0.02231514,-1.581291,0.5830258,-0.007106337,-0.5443934,3.630858,-0.001646844,-1.68705,-1.68705,0
4007,2023-01-20 11:08:53.122401,167396748,9.271,-0.1924982,0.02719581,-1.511137,-1.047471,0.004822677,-0.4373097,-2.329789,-0.001447215,3.362179,3.362179,0
4042,2023-01-20 11:08:53.222432,167496801,9.116276,0.5313708,0.02035989,1.070391,1.064273,-0.004757964,-0.5251546,3.375645,-0.001648252,0.7126808,0.7126808,0.002662892
4072,2023-01-20 11:08:53.322460,167596819,8.816578,0.2193531,0.02638162,0.3361987,-0.01236189,0.001675037,-0.4561015,-0.8634852,-0.002035126,-3.206825,-3.206825,0.03319595
4105,2023-01-20 11:08:53.422443,167696803,9.194128,0.2551152,0.03000962,0.55465,0.5440473,-0.008629947,-0.5486872,2.396175,-0.001902506,4.211521,4.211521,0.07757053
4137,2023-01-20 11:08:53.522424,167796824,9.230693,0.2658905,0.03600171,-0.8912473,1.27855,-0.01486181,-0.546454,-0.2357597,-0.001710723,-1.815224,-1.815224,0.1259609
4170,2023-01-20 11:08:53.622401,167896826,8.566041,-1.039643,0.04993443,-0.9332307,2.168145,-0.02041963,-0.6426783,0.7356046,-0.001659885,-8.232975,-8.232975,0.1755139
4200,2023-01-20 11:08:53.722406,167996799,7.928106,-0.2276316,0.02785092,0.4120499,-2.889744,0.02294592,0.1401609,-6.882149,0.002910412,0.500679,0.500679,0.2253997
4235,2023-01-20 11:08:53.822428,168096800,5.755662,2.242449,0.01744111,0.2914665,-0.1521371,0.009268852,2.493556,-4.198395,0.01579757,12.21638,12.21638,0.275381
4265,2023-01-20 11:08:53.922447,168196835,0.7019893,8.095362,-0.02386785,3.759518,6.892088,-0.04825151,1.916667,0.07828929,0.006853787,30.75409,30.75409,0.3253635
4301,2023-01-20 11:08:54.022518,168296922,-5.914879,-0.472196,0.03160427,-1.341221,6.665113,-0.05489342,0.6855821,1.745255,-5.969715E-05,122.7622,122.7622,0.375294
4332,2023-01-20 11:08:54.122396,168396813,-5.31819,-3.338803,-0.007689687,-5.036896,11.90295,-0.0967977,-1.182992,3.373963,-0.00905904,62.74958,206.3125,0.379247
4367,2023-01-20 11:08:54.222366,168496787,-2.597826,-14.92875,0.07891249,-8.195796,-0.5748873,-0.01593524,-2.931087,1.449678,-0.01432062,-46.63527,150.9909,0.3333784
4397,2023-01-20 11:08:54.322456,168596853,-9.078303,-0.4842089,0.01561579,-7.191259,-13.93328,0.01625955,-1.995342,-4.050731,-0.004824599,-111.8389,66.69168,0.3035013
4430,2023-01-20 11:08:54.422418,168696804,-14.19931,4.71285,-0.04074217,-3.152425,3.316293,-0.05757632,1.712081,-11.61187,0.01728385,-117.7072,6.011295,0.30175
4462,2023-01-20 11:08:54.522410,168796834,-18.60313,-6.676207,0.0005964264,-0.7271096,-5.710102,0.01787154,5.719767,-6.533812,0.03341296,-116.1122,-52.3469,0.3059288
4495,2023-01-20 11:08:54.622432,168896881,-21.4611,-8.040645,-0.02408054,6.84403,-4.710185,0.04136564,5.893526,1.914113,0.02481128,-84.16932,-36.54823,0.3257674
4525,2023-01-20 11:08:54.722384,168996817,-16.18585,-8.497353,-0.06314279,8.25396,15.51823,-0.0547035,3.247578,5.062056,0.006005013,-76.11948,22.02768,0.3107167
4560,2023-01-20 11:08:54.822388,169096806,-14.66261,-6.039313,-0.04278943,13.07716,2.943397,0.01797531,0.1154308,7.650165,-0.007931416,-84.67986,-28.17707,0.2994129
4590,2023-01-20 11:08:54.922526,169196933,-6.223378,-9.377018,0.01438686,15.90358,8.2349,0.007934998,-4.504133,9.821965,-0.02971937,-71.95166,-56.21519,0.3113481
4625,2023-01-20 11:08:55.022438,169296834,-2.913057,-4.601376,0.007886875,11.35286,7.850024,0.0246115,-8.659569,9.083585,-0.04304559,-42.8039,-32.6478,0.3184956
4655,2023-01-20 11:08:55.122436,169396822,0.3337986,2.535855,-0.02876266,10.71402,13.93892,-0.03119667,-12.52317,6.782279,-0.05469203,-11.74597,-30.73778,0.3292812
4690,2023-01-20 11:08:55.222442,169496821,3.497208,-7.501915,0.06771374,5.337788,11.86194,-0.04087109,-15.30885,4.158042,-0.06052016,3.64616,-3.304195,0.3370518
4720,2023-01-20 11:08:55.322435,169596820,8.599813,-3.430372,0.01665355,-4.157568,1.144796,5.989522E-05,-16.88423,1.668388,-0.06121301,9.058313,-41.81995,0.3474173
4753,2023-01-20 11:08:55.422423,169696818,17.93261,5.298598,-0.01194996,-1.375356,-13.84379,0.02836397,-15.95091,-8.870087,-0.04996654,27.39898,9.625816,0.3576741
4787,2023-01-20 11:08:55.522411,169796834,15.10022,12.45788,-0.02411973,4.667229,-3.697383,0.02208874,-10.10055,-16.96303,-0.01450578,17.99476,4.707432,0.3464305
4820,2023-01-20 11:08:55.622387,169896825,14.1325,10.66671,0.01264816,4.72735,8.818304,-0.02550693,-2.194183,-19.01833,0.02074285,21.85028,-24.30544,0.352306
4850,2023-01-20 11:08:55.722522,169996931,9.296409,5.987272,0.05201279,-1.045653,3.258378,0.02206033,3.818383,-11.73255,0.0370466,20.97605,-6.653118,0.3634216
4885,2023-01-20 11:08:55.822416,170096803,4.274046,15.76356,-0.04673953,-6.137463,6.117639,-0.05992047,8.257049,-10.89417,0.04626806,-12.26948,25.37899,0.3512058
4915,2023-01-20 11:08:55.922448,170196838,1.470935,1.49019,0.02660869,-5.198385,-4.463258,0.01403845,12.69557,-8.668009,0.05922906,-31.43691,22.80703,0.3289095
4950,2023-01-20 11:08:56.022451,170296842,2.17001,-0.07430547,-0.001517913,-2.354544,0.7580308,-0.023897,17.08801,-11.13782,0.07303029,-48.99717,-41.92162,0.3262817
4980,2023-01-20 11:08:56.122431,170396815,-0.1810401,4.333283,0.001911059,-3.266164,-6.143556,0.05911588,21.23196,-6.136273,0.08617093,-41.65322,-25.03462,0.3327568
5015,2023-01-20 11:08:56.222447,170496826,-2.721322,5.728399,-0.03849539,-3.631346,0.04691319,-0.03388239,21.12638,6.008382,0.07243109,7.615303,-23.5384,0.3362101
5045,2023-01-20 11:08:56.322457,170596838,1.482957,-5.380492,0.04029755,-1.793069,-5.078551,-0.0001291703,16.38656,12.5984,0.04118665,53.31501,19.51656,0.3529931
5078,2023-01-20 11:08:56.422432,170696822,6.946433,-10.12491,0.08565806,1.826572,-14.07179,0.08912101,9.732471,15.44009,0.009687662,58.35483,43.29195,0.3576719
5110,2023-01-20 11:08:56.522507,170796929,11.69955,3.699555,-0.01071092,10.64386,5.773267,-0.002755154,3.265498,13.35121,-0.01256966,55.65295,43.74142,0.3559075
5143,2023-01-20 11:08:56.622385,170896824,18.65472,1.677614,0.05326925,6.379883,5.887589,0.01967341,-1.385831,7.001888,-0.02266189,38.28001,41.71667,0.349365
5173,2023-01-20 11:08:56.722419,170996824,19.51361,4.208172,0.07973443,0.9808586,3.764891,0.01064426,-3.197133,1.652217,-0.01730913,42.72771,14.32095,0.3535174
5208,2023-01-20 11:08:56.822433,171096814,17.95194,9.417757,0.01670416,-7.256101,0.2309153,-0.008343267,-2.523789,-4.082922,-0.006566058,38.9372,18.65492,0.3569328
5238,2023-01-20 11:08:56.922452,171196841,17.6319,1.17482,0.07314461,-7.712084,-7.476464,0.0176284,-0.8111287,-5.385125,0.005475565,34.32662,27.12336,0.3563269
5273,2023-01-20 11:08:57.022397,171296790,15.93099,3.243218,0.05478152,-4.2156,-7.984805,0.001428318,0.9274046,-2.695576,0.0125214,-7.298151,12.86526,0.3510079
5304,2023-01-20 11:08:57.122426,171396811,16.63136,5.316516,0.06385911,-0.2869066,6.574662,-0.03339639,1.692649,-0.3370708,0.01100594,-28.45521,-0.3484726,0.3392513
5339,2023-01-20 11:08:57.222442,171496821,16.08378,4.028428,0.05866838,-2.512583,5.399818,-0.03344909,1.21888,0.1590761,0.005061764,24.86916,-35.90422,0.354042
5369,2023-01-20 11:08:57.322545,171596921,14.80164,8.732952,0.03474447,-0.4659472,6.796876,0.002318181,1.018375,0.4654173,0.004419676,82.71297,-9.136772,0.3862018
5402,2023-01-20 11:08:57.422428,171696811,9.715687,12.20843,0.006880365,-3.787755,-6.368849,0.0177667,0.6913095,0.3691032,0.003592864,96.11963,18.07575,0.3965451
5434,2023-01-20 11:08:57.522386,171796805,5.925814,5.378881,0.01978664,2.103082,2.707706,-0.05719738,-0.128584,3.856641,-0.0005847248,101.8503,52.75612,0.3999873
5467,2023-01-20 11:08:57.622392,171896832,6.806038,-8.687155,0.09685871,4.501343,-8.626124,0.06570309,-3.159457,8.081127,-0.01754701,68.64478,69.73953,0.3878005
5497,2023-01-20 11:08:57.722413,171996820,8.589401,-0.7896674,0.057207,4.722867,-7.39929,0.05618075,-6.269893,7.035434,-0.02931773,29.91154,60.55574,0.3729284
5532,2023-01-20 11:08:57.822544,172096926,10.91933,-8.629485,0.1203618,8.562953,-3.893979,0.03383072,-10.00363,10.714,-0.04482375,4.098392,63.69295,0.3603228
5562,2023-01-20 11:08:57.922451,172196838,16.73627,2.769771,0.05286876,0.4225872,12.48028,-0.0460856,-14.65303,7.930485,-0.06165402,-27.60234,27.59438,0.3386511
5599,2023-01-20 11:08:58.022447,172296837,15.2079,20.37415,-0.0009914935,-10.2083,-13.85912,0.01772621,-16.44229,-2.005983,-0.05981358,-63.96965,-17.78727,0.3341254
5629,2023-01-20 11:08:58.122492,172396879,0.5404558,22.73999,-0.02838826,-6.679875,-22.83487,0.05189891,-14.39328,-4.834301,-0.04534651,-108.1204,3.162384,0.322596
5664,2023-01-20 11:08:58.222715,172497100,-7.33862,-1.535672,0.01933104,-5.909458,-14.36692,0.009955432,-11.40904,-5.754888,-0.03224976,-160.3994,-37.39624,0.2946999
5694,2023-01-20 11:08:58.322440,172596826,-5.003731,-10.90515,0.08515675,-0.09243806,-19.00895,0.07441307,-8.029305,-6.314961,-0.02144924,-173.3986,-90.41538,0.2830095
5727,2023-01-20 11:08:58.422432,172696826,-6.0321,-4.815897,0.0350753,8.996957,-3.279422,0.04405752,-2.681964,-11.02627,0.00199553,-161.5659,-91.35094,0.2831353
5759,2023-01-20 11:08:58.522398,172796827,-7.702669,0.7513607,0.007087055,7.739236,0.3903156,0.017463,5.088952,-16.17397,0.03375705,-139.0421,-99.48854,0.2904356
5792,2023-01-20 11:08:58.622375,172896823,-10.20507,-9.029163,0.04950644,13.11207,-4.049625,0.09033735,12.58014,-10.34447,0.06082939,-71.41489,-95.9095,0.301475
5822,2023-01-20 11:08:58.722409,172996820,-10.14305,-10.61343,0.06106243,14.91001,-2.862574,0.1000171,16.2382,-3.504914,0.06543625,-23.18786,-97.31598,0.3301338
5857,2023-01-20 11:08:58.822430,173096817,-9.888174,-10.67867,0.07236996,16.43544,-1.404642,0.1105263,17.00141,0.635891,0.05967292,14.66135,22.35279,0.3356792
5887,2023-01-20 11:08:58.922433,173196836,-16.99661,-7.907651,0.03243445,18.42622,8.572013,0.03160203,14.69226,2.680569,0.04827753,-17.94042,17.87634,0.3234823
5922,2023-01-20 11:08:59.020379,173296835,-22.15765,-14.78717,0.03385757,25.61859,17.66628,0.04637821,10.60631,5.644391,0.03350352,-73.48101,-25.50125,0.304315
5954,2023-01-20 11:08:59.111350,173396916,-29.15562,-19.86413,0.02740189,14.75781,14.85141,0.04453908,0.7002627,7.876203,0.009213373,-84.23794,-77.28453,0.2988075
5989,2023-01-20 11:08:59.202678,173497122,-22.68888,-18.85157,-0.002110759,1.440868,0.4751368,0.02163102,-7.289979,7.401743,-0.02167867,-50.27902,-48.10934,0.3081193
6019,2023-01-20 11:08:59.302375,173596816,-17.98332,-15.49869,0.03280118,-21.69113,-11.44913,0.04446996,-13.45621,4.747318,-0.04196621,-14.3115,-37.70933,0.3108953
6052,2023-01-20 11:08:59.402779,173696939,-14.05272,-3.159081,-0.02564626,-19.85332,-23.57256,0.01781688,-14.84954,-3.352461,-0.04228658,-15.41517,-29.01049,0.3242368
6083,2023-01-20 11:08:59.513770,173796825,-16.98684,-8.756724,0.0167448,-16.42132,-19.03335,0.02888164,-14.37414,-7.563177,-0.03210149,-13.89785,-9.011364,0.3186393
6116,2023-01-20 11:08:59.620372,173896838,-17.38029,-18.95424,0.06762306,-2.027107,-17.72085,0.1129893,-12.44247,-8.381691,-0.02047008,-28.29697,-26.4554,0.3152622
6146,2023-01-20 11:08:59.711261,173996822,-15.2397,-16.13175,0.02909448,-0.7297421,5.443571,-0.02086681,-9.698808,-9.247689,-0.01078242,-29.07233,-15.88612,0.3179869
6182,2023-01-20 11:08:59.802396,174096837,-3.615094,-11.39114,0.04560508,12.47863,0.3383267,0.1044618,-6.840022,-6.563871,-0.004646651,-38.60754,-18.80941,0.3146521
6212,2023-01-20 11:08:59.902358,174196829,-3.807385,0.9787492,0.01028993,14.46774,15.1285,0.04118243,-5.907295,-4.60442,5.176422E-06,-46.65985,-18.02645,0.3043775
6247,2023-01-20 11:09:00.002328,174296830,0.9634929,14.53384,-0.05207147,13.93575,21.54179,-0.002506196,-6.08292,-2.981146,-0.004785151,-26.51613,-29.3292,0.3052528
6277,2023-01-20 11:09:00.102355,174396930,-3.780055,-4.53893,0.07167812,6.586095,16.08136,0.02173502,-9.171472,-0.5606596,-0.01660495,-21.1433,-17.54313,0.3121438
6312,2023-01-20 11:09:00.202474,174497120,1.670721,4.580558,0.008829594,12.06907,16.96498,-0.009942891,-11.57118,-1.568621,-0.02785559,-37.00278,-3.647232,0.3071356
6342,2023-01-20 11:09:00.302224,174596818,-2.758614,1.983928,0.03982776,4.609515,5.664868,0.06667364,-14.73791,-0.9007753,-0.03642421,-25.33749,-36.56731,0.3016702
6375,2023-01-20 11:09:00.402284,174696829,0.5619435,-2.047048,0.032361,0.748876,10.02779,-0.01469866,-16.26843,-3.389765,-0.04278243,3.515787,-27.68764,0.3195534
6409,2023-01-20 11:09:00.502218,174796818,-9.015193,-3.29412,0.01032432,8.867275,17.69823,-0.04018922,-20.92221,-4.725234,-0.04706013,45.48177,9.126091,0.3290189
6442,2023-01-20 11:09:00.602184,174896836,-2.471347,-6.178022,0.05545586,4.126925,11.72594,0.003214401,-23.7003,-4.512606,-0.05650813,62.14693,20.82539,0.3400236
6472,2023-01-20 11:09:00.702200,174996820,-5.201189,8.623536,-0.05120299,8.453107,10.44636,0.01800468,-26.4483,-3.021123,-0.06515532,70.0594,38.93538,0.3415382
6508,2023-01-20 11:09:00.802246,175096835,0.7731142,-0.1492534,0.0393223,4.308256,2.581306,0.0447139,-26.78424,-5.792171,-0.07067249,56.02472,57.83806,0.33707
6538,2023-01-20 11:09:00.902324,175196937,22.44243,17.12442,0.003115647,14.70158,8.934652,0.009139076,-27.63518,-5.223082,-0.07214535,4.152863,30.90296,0.3241525
6573,2023-01-20 11:09:01.002193,175296827,23.00757,28.26136,0.04382106,13.28463,17.6106,-0.0156595,-28.83839,-2.098392,-0.08149491,-17.41444,29.19788,0.317413
6603,2023-01-20 11:09:01.102278,175396837,16.64845,25.25312,-0.01565505,17.74753,7.690061,0.05851658,-30.81725,-1.185573,-0.08954927,-23.79204,-14.47144,0.310525
6638,2023-01-20 11:09:01.202665,175497152,3.477979,21.3272,-0.05013148,12.5273,10.16447,0.02268795,-31.29444,-4.506877,-0.09433783,-9.977251,-29.96063,0.3185906
6668,2023-01-20 11:09:01.302249,175596804,0.6135669,9.467001,-0.009513501,7.717881,2.615461,0.06508715,-30.34173,-6.653502,-0.08859452,-32.92324,-17.51699,0.3240507
6701,2023-01-20 11:09:01.402206,175696828,-2.799545,8.566198,-0.01472938,5.70569,4.840434,0.01217336,-27.62684,-8.814045,-0.0783193,-53.39147,-24.1436,0.3124177
6733,2023-01-20 11:09:01.502156,175796805,0.3007913,4.284674,-0.004219952,6.016612,7.849826,0.01249238,-24.47913,-9.653494,-0.06648444,-10.70801,-63.13524,0.3212991
6766,2023-01-20 11:09:01.602252,175896927,4.628001,9.264063,-0.0008169794,-0.4330375,2.732681,0.03079732,-20.8452,-9.353578,-0.05579754,-12.55611,-27.29301,0.341313
6797,2023-01-20 11:09:01.702207,175996876,-9.164558,2.004567,-0.02071867,4.503239,-7.49137,0.08272886,-18.15597,-6.96737,-0.04762457,23.08929,-22.52073,0.3396589
6832,2023-01-20 11:09:01.802169,176096833,-22.09103,-11.04458,-0.01784575,0.6972368,5.294533,-0.02311762,-15.37871,-7.59,-0.04285807,28.31952,6.520939,0.3470046
6862,2023-01-20 11:09:01.902173,176196833,-23.5662,-15.84671,-0.01189942,3.04437,6.688957,-0.03310243,-12.53629,-8.36452,-0.03385956,29.77577,22.16644,0.3467979
6897,2023-01-20 11:09:02.002184,176296840,-19.8328,-19.86186,0.01179045,-1.419743,-12.72171,0.1231977,-9.388551,-5.369077,-0.02542069,-11.73004,1.490593,0.3366702
6927,2023-01-20 11:09:02.102273,176396917,-0.7361812,1.75225,-0.05713356,-1.23814,-4.385653,0.04111683,-8.022224,-1.616342,-0.02565202,-12.57222,-24.04537,0.3312992
6962,2023-01-20 11:09:02.202534,176497166,0.2372673,-9.659883,0.02580976,0.08576754,-4.338005,0.04970289,-7.517456,-1.402476,-0.02878179,-8.331141,-19.12737,0.3353563
6992,2023-01-20 11:09:02.302206,176596834,5.0943,6.502081,-0.01745613,0.8891345,-2.636471,0.03549105,-7.150049,-4.222331,-0.02541925,30.60779,-14.23435,0.34238
7025,2023-01-20 11:09:02.402210,176696836,3.229167,11.59382,-0.03477,-3.669713,-4.564452,0.05662561,-5.638175,-4.901685,-0.01811568,50.04587,9.008789,0.3618301
7057,2023-01-20 11:09:02.502146,176796821,2.078449,10.64735,-0.07156262,-6.658022,3.545063,-0.02461764,-4.002026,-5.014185,-0.01270759,52.5101,39.28394,0.3498412
7090,2023-01-20 11:09:02.602101,176896823,-3.166586,3.206894,-0.02585315,-11.86577,-3.450403,0.00452755,-2.527333,-5.360316,-0.01004278,45.10061,29.18091,0.3479711
7120,2023-01-20 11:09:02.702142,176996819,6.864307,-9.130456,0.06807657,-17.93499,-11.62471,0.02526946,-1.916693,-5.393057,-0.003926386,48.92161,9.645939,0.357493
7155,2023-01-20 11:09:02.802199,177096832,3.482531,0.04074301,0.03806184,-15.94963,-21.1334,0.07342588,-0.6489371,-6.298606,0.001503889,44.18237,32.86524,0.3651881
7185,2023-01-20 11:09:02.902315,177196953,2.586949,4.966166,0.005765737,-26.11656,-13.20394,-0.008421993,0.7235605,-4.283664,0.006924269,35.0456,36.07769,0.3612618
7220,2023-01-20 11:09:03.002198,177296840,-4.82644,3.952838,-0.03458651,-17.39336,-33.65661,0.09979934,1.184625,1.183173,0.002365154,0.4295186,39.01339,0.3441119
7250,2023-01-20 11:09:03.102166,177396820,-0.9963346,8.430785,-0.05596229,-10.01897,-15.53944,0.056233,-1.518532,2.557083,-0.01056879,-52.56834,12.75377,0.3179092
7285,2023-01-20 11:09:03.202354,177497019,-9.871221,5.60828,-0.06076943,-5.03354,-6.026388,0.02652433,-4.344512,3.889498,-0.023709,-43.76942,-43.74304,0.3202808
7315,2023-01-20 11:09:03.302150,177596819,-8.225687,1.302398,-0.08000024,3.745276,-2.738245,0.01864409,-7.238454,2.138979,-0.03348739,-27.14827,-2.32296,0.3297318
7348,2023-01-20 11:09:03.402141,177696815,-11.29787,-4.095133,-0.05825137,8.119726,6.219522,0.009897102,-10.40159,7.170287,-0.04870062,-40.92962,33.66261,0.3107079
7380,2023-01-20 11:09:03.502162,177796835,-9.759858,-3.694183,-0.05872131,1.969956,10.16498,0.0042388,-14.3975,5.715156,-0.06524585,-54.5563,6.057549,0.2956585
7413,2023-01-20 11:09:03.602141,177896813,-12.1431,-0.09084785,-0.07212445,1.128702,5.771702,0.03825105,-16.91435,3.015511,-0.07083528,-54.57043,-38.91983,0.298701
7444,2023-01-20 11:09:03.702176,177996835,-5.624971,-10.57435,-0.001990569,1.314216,-1.178402,0.08664717,-18.22521,3.406878,-0.07341962,-47.23695,-40.32335,0.3082452
7479,2023-01-20 11:09:03.802183,178096830,5.468452,-16.07677,0.02800857,-1.291711,2.453609,0.06280705,-20.1651,3.900953,-0.08344643,-14.24147,-53.11604,0.3126782
7509,2023-01-20 11:09:03.902172,178196832,11.73594,2.494572,0.002198414,-2.577153,-1.434234,0.05443875,-20.82916,1.22367,-0.08442686,3.36228,-37.06989,0.3345822
7544,2023-01-20 11:09:04.002163,178296835,16.07572,3.101073,-0.02782939,1.952632,-11.1025,0.07577945,-21.71999,0.7607636,-0.08716718,13.25261,-14.7296,0.3353265
7574,2023-01-20 11:09:04.102138,178396819,14.39253,13.23634,-0.03048978,3.233179,3.525017,0.04729521,-21.73921,-1.506752,-0.08318516,10.27965,7.571125,0.3300248
7610,2023-01-20 11:09:04.202349,178497037,8.18096,3.899531,0.04083066,4.816919,4.354935,0.01268883,-19.52866,-7.862469,-0.0700925,8.107121,0.6778717,0.3282037
7640,2023-01-20 11:09:04.302160,178596825,-0.1381965,0.431794,0.01730676,4.596904,4.885574,0.03986598,-16.21161,-7.319193,-0.05454277,5.521917,-3.177547,0.3318991
7673,2023-01-20 11:09:04.402195,178696837,-0.6628165,-4.367484,0.001290957,2.461476,2.013392,0.04271338,-12.06817,-9.123981,-0.03874154,5.338389,-10.72702,0.3313311
7705,2023-01-20 11:09:04.502265,178796923,3.830042,-0.9986892,-0.01244437,-3.740072,8.648227,-0.0528122,-7.962498,-12.01625,-0.02296471,29.82546,-3.303146,0.3396675
7738,2023-01-20 11:09:04.602156,178896830,1.597316,-5.105808,0.04657499,-2.654681,-2.900692,0.0341913,-3.425265,-10.70814,-0.006431105,31.33344,4.796505,0.3467987
7768,2023-01-20 11:09:04.702185,178996834,2.469392,-2.861956,0.02207185,3.520718,-0.06021434,0.03684089,0.7655411,-8.63483,0.004504817,24.11572,21.66948,0.3462938
7803,2023-01-20 11:09:04.802201,179096827,-12.54656,-5.082794,-0.01304072,21.02834,15.61243,0.02513236,3.892476,-3.962089,0.009997452,-22.35422,24.76625,0.335036
7833,2023-01-20 11:09:04.902167,179196829,-11.12151,-12.13556,-0.01215401,17.31351,18.63701,0.05207224,4.850868,0.600418,0.005140109,-86.09048,-24.46508,0.3126791
7868,2023-01-20 11:09:05.002150,179296847,-4.466877,-13.56375,0.05338933,7.063449,11.10715,0.05221801,4.321069,2.778251,-0.001979402,-109.5481,-51.28059,0.2990097
7898,2023-01-20 11:09:05.102143,179396817,12.42978,7.5833,-0.02175969,-31.37438,-10.98687,-0.03591162,3.486989,0.4601304,-0.008406226,-137.3127,-78.78284,0.2950824
7933,2023-01-20 11:09:05.202228,179496880,5.96897,8.879106,0.005011374,-27.70642,-33.60197,0.0543699,2.978329,2.532224,-0.009835766,-99.87911,-81.76289,0.2982238
7963,2023-01-20 11:09:05.302190,179596828,1.686163,0.7264959,0.02431235,-12.02362,-23.51465,0.05528573,1.922559,3.587961,-0.0159301,-95.59895,-65.72914,0.2992776
7997,2023-01-20 11:09:05.402207,179696832,1.145977,-5.10391,0.02338169,-4.617582,-7.674946,0.02026824,-0.5117012,5.761689,-0.02773863,-105.6126,-57.08504,0.2949264
8031,2023-01-20 11:09:05.502135,179796816,3.915968,-2.472742,0.01887933,12.67224,4.973916,0.02824708,-3.208354,5.547097,-0.03848093,-143.4616,-69.79923,0.2830238
8064,2023-01-20 11:09:05.602111,179896846,3.47781,2.312829,0.003798819,10.04206,8.037941,0.05301834,-20.24493,-0.7642804,-0.0458071,-166.4643,-102.4117,0.2695044
8094,2023-01-20 11:09:05.702256,179996930,-0.3505354,1.083908,-0.003166733,4.570057,6.477808,0.03246529,-55.53846,-11.04244,-0.0956568,-189.7117,-126.0673,0.2612307
8129,2023-01-20 11:09:05.802212,180096828,-1.718477,-0.8142213,-0.0119523,3.348089,-1.357941,0.06160714,-70.04793,-25.22546,-0.138934,-159.3775,-162.3239,0.2684965
8159,2023-01-20 11:09:05.902177,180196833,-5.018465,4.070823,-0.05330805,3.976742,-1.534097,0.06345994,-63.4185,-40.83718,-0.1209371,-120.7861,-124.3132,0.2831747
8194,2023-01-20 11:09:06.002148,180296843,-6.270045,-5.19925,-0.008728589,4.848242,7.551429,0.02651548,-61.72283,-43.53203,-0.09211885,-92.14296,-83.65536,0.2843727
8224,2023-01-20 11:09:06.102245,180396931,-4.950668,-5.280135,0.002130598,2.333696,9.092141,-0.000882715,-61.37989,-45.23868,-0.0780718,-74.91489,-70.84131,0.2857124
8259,2023-01-20 11:09:06.202198,180496875,-10.3117,-2.635154,-0.01783449,13.70692,10.60628,0.02588635,-55.45193,-43.64756,-0.06934679,-41.89542,-58.04081,0.2924575
8289,2023-01-20 11:09:06.302145,180596825,-20.44855,-16.59319,0.004551292,6.29384,18.86082,-0.007102592,-43.36389,-41.40176,-0.04853439,-36.94379,-54.77829,0.2952881
8322,2023-01-20 11:09:06.402143,180696825,-14.69604,-13.84245,-0.01274819,3.620353,7.828338,0.01329387,-43.21267,-37.17447,-0.04020932,-18.35963,-50.7967,0.3026523
8354,2023-01-20 11:09:06.502159,180796833,-19.92999,-6.722429,-0.03998664,-1.68032,2.337718,0.04623365,-44.71888,-32.58818,-0.04919171,-3.992992,-40.88678,0.3096472
8387,2023-01-20 11:09:06.602162,180896828,-11.73681,-6.974268,-0.01764814,-1.799361,-4.189116,0.05147703,-52.62537,-33.67248,-0.06509036,5.883133,-27.2933,0.3145699
8417,2023-01-20 11:09:06.702144,180996814,-8.643879,-5.757749,0.001610914,-0.2237175,-2.095424,0.04507554,-45.88818,-32.03955,-0.07422285,8.768295,-13.80739,0.3168568
8452,2023-01-20 11:09:06.802169,181096843,-8.778549,-6.122665,-0.007600215,11.29722,10.14727,-0.0007350259,-43.98869,-33.58216,-0.06265152,1.037236,1.475334,0.3092694
8482,2023-01-20 11:09:06.902179,181196840,-6.605689,-0.7338395,-0.02486751,11.66302,20.48762,-0.01230362,-43.22792,-31.79046,-0.05955576,0.2348156,-27.25372,0.3137148
8517,2023-01-20 11:09:07.002165,181296814,-3.909578,4.173707,-0.04461692,3.933084,18.79285,-0.003195651,-39.19423,-34.93539,-0.05129287,21.70751,-37.48312,0.3261866
8547,2023-01-20 11:09:07.102180,181396826,5.486182,-2.145859,0.01685058,-4.095293,13.94969,0.009388322,-29.97754,-31.86106,-0.03543347,68.75923,-7.801533,0.345646
8582,2023-01-20 11:09:07.202327,181496971,11.70786,7.821868,-0.0003207978,-6.590865,7.189771,-0.0549021,-15.96633,-29.24655,-0.006143328,114.1011,6.762886,0.3642179
8612,2023-01-20 11:09:07.302181,181596823,7.893569,10.71797,-0.01867758,-3.188361,-2.971857,0.03354685,-9.087843,-22.71894,0.01067281,138.9345,49.22476,0.38319
8646,2023-01-20 11:09:07.402191,181696832,8.805896,9.73395,-0.008457496,-11.10378,4.475176,0.002683632,-1.77852,-20.31087,0.01867799,146.7891,71.33293,0.3817671
8678,2023-01-20 11:09:07.502269,181796922,8.378819,16.8519,-0.02104197,-21.59271,11.32855,-0.09013548,6.929902,-16.89683,0.03502109,136.8219,91.64352,0.3824008
8711,2023-01-20 11:09:07.602162,181896827,1.682035,16.53582,-0.04190933,-33.43509,-1.523811,-0.09006036,15.12371,-13.28957,0.05412248,110.4144,75.87653,0.3759256
8741,2023-01-20 11:09:07.702176,181996820,0.4718815,3.198837,-0.02889708,-34.25793,-12.71742,-0.02989643,20.53884,-8.065359,0.06358198,86.93639,84.51796,0.3679976
8776,2023-01-20 11:09:07.802308,182096932,-5.35141,2.932126,-0.03511789,-31.62793,-8.532566,-0.08865748,21.67031,0.1768386,0.05656803,65.22157,46.34418,0.3623305
8806,2023-01-20 11:09:07.902197,182196833,-2.909172,2.448657,-0.04224742,-40.17896,-29.41867,0.02584433,18.74511,7.685638,0.03733099,39.33522,42.01212,0.360416
8841,2023-01-20 11:09:08.002191,182296839,-7.558315,1.842885,-0.03797298,-27.06538,-22.2421,-0.05991742,13.42159,4.12265,0.02046677,-9.881733,44.66572,0.3466564
8871,2023-01-20 11:09:08.102213,182396879,-10.72081,8.193947,-0.1123724,-10.04283,-11.84098,-0.01942594,8.784012,-0.9270038,0.01381209,-8.140615,-3.399849,0.3355833
8906,2023-01-20 11:09:08.202165,182496848,-9.518266,-0.04683581,-0.04923575,1.971624,1.670921,-0.01835888,4.550436,-6.114728,0.01396185,49.26063,1.371574,0.3532873
8936,2023-01-20 11:09:08.302179,182596839,-8.881288,-6.921045,-0.0004446954,1.94387,16.82082,-0.05094228,0.6705712,-6.964761,0.01165939,71.68723,48.54527,0.3695674
8969,2023-01-20 11:09:08.402291,182696930,-10.97136,2.19664,-0.08463077,-1.515627,3.11044,0.012631,-2.585716,-8.67636,0.005335448,65.7619,61.61413,0.3643167
9001,2023-01-20 11:09:08.502162,182796832,-9.837973,-2.448527,-0.07211091,-2.289778,9.976487,-0.04580986,-3.993594,-8.282424,-0.0007817671,68.37484,45.20931,0.3617578
9034,2023-01-20 11:09:08.602135,182896835,-7.2255,-8.769911,0.002417922,-9.71319,12.66876,-0.1128195,-2.9073,-9.670045,0.0008714143,71.73445,48.54784,0.3695452
9064,2023-01-20 11:09:08.702156,182996824,-6.290811,-4.440156,-0.03532377,-15.53131,1.573446,-0.07624019,-2.220407,-10.00326,0.005212296,49.71016,66.17059,0.3659819
9099,2023-01-20 11:09:08.802199,183096835,-4.986354,2.166311,-0.05939784,-21.04779,-8.455696,-0.0333015,-2.015823,-12.86332,0.01006044,13.76135,29.60844,0.3547662
9131,2023-01-20 11:09:08.902204,183196853,-8.159771,-1.239295,-0.05910693,-18.01148,-18.10657,0.0187664,-1.987904,-10.76881,0.01172315,4.048384,-2.180481,0.3538216
9166,2023-01-20 11:09:09.001984,183296840,-5.861584,-9.210093,-0.00374639,-12.98458,-10.12318,-0.04813895,-0.9723431,-10.66997,0.01443981,22.10958,12.03766,0.3647052
9196,2023-01-20 11:09:09.093042,183396800,-7.094727,0.7296072,-0.08061662,-8.439221,-9.807998,-0.01085973,0.5431288,-12.33389,0.0188386,22.17515,21.70982,0.3604063
9228,2023-01-20 11:09:09.184180,183496848,-4.946292,-4.75554,-0.03948247,-2.539312,6.317655,-0.1173144,0.9821786,-9.076203,0.0190227,30.9609,-8.784676,0.3691365
9262,2023-01-20 11:09:09.282606,183596832,-2.340696,-1.01815,-0.04159934,-2.768963,2.481852,-0.04338652,0.1072666,-6.165664,0.01340106,27.92644,24.15419,0.3733913
9293,2023-01-20 11:09:09.382613,183696852,-0.8580508,6.008786,-0.0595924,-0.8859185,-7.012385,0.03446412,-1.21594,-7.325676,0.005545936,21.50584,30.52025,0.3648061
9327,2023-01-20 11:09:09.482606,183796843,-4.167342,1.159736,-0.05433945,3.002628,0.193818,-0.003013814,-2.817534,-2.81635,-0.002008549,27.96692,1.458931,0.3664049
9358,2023-01-20 11:09:09.582591,183896824,-5.96311,-6.315894,-0.01512025,5.066204,11.66066,-0.0823365,-4.35896,-3.296979,-0.009700011,34.55243,22.00108,0.3726141
9391,2023-01-20 11:09:09.682605,183996821,-6.782355,1.991728,-0.07902392,5.779671,16.7094,-0.117803,-6.384393,-1.765605,-0.01757046,42.23632,13.62371,0.3784586
9425,2023-01-20 11:09:09.782632,184096828,-3.113546,3.785499,-0.09546714,5.759005,20.59962,-0.1361692,-8.753489,-1.948177,-0.02679622,40.43703,13.09509,0.3783746
9457,2023-01-20 11:09:09.882622,184196835,-3.952586,1.734362,-0.05561738,2.652869,13.9483,-0.09758593,-11.01082,-1.683347,-0.03458797,40.86213,14.00347,0.3821491
9490,2023-01-20 11:09:09.982688,184296924,-5.099838,1.396307,-0.07476462,0.8578119,0.3261116,-0.01500624,-12.75091,-5.169035,-0.04027893,46.02093,22.91117,0.3862119
9522,2023-01-20 11:09:10.082676,184396920,-0.2789306,0.5297679,-0.07317914,-1.056799,1.847999,-0.02574652,-12.80822,-8.869676,-0.03733631,37.23627,38.54694,0.381054
9554,2023-01-20 11:09:10.182626,184496874,1.447432,1.006442,-0.04811057,-6.015781,4.662528,-0.06250329,-12.42534,-7.972998,-0.03360599,28.54245,19.20881,0.3835135
9587,2023-01-20 11:09:10.282589,184596838,0.1253814,1.389391,-0.05031121,-8.001252,4.467358,-0.1032048,-10.96452,-10.32223,-0.02614414,13.92023,19.2296,0.3741812
9618,2023-01-20 11:09:10.382625,184696875,0.04847065,-1.375722,-0.06082484,-10.25902,5.869847,-0.1224993,-8.712593,-10.59654,-0.01628325,2.569616,9.63068,0.3716854
9652,2023-01-20 11:09:10.482498,184796840,-1.144795,5.460838,-0.08750853,-8.097041,0.7324837,-0.1031517,-5.771892,-12.36185,-0.00690545,-0.8258686,-8.471584,0.3747126
9685,2023-01-20 11:09:10.582553,184897006,-2.816396,-0.8706448,-0.06481912,-4.393707,-8.56765,-0.009665804,-3.4873,-8.080544,-0.003000275,-8.4193,-20.35484,0.3767581
9717,2023-01-20 11:09:10.682402,184996819,-4.085528,-5.469195,-0.00947858,-6.924431,-0.5888155,-0.04205825,-1.65984,-8.906778,0.001712542,-23.58371,8.439159,0.3704953
9750,2023-01-20 11:09:10.782621,185096972,-6.451272,-0.1232678,-0.1017758,-8.538006,-2.460801,-0.04650377,0.1412862,-7.503882,0.007413942,-27.84245,-12.08229,0.3634283
9782,2023-01-20 11:09:10.882583,185196941,-7.395172,-0.2703732,-0.08407481,-5.403989,-5.367084,-0.03448407,1.367336,-6.868662,0.008179746,-37.56296,-9.091854,0.3565067
9815,2023-01-20 11:09:10.982590,185296970,-4.053425,-6.670713,-0.03770315,-2.686917,3.700782,-0.1141766,2.616134,-5.574595,0.01042838,-44.97975,-14.17608,0.3546897
9848,2023-01-20 11:09:11.082439,185396829,-0.7320159,-11.41496,-0.007325364,-3.644737,5.992254,-0.0853269,3.022799,-2.903364,0.007815653,-45.04226,-20.63437,0.3579922
9880,2023-01-20 11:09:11.182580,185496978,2.120629,2.583727,-0.09176753,-3.423996,-3.637281,-0.0501319,3.347128,-4.128345,0.006179821,-39.98976,-41.53643,0.3582347
9913,2023-01-20 11:09:11.282402,185596812,0.2406771,7.816797,-0.1047013,0.995436,4.551846,-0.09207101,3.688324,-4.23497,0.005654419,-29.67442,-70.6852,0.3698528
9944,2023-01-20 11:09:11.382595,185697019,1.88394,-4.160194,-0.03971968,-1.574796,9.330156,-0.1014659,4.47322,-4.866318,0.01055964,-23.31483,-18.84308,0.3681868
9977,2023-01-20 11:09:11.482403,185796827,6.432017,-1.925911,-0.02920597,-1.362739,7.666772,-0.1350112,6.102047,-5.404143,0.01988498,-24.46907,-15.50198,0.3606712
10008,2023-01-20 11:09:11.582552,185896972,7.439881,2.092168,-0.03543189,-2.564853,1.53987,-0.0779264,6.984631,-4.505184,0.0230021,-28.19037,-4.820061,0.3600003
10040,2023-01-20 11:09:11.682519,185996922,3.349337,5.10541,-0.06513971,1.247542,-13.11468,0.05460989,5.984132,2.016793,0.0123911,-30.5663,-39.96582,0.355841
10073,2023-01-20 11:09:11.782583,186096965,1.779727,1.288151,-0.03929773,2.287857,5.126784,-0.1002956,4.406142,1.676589,0.002335377,-26.86427,-39.3054,0.358669
10105,2023-01-20 11:09:11.882444,186196828,-0.2219041,2.351743,-0.07547914,0.8676577,1.906183,-0.06177847,3.426488,-1.221078,-8.319039E-05,-29.35581,-9.913731,0.3589947
10138,2023-01-20 11:09:11.982581,186296970,0.5775926,6.962698,-0.1123816,0.9311991,-6.070843,-0.006305892,2.418377,-1.156974,-0.003303588,-24.71682,-28.43218,0.3590383
10170,2023-01-20 11:09:12.082413,186396828,-0.6915194,0.7322067,-0.05648616,3.85871,1.513456,-0.04415513,1.523731,-1.203775,-0.006100127,-11.83178,-29.30737,0.3699625
10202,2023-01-20 11:09:12.182599,186497044,0.5680647,-1.1089,-0.04795662,2.801358,3.144009,-0.07156621,0.2834381,1.74527,-0.01035177,-14.97186,-10.37378,0.3660491
10235,2023-01-20 11:09:12.282393,186596816,-0.8928939,-6.066889,-0.0005467422,2.627707,4.157231,-0.08137614,-0.5670261,0.8358851,-0.01219776,-17.16899,-36.17401,0.3653621
10267,2023-01-20 11:09:12.382567,186696957,1.472275,-3.942917,-0.00498623,0.9570168,9.604389,-0.1307806,-1.575735,1.672237,-0.01629053,-22.56452,11.69758,0.3641854
10301,2023-01-20 11:09:12.482533,186796936,-1.639506,-2.12337,-0.03029474,-0.3627104,1.747572,-0.08500106,-2.756253,0.7187182,-0.01984717,-38.02424,-13.14754,0.3541177
10332,2023-01-20 11:09:12.582531,186896958,2.538303,-0.4168807,-0.0404439,-0.9359811,1.27996,-0.08191307,-3.701972,-0.8425516,-0.02241577,-61.80883,-25.24223,0.3458444
10364,2023-01-20 11:09:12.682410,186996816,-1.165488,5.409917,-0.07724071,1.002285,-7.586601,0.0001803115,-4.018108,-2.683788,-0.02248734,-70.44588,-31.13976,0.3441469
10397,2023-01-20 11:09:12.782562,187096937,2.394445,-1.020906,-0.03580425,3.383226,-4.019558,-0.01417668,-3.414331,-2.201136,-0.01887071,-115.3884,-48.28558,0.3328331
10429,2023-01-20 11:09:12.882443,187196817,0.6770502,-1.413633,-0.02701785,7.040905,5.222208,-0.08854231,-2.663136,-2.525681,-0.01606782,-192.7169,-64.79425,0.3042782
10462,2023-01-20 11:09:12.982434,187296815,2.018122,-6.226458,-0.007492142,9.018467,-3.97862,0.004298827,-2.304998,0.4226598,-0.01724674,-274.2646,-123.932,0.2757487
10494,2023-01-20 11:09:13.082431,187396819,-0.6115503,-7.08292,-0.009099606,13.54006,2.882359,-0.03002903,-1.858113,0.9181929,-0.0197398,-324.0598,-188.5781,0.2519283
10526,2023-01-20 11:09:13.182440,187496835,1.280628,-1.251521,-0.03602195,12.71929,3.976673,-0.01200329,-1.403419,1.187897,-0.02148536,-295.7076,-219.2003,0.2540787
10559,2023-01-20 11:09:13.282430,187596816,1.360615,2.758386,-0.05286515,15.26841,8.286606,-0.03132863,-0.3732144,0.758189,-0.01970685,-257.7108,-190.8125,0.2600586
10590,2023-01-20 11:09:13.382553,187696927,0.3731754,3.828511,-0.06726948,9.112927,9.299191,-0.05784401,0.8318042,0.9953994,-0.0164182,-224.3324,-162.8761,0.2583114
10624,2023-01-20 11:09:13.482426,187796822,2.676757,-2.561318,-0.016736,5.852484,8.421043,-0.06990063,1.604868,0.5341153,-0.01496331,-191.3002,-159.7826,0.2598955
10655,2023-01-20 11:09:13.582399,187896824,3.955686,3.057692,-0.0608324,0.2989076,-0.06806523,-0.02441318,2.613558,0.2903889,-0.01070364,-152.2978,-158.1289,0.2699021
10687,2023-01-20 11:09:13.682468,187996878,2.975069,1.909212,-0.04503222,-1.290478,-1.724738,-0.03116202,4.154517,-0.9420218,-0.004600235,-118.6942,-127.0874,0.2788426
10720,2023-01-20 11:09:13.782418,188096804,12.34626,12.50784,-0.09214316,1.654827,0.7801575,-0.04542851,5.80695,-1.088384,0.002187517,-89.40258,-109.9487,0.2862681
10752,2023-01-20 11:09:13.882464,188196842,12.99417,20.76088,-0.07298146,2.100622,3.222558,-0.00534809,7.560806,1.15565,0.008827535,-68.03964,-97.4802,0.2910004
10785,2023-01-20 11:09:13.982453,188296827,3.920393,17.1153,-0.1173408,-6.008652,5.74579,-0.08303325,8.150975,1.490615,0.007366772,-50.45921,-86.76939,0.2962834
10817,2023-01-20 11:09:14.082446,188396828,-6.099116,0.6928011,-0.06009147,-12.47059,-6.183959,-0.02262251,7.824495,4.129279,0.00402435,-37.51875,-60.14824,0.3001575
10849,2023-01-20 11:09:14.182484,188496876,-9.880247,-8.986635,-0.01257095,-10.39094,-4.80898,-0.07589776,6.929121,2.882214,0.0006614318,-26.86166,-51.00231,0.3041141
10882,2023-01-20 11:09:14.282430,188596817,-12.3088,-0.09735932,-0.1292077,-14.50745,-4.751244,-0.08986823,7.360507,0.2672308,0.004169488,-16.84447,-60.24685,0.3085429
10915,2023-01-20 11:09:14.382459,188696837,-10.67383,-2.184635,-0.09704614,-16.57061,-7.726844,-0.07603686,7.77548,0.7443674,0.007592816,-9.439911,-43.94617,0.3114806
10949,2023-01-20 11:09:14.482421,188796821,-7.629167,-4.249679,-0.07012292,-9.251221,-9.571098,-0.0614904,9.060542,-2.578908,0.0147453,1.613594,-51.35565,0.315425
10980,2023-01-20 11:09:14.582392,188896821,-6.114951,-3.16662,-0.05307958,-6.186132,-11.24897,-0.02113835,11.17441,-3.602175,0.02576043,13.00239,-32.39994,0.3216477
11012,2023-01-20 11:09:14.682511,188996920,-8.980174,-7.209798,-0.03339805,-2.164447,3.364087,-0.1054794,12.35696,-0.0132442,0.02863377,26.8107,2.212048,0.3322588
11045,2023-01-20 11:09:14.782432,189096810,-6.271523,-8.415686,-0.05642145,-2.516987,-1.132379,-0.03632292,12.9701,1.100673,0.02850641,25.19164,-6.100941,0.3256357
11077,2023-01-20 11:09:14.882449,189196839,-9.122753,5.666652,-0.1209463,-1.757981,6.715426,-0.09061165,12.24588,1.672085,0.02363962,19.5291,13.87568,0.3231858
11110,2023-01-20 11:09:14.982517,189296928,-4.69152,-0.3739194,-0.09391537,-4.256242,-7.307436,0.02216708,12.05479,0.8896974,0.02416168,19.74721,1.957607,0.3247502
11142,2023-01-20 11:09:15.082406,189396811,-5.833412,-8.494309,-0.02422063,-3.920244,-7.853209,-0.04459272,12.58677,-0.4825356,0.02770915,29.91045,0.480175,0.3379668
11174,2023-01-20 11:09:15.182439,189496834,-8.212223,-3.701716,-0.06018621,1.736095,-2.538992,-0.0724474,12.75173,0.9167538,0.0278804,32.07089,12.23993,0.3389566
11207,2023-01-20 11:09:15.282440,189596818,-8.676765,-4.915942,-0.0573237,5.285635,-1.325433,-0.04668076,12.38114,1.985353,0.02650279,20.58804,26.34239,0.3319031
11241,2023-01-20 11:09:15.382452,189696811,-9.959646,-7.738384,-0.07698438,8.942703,-0.3033782,-0.02527177,11.85668,3.37103,0.02210084,-4.161339,-19.33079,0.325679
11275,2023-01-20 11:09:15.482433,189796828,-4.828646,-6.953985,-0.06195675,8.018427,-5.028513,0.03818742,10.5021,4.323723,0.01724162,-3.898554,-22.31894,0.3293856
11308,2023-01-20 11:09:15.582432,189896874,-3.177218,-5.865026,-0.04836196,5.411464,5.104054,-0.05623036,8.696445,5.661686,0.01066257,0.6841576,-32.00808,0.3354124
11340,2023-01-20 11:09:15.682381,189996794,-7.102828,-0.03644284,-0.1065697,5.889432,2.996561,-0.03678815,6.740842,4.453259,0.002807028,4.30206,-3.895378,0.3403798
11373,2023-01-20 11:09:15.782406,190096775,-5.695655,-9.085995,-0.03027293,2.028475,10.61065,-0.1287672,4.655306,3.876839,-0.002596703,1.406268,-7.175541,0.3347826
11405,2023-01-20 11:09:15.882446,190196807,-6.225283,-6.411479,-0.06548432,-1.703057,-2.272854,-0.03543476,2.85794,1.15627,-0.006129187,11.81347,-54.249,0.3458686
11438,2023-01-20 11:09:15.982460,190296821,-6.685692,-2.455917,-0.08996952,-4.459527,0.07976248,-0.04471994,1.38337,2.682841,-0.009024031,22.07816,1.877499,0.3545996
11470,2023-01-20 11:09:16.082442,190396806,-6.989006,-4.25113,-0.068702,-3.127425,-1.364202,-0.08658433,0.3098413,2.649088,-0.0116687,16.77502,0.5070686,0.3465054
11502,2023-01-20 11:09:16.182511,190496878,-6.331869,-11.85277,-0.01204482,-3.242013,3.80114,-0.1161092,-0.5216808,1.47403,-0.01140835,9.8822,8.324432,0.3435895
11535,2023-01-20 11:09:16.282429,190596796,-8.26052,-5.821692,-0.05851619,-3.309681,-8.288384,-0.0245387,-1.235228,2.451384,-0.01244378,13.14038,-14.84718,0.3522255
11566,2023-01-20 11:09:16.382439,190696804,-8.518152,-6.281091,-0.04883303,1.805879,-17.51019,0.0749283,-15.71861,-0.06261919,-0.02060306,12.38682,27.60401,0.3518533
11600,2023-01-20 11:09:16.482427,190796806,-10.52947,-1.519721,-0.1115805,2.280676,-9.864029,0.04007516,-53.64364,-6.480116,-0.08247206,3.002761,4.034424,0.3415115
11631,2023-01-20 11:09:16.582399,190896796,-8.597865,-11.43682,-0.03429042,-0.004046246,-3.318052,-0.00314353,-90.95801,-22.78919,-0.1658668,-5.591793,25.73528,0.3391446
11663,2023-01-20 11:09:16.682408,190996796,-10.67426,-6.06188,-0.06997035,-3.321772,4.855725,-0.094022,-99.83576,-41.65643,-0.1912235,-18.2935,14.27536,0.328714
11696,2023-01-20 11:09:16.782405,191096779,-8.651058,-2.131958,-0.09802869,-6.863006,-0.577231,-0.05431109,-102.2566,-57.71733,-0.1741628,-20.27079,-17.95664,0.3284826
11728,2023-01-20 11:09:16.882479,191196846,-7.595849,1.970671,-0.1408785,-20.33246,-1.257172,-0.07109635,-100.937,-68.0631,-0.1462879,-17.14289,-5.330276,0.3301277
11761,2023-01-20 11:09:16.982449,191296811,-6.154714,-6.952013,-0.05211779,-27.8661,5.110312,-0.1835761,-98.05741,-70.04588,-0.1205102,-12.09962,3.211117,0.3322943
11793,2023-01-20 11:09:17.082430,191396794,3.736232,3.195702,-0.09030266,-38.25396,-11.95079,-0.110432,-92.8341,-73.51111,-0.09823054,-10.78287,-5.140018,0.3305193
11825,2023-01-20 11:09:17.182446,191496813,4.646003,3.69455,-0.09409185,-35.37651,-12.9226,-0.1627393,-84.65445,-78.51768,-0.06991131,0.001249313,-25.5084,0.3401163
11858,2023-01-20 11:09:17.282437,191596800,11.06907,-2.799414,-0.04191719,-35.22775,-18.06359,-0.09235709,-75.17274,-78.79672,-0.03852922,8.377368,2.408981,0.3440539
11889,2023-01-20 11:09:17.382448,191696804,9.820292,3.778813,-0.05643607,-28.59191,-2.829323,-0.1678367,-65.98326,-73.22947,-0.01339798,15.53218,19.97547,0.3476276
11923,2023-01-20 11:09:17.482469,191796852,23.3961,-7.519019,0.01346531,-28.97507,-4.389553,-0.1378923,-57.4597,-67.74673,0.005233945,10.44826,31.09198,0.3397626
11954,2023-01-20 11:09:17.582430,191896846,20.05319,13.05965,-0.07048796,-27.64266,-8.686508,-0.1485532,-52.09716,-63.61922,0.01412026,13.24145,-1.103401,0.3417888
11986,2023-01-20 11:09:17.682405,191996799,26.3372,2.316652,-0.005741627,-32.12386,-6.656378,-0.1489758,-47.58989,-60.16507,0.01547906,22.21679,6.912708,0.348664
12019,2023-01-20 11:09:17.782411,192096772,22.75499,4.53672,-0.001609845,-32.81409,-9.781196,-0.143945,-22.175,-54.5458,0.03384615,23.59618,46.66967,0.3456738
12051,2023-01-20 11:09:17.882445,192196803,36.80817,3.833632,0.01150574,-29.49995,-18.92566,-0.1219365,10.06936,-42.55,0.09372935,30.96146,-28.44334,0.3505316
12084,2023-01-20 11:09:17.982457,192296819,41.55539,-5.53372,0.0860435,-25.06795,-12.53836,-0.1269667,29.34249,-27.46249,0.1371481,58.54631,-16.5,0.3820251
12117,2023-01-20 11:09:18.082428,192396807,57.30943,10.10408,0.07875477,-14.33345,-6.553036,-0.1500788,38.15263,-12.40778,0.1478717,96.33807,-46.81892,0.4151086
12149,2023-01-20 11:09:18.182528,192496927,44.53614,23.53125,0.04964305,-18.0011,14.94387,-0.2209964,44.36113,4.056142,0.1315696,123.8537,48.40097,0.4380533
12182,2023-01-20 11:09:18.275006,192596799,45.70472,16.71454,0.07210966,-10.44967,-6.796795,-0.08007365,43.9353,12.23437,0.107876,133.7723,9.64632,0.4470507
12213,2023-01-20 11:09:18.366041,192696804,33.26842,16.45436,0.03183801,-17.99368,13.62353,-0.221118,43.21062,18.44212,0.08301647,147.6188,49.5121,0.470979
12247,2023-01-20 11:09:18.462662,192796815,30.42052,5.633119,0.07554963,-20.04849,2.672107,-0.1793152,38.71766,27.43545,0.05771448,149.9773,49.06197,0.4809835
12278,2023-01-20 11:09:18.562582,192896806,21.39693,23.71727,-0.03457014,-23.26665,-1.644611,-0.1674193,31.94207,32.51541,0.02257374,137.5695,46.57679,0.4783796
12311,2023-01-20 11:09:18.662532,192996782,16.9218,8.344522,0.03326167,-20.82883,2.407429,-0.230319,20.51867,31.19745,-0.01077266,127.1199,58.39672,0.4908843
12344,2023-01-20 11:09:18.762588,193096837,9.842896,8.844315,-0.003660007,-22.79015,6.344064,-0.2249711,10.28023,27.12521,-0.03914183,101.8248,86.84912,0.4799801
12376,2023-01-20 11:09:18.862559,193196843,10.34076,0.5658773,0.03219932,-19.829,-4.687734,-0.1831523,1.473776,19.76774,-0.05339897,72.70239,34.38511,0.4724475
12409,2023-01-20 11:09:18.962478,193296817,10.58138,9.471823,-0.0002732594,-17.29149,-1.746885,-0.1822381,-4.513081,14.06048,-0.0626668,45.88054,54.46606,0.4656945
12441,2023-01-20 11:09:19.062448,193396794,13.11313,11.12704,0.02055685,-13.5757,-0.01302939,-0.2030727,-9.499342,13.45481,-0.06800263,15.83744,28.61776,0.4527086
12473,2023-01-20 11:09:19.162491,193496814,9.526729,10.57004,0.0144756,-12.32119,2.79795,-0.2017653,-11.157,6.263211,-0.0710749,-5.461729,11.10821,0.4481615
12506,2023-01-20 11:09:19.262531,193596784,3.733488,12.86553,-0.01165509,-11.74699,8.206378,-0.2249016,-11.00213,1.94807,-0.0599529,-19.50192,33.61216,0.4485834
12538,2023-01-20 11:09:19.362663,193696818,-8.220401,4.44242,0.007507021,-6.948538,2.305494,-0.1939162,-8.609608,0.4356265,-0.05096631,-50.6158,47.83001,0.4228193
12573,2023-01-20 11:09:19.462664,193796879,-9.320474,-14.97249,0.03414247,-0.1727978,2.119273,-0.2183322,-5.589372,-2.928936,-0.0309382,-72.0821,-24.50762,0.4097758
12604,2023-01-20 11:09:19.562463,193896831,-8.704121,-8.688454,0.008962929,1.430195,8.347615,-0.2132146,-1.449251,-2.417238,-0.01723719,-73.59155,-17.64374,0.4113631
12637,2023-01-20 11:09:19.662388,193996792,2.65808,-10.163,0.008146964,6.909933,-5.171427,-0.09612589,0.7396798,-3.584068,-0.004172978,-68.39352,-40.36102,0.4079023
12671,2023-01-20 11:09:19.762406,194096775,12.19704,-0.671346,0.04068982,6.693352,17.81161,-0.2302197,2.953509,-1.261533,-0.0003092941,-51.61414,-34.94234,0.4135344
12703,2023-01-20 11:09:19.862437,194196800,5.582632,-4.098806,0.03340428,4.606194,6.008462,-0.1477457,5.780147,0.8620999,0.003122747,-40.24425,-17.21096,0.4113284
12736,2023-01-20 11:09:19.962447,194296820,-0.6346953,-5.665608,0.02281756,-1.039574,13.92762,-0.2437151,7.484373,3.981162,0.001978134,-34.6271,6.346321,0.4022181
12769,2023-01-20 11:09:20.062462,194396831,-3.711531,-13.36892,0.04468993,-1.957816,0.05624167,-0.1708168,7.616622,3.168646,-0.0005046828,-32.22972,-7.178211,0.397975
12801,2023-01-20 11:09:20.162573,194496930,-0.03609328,-8.884599,0.02017805,-3.810892,4.875379,-0.2142111,7.239419,5.164887,-0.001265508,-26.62626,-15.417,0.3970578
12833,2023-01-20 11:09:20.262440,194596799,3.017838,-12.06638,0.07169846,0.9478042,-0.9398296,-0.1916138,5.682101,7.623746,-0.00739246,-6.581248,-70.48616,0.4124232
12865,2023-01-20 11:09:20.362426,194696795,6.622614,-10.12752,0.03716523,-0.02531524,15.83534,-0.2111929,3.831189,7.542915,-0.01870807,6.95471,51.29652,0.4202524
12899,2023-01-20 11:09:20.462429,194796816,3.687291,-1.883568,0.03265226,4.462424,4.775537,-0.1753979,1.415242,10.63197,-0.02760237,-36.36556,83.44679,0.3624794
12932,2023-01-20 11:09:20.562387,194896797,0.01520742,1.703993,0.01083146,-1.50582,3.646242,-0.1981172,-0.4413784,5.237478,-0.03459923,-63.19361,-10.69031,0.3433693
12965,2023-01-20 11:09:20.662396,194996801,-1.246546,-3.165741,0.05942854,6.81299,-6.272899,-0.1746956,-1.065122,3.9745,-0.03118002,-53.2549,-48.74659,0.3572232
12998,2023-01-20 11:09:20.762454,195096837,-1.191991,-3.822833,0.02256238,9.429377,15.15694,-0.2295884,0.07828949,-0.06561977,-0.02324964,-37.14106,8.987236,0.3662361
13030,2023-01-20 11:09:20.862436,195196813,4.556909,-4.283135,0.04365445,16.85642,14.90157,-0.2185959,1.807023,1.641733,-0.01082679,-25.73052,-39.45284,0.3672096
13063,2023-01-20 11:09:20.962445,195296824,2.385463,3.723524,0.04052325,16.77665,22.46308,-0.2353214,2.494349,3.740222,-0.01192082,-16.43728,25.25482,0.3636142
13096,2023-01-20 11:09:21.062421,195396800,-4.30266,-1.92058,-0.005403608,10.33128,12.77186,-0.193985,2.730103,2.552676,-0.0140178,-15.53293,3.673744,0.3549927
13127,2023-01-20 11:09:21.162447,195496824,-6.892742,-1.423292,-0.01194304,0.09323666,7.443842,-0.1902007,3.452586,3.839519,-0.01211683,-7.3503,-17.11798,0.3543573
13161,2023-01-20 11:09:21.262418,195596794,-8.241062,-2.539777,-0.0200284,0.6437101,-10.44989,-0.1071004,2.823015,3.806414,-0.01605064,-13.22675,35.48832,0.341688
13193,2023-01-20 11:09:21.362412,195696788,-9.02707,-6.679128,0.002816424,-0.7710162,-3.801924,-0.1277325,1.585453,5.881555,-0.02293355,-16.00553,20.55244,0.3336774
13227,2023-01-20 11:09:21.462538,195796943,-3.909585,-7.141929,0.0190945,-0.145351,-13.42596,-0.08715782,-0.08062916,5.021986,-0.02805645,-7.042986,8.498669,0.3387801
13258,2023-01-20 11:09:21.562393,195896844,-2.812232,0.9267293,0.007162911,-0.1462083,-1.957432,-0.1636069,-1.285945,2.333488,-0.03158317,10.43351,0.9098053,0.3481559
13291,2023-01-20 11:09:21.662364,195996800,2.830785,-3.702873,0.04523689,1.932373,-6.01515,-0.1359378,-2.365323,2.159442,-0.03054384,18.43926,-2.871609,0.3473742
13324,2023-01-20 11:09:21.762392,196096778,5.06345,4.893429,0.0003437307,-2.356838,-1.505607,-0.1586815,-2.609099,2.52645,-0.02891412,43.62365,-2.252483,0.3696729
13356,2023-01-20 11:09:21.862428,196196797,7.183706,2.106117,0.06123095,0.3489009,-0.4286204,-0.2002857,-2.57978,3.318633,-0.02745862,50.48052,55.61066,0.3689089
13389,2023-01-20 11:09:21.962442,196296815,2.830996,9.12123,0.00585804,-3.253895,3.153758,-0.1984833,-2.274851,0.7655102,-0.02716674,45.39001,23.83051,0.3603364
13422,2023-01-20 11:09:22.062466,196396853,-6.024166,-1.919563,0.02307058,-3.950439,-10.14987,-0.1514767,-1.085069,1.115669,-0.02391741,44.66088,33.05912,0.3660592
13453,2023-01-20 11:09:22.162409,196496817,-10.48118,-7.129192,0.03080225,-5.762939,2.424728,-0.2407164,0.49635,0.07715075,-0.01841843,45.39671,44.47556,0.3684154
13487,2023-01-20 11:09:22.262388,196596792,-10.06799,-3.914342,-0.03867139,-6.396369,-6.78354,-0.1925433,2.3043,0.03433002,-0.01053767,47.48039,-0.6853104,0.3773593
13519,2023-01-20 11:09:22.362415,196696799,-7.572274,-6.467271,0.003373334,-9.211023,-10.29394,-0.1531861,3.836569,-1.866367,-0.004098533,55.52783,12.16507,0.393472
13553,2023-01-20 11:09:22.462423,196796815,-4.407989,-6.613038,0.04880653,-4.559791,-0.7578504,-0.2347605,4.679442,0.2333302,-0.002105987,55.70457,21.1751,0.3975083
13584,2023-01-20 11:09:22.562400,196896817,-3.329313,1.2267,-0.01841219,-1.524604,-0.5229355,-0.1685707,5.094441,2.653573,-0.002977449,49.97701,13.70249,0.3981743
13617,2023-01-20 11:09:22.662376,196996787,-3.274877,-7.616904,0.0676741,-1.184841,3.028092,-0.2334293,5.282263,2.10497,-0.00269091,41.14865,32.08094,0.395419
13650,2023-01-20 11:09:22.762458,197096845,-3.434618,-4.940983,0.02680682,-4.465176,-3.790289,-0.1653049,5.686468,1.957258,-0.001315816,38.42263,-0.5255699,0.3970782
13682,2023-01-20 11:09:22.862423,197196799,-3.976421,4.884178,-0.02615037,-5.670624,-1.968736,-0.1903077,5.694755,3.129378,-0.001228522,27.2247,60.87551,0.3942164
13715,2023-01-20 11:09:22.962437,197296810,-4.297483,-0.5353466,-0.006937011,-4.042974,-5.022497,-0.1740301,5.739133,1.607558,-0.003270242,1.417503,38.15107,0.3716073
13748,2023-01-20 11:09:23.062429,197396799,-5.535655,2.434911,-0.007822943,-2.755656,-12.51568,-0.1615115,4.915859,3.616052,-0.006557325,5.153394,-70.28703,0.3868117
13779,2023-01-20 11:09:23.162448,197496815,-6.054984,-1.312443,0.004090243,0.3896939,1.560331,-0.2071636,3.21382,7.70711,-0.01409866,41.44566,-51.85585,0.4282893
13813,2023-01-20 11:09:23.262430,197596802,-0.8572655,-1.36504,0.02627625,-0.0942364,10.40005,-0.2360669,0.8636616,2.674607,-0.01889828,57.81371,13.73253,0.438473
13845,2023-01-20 11:09:23.362468,197696848,2.476772,4.530007,0.003914937,-3.384877,5.529149,-0.2099608,-0.4353367,0.8232749,-0.01980874,44.77492,41.9343,0.4244756
13879,2023-01-20 11:09:23.462425,197796817,2.218938,7.315633,-0.02725039,-7.322172,-5.255416,-0.1662104,-0.3004955,0.8793163,-0.01670898,19.38153,36.6931,0.4078552
13910,2023-01-20 11:09:23.562389,197896794,-0.3501484,6.888292,-0.01448805,-7.591585,-2.47463,-0.2009441,0.2099747,-2.161784,-0.01403574,-10.08635,50.84972,0.3894519
13943,2023-01-20 11:09:23.662367,197996763,-2.87064,2.418582,-0.0009161406,-4.949555,-14.3503,-0.1634666,1.311182,1.82817,-0.01074803,-31.69268,-15.96661,0.3783677
13976,2023-01-20 11:09:23.762394,198096767,-3.806992,2.151748,-0.03584735,-3.060753,-10.16674,-0.1411801,1.925114,0.5940628,-0.008548168,-24.65103,-18.81809,0.3953603
14008,2023-01-20 11:09:23.862407,198196775,-4.620245,2.36941,-0.001592255,3.321129,7.053239,-0.2452347,2.143002,3.077939,-0.0103457,-21.97137,-13.1484,0.3983562
14041,2023-01-20 11:09:23.962423,198296798,-8.394637,4.80904,-0.02194029,3.712644,-2.507287,-0.1380154,1.832503,1.311216,-0.01231371,-38.59593,26.10044,0.3820517
