LineNo,UTC_Approx,TimeUS,C1,C2,C3,C4,C5,C6,C7,C8,C9,C10,C11,C12,C13,C14
690,2023-01-20 11:08:47.422088,161676837,1000,1000,1000,1000,1000,0,0,0,0,0,0,0,0,0
1041,2023-01-20 11:08:47.517074,161776822,1000,1000,1000,1000,1000,0,0,0,0,0,0,0,0,0
1157,2023-01-20 11:08:47.631673,161894159,1000,1000,1000,1000,1000,0,0,0,0,0,0,0,0,0
1420,2023-01-20 11:08:47.739641,161996582,1000,1000,1000,1000,1000,0,0,0,0,0,0,0,0,0
1839,2023-01-20 11:08:47.843153,162097099,1000,1000,1000,1000,1000,0,0,0,0,0,0,0,0,0
1886,2023-01-20 11:08:47.942957,162197145,1000,1000,1000,1000,1000,0,0,0,0,0,0,0,0,0
1931,2023-01-20 11:08:48.042780,162297104,1000,1000,1000,1000,1000,0,0,0,0,0,0,0,0,0
1977,2023-01-20 11:08:48.142774,162397094,1000,1000,1000,1000,1000,0,0,0,0,0,0,0,0,0
2030,2023-01-20 11:08:48.242793,162497096,1000,1000,1000,1000,1000,0,0,0,0,0,0,0,0,0
2071,2023-01-20 11:08:48.342844,162597114,1000,1000,1000,1000,1000,0,0,0,0,0,0,0,0,0
2129,2023-01-20 11:08:48.439008,162697136,1000,1000,1000,1000,1000,0,0,0,0,0,0,0,0,0
2188,2023-01-20 11:08:48.529943,162797110,1000,1000,1000,1000,1000,0,0,0,0,0,0,0,0,0
2248,2023-01-20 11:08:48.623000,162897127,1000,1000,1000,1000,1000,0,0,0,0,0,0,0,0,0
2302,2023-01-20 11:08:48.722971,162997078,1000,1000,1000,1000,1000,0,0,0,0,0,0,0,0,0
2358,2023-01-20 11:08:48.823012,163097104,1000,1000,1000,1000,1000,0,0,0,0,0,0,0,0,0
2413,2023-01-20 11:08:48.923053,163197144,1000,1000,1000,1000,1000,0,0,0,0,0,0,0,0,0
2453,2023-01-20 11:08:49.022996,163297090,1000,1000,1000,1000,1000,0,0,0,0,0,0,0,0,0
2497,2023-01-20 11:08:49.122978,163397088,1000,1000,1000,1000,1000,0,0,0,0,0,0,0,0,0
2539,2023-01-20 11:08:49.225492,163497081,1000,1000,1000,1000,1000,0,0,0,0,0,0,0,0,0
2579,2023-01-20 11:08:49.336532,163597085,1006,1006,1006,1006,1000,0,0,0,0,0,0,0,0,0
2622,2023-01-20 11:08:49.442869,163697142,1036,1036,1036,1036,1000,0,0,0,0,0,0,0,0,0
2660,2023-01-20 11:08:49.542814,163797152,1066,1066,1066,1066,1000,0,0,0,0,0,0,0,0,0
2700,2023-01-20 11:08:49.638874,163897081,1096,1096,1096,1096,1000,0,0,0,0,0,0,0,0,0
2738,2023-01-20 11:08:49.729941,163997126,1100,1100,1100,1100,1000,0,0,0,0,0,0,0,0,0
2781,2023-01-20 11:08:49.822992,164097088,1100,1100,1100,1100,1000,0,0,0,0,0,0,0,0,0
2821,2023-01-20 11:08:49.923017,164197137,1100,1100,1100,1100,1000,0,0,0,0,0,0,0,0,0
2861,2023-01-20 11:08:50.022967,164297096,1100,1100,1100,1100,1000,0,0,0,0,0,0,0,0,0
2900,2023-01-20 11:08:50.122999,164397091,1100,1100,1100,1100,1000,0,0,0,0,0,0,0,0,0
2943,2023-01-20 11:08:50.223057,164497129,1100,1100,1100,1100,1000,0,0,0,0,0,0,0,0,0
2981,2023-01-20 11:08:50.322983,164597096,1100,1100,1100,1100,1000,0,0,0,0,0,0,0,0,0
3023,2023-01-20 11:08:50.422979,164697134,1100,1100,1100,1100,1000,0,0,0,0,0,0,0,0,0
3063,2023-01-20 11:08:50.522886,164797088,1121,1121,1121,1121,1000,0,0,0,0,0,0,0,0,0
3103,2023-01-20 11:08:50.622861,164897087,1161,1150,1213,1198,1000,0,0,0,0,0,0,0,0,0
3141,2023-01-20 11:08:50.722925,164997093,1150,1160,1220,1233,1000,0,0,0,0,0,0,0,0,0
3182,2023-01-20 11:08:50.822943,165097081,1150,1158,1195,1203,1000,0,0,0,0,0,0,0,0,0
3222,2023-01-20 11:08:50.922986,165197188,1151,1150,1203,1204,1000,0,0,0,0,0,0,0,0,0
3262,2023-01-20 11:08:51.022850,165297099,1163,1150,1221,1212,1000,0,0,0,0,0,0,0,0,0
3300,2023-01-20 11:08:51.122858,165397092,1178,1150,1236,1216,1000,0,0,0,0,0,0,0,0,0
3343,2023-01-20 11:08:51.222894,165497127,1177,1150,1223,1206,1000,0,0,0,0,0,0,0,0,0
3381,2023-01-20 11:08:51.322821,165597098,1150,1155,1203,1210,1000,0,0,0,0,0,0,0,0,0
3423,2023-01-20 11:08:51.422828,165697143,1163,1150,1233,1226,1000,0,0,0,0,0,0,0,0,0
3461,2023-01-20 11:08:51.522756,165797087,1185,1150,1237,1211,1000,0,0,0,0,0,0,0,0,0
3502,2023-01-20 11:08:51.622752,165897095,1154,1150,1201,1202,1000,0,0,0,0,0,0,0,0,0
3539,2023-01-20 11:08:51.722753,165997088,1175,1150,1203,1187,1000,0,0,0,0,0,0,0,0,0
3582,2023-01-20 11:08:51.822761,166097092,1150,1159,1202,1213,1000,0,0,0,0,0,0,0,0,0
3622,2023-01-20 11:08:51.922816,166197150,1170,1150,1245,1233,1000,0,0,0,0,0,0,0,0,0
3662,2023-01-20 11:08:52.022763,166297097,1161,1150,1210,1204,1000,0,0,0,0,0,0,0,0,0
3698,2023-01-20 11:08:52.122761,166397088,1169,1150,1236,1227,1000,0,0,0,0,0,0,0,0,0
3733,2023-01-20 11:08:52.222817,166497140,1159,1150,1201,1199,1000,0,0,0,0,0,0,0,0,0
3763,2023-01-20 11:08:52.322767,166597092,1150,1168,1196,1216,1000,0,0,0,0,0,0,0,0,0
3798,2023-01-20 11:08:52.422830,166697163,1166,1150,1218,1207,1000,0,0,0,0,0,0,0,0,0
3828,2023-01-20 11:08:52.522798,166797156,1172,1150,1216,1202,1000,0,0,0,0,0,0,0,0,0
3861,2023-01-20 11:08:52.622723,166897094,1160,1150,1220,1218,1000,0,0,0,0,0,0,0,0,0
3891,2023-01-20 11:08:52.722749,166997087,1161,1150,1188,1183,1000,0,0,0,0,0,0,0,0,0
3926,2023-01-20 11:08:52.822777,167097089,1150,1158,1194,1208,1000,0,0,0,0,0,0,0,0,0
3958,2023-01-20 11:08:52.922830,167197140,1172,1150,1234,1219,1000,0,0,0,0,0,0,0,0,0
3991,2023-01-20 11:08:53.022797,167297113,1171,1150,1217,1205,1000,0,0,0,0,0,0,0,0,0
4021,2023-01-20 11:08:53.122749,167397096,1150,1158,1209,1222,1000,0,0,0,0,0,0,0,0,0
4056,2023-01-20 11:08:53.222775,167497144,1166,1150,1208,1201,1000,0,0,0,0,0,0,0,0,0
4086,2023-01-20 11:08:53.322786,167597145,1197,1197,1245,1252,1000,0,0,0,0,0,0,0,0,0
4121,2023-01-20 11:08:53.422811,167697171,1285,1268,1328,1318,1000,0,0,0,0,0,0,0,0,0
4151,2023-01-20 11:08:53.522749,167797150,1357,1334,1401,1384,1000,0,0,0,0,0,0,0,0,0
4184,2023-01-20 11:08:53.622726,167897151,1414,1387,1469,1448,1000,0,0,0,0,0,0,0,0,0
4214,2023-01-20 11:08:53.722749,167997142,1457,1485,1490,1510,1000,0,0,0,0,0,0,0,0,0
4249,2023-01-20 11:08:53.822774,168097146,1515,1540,1547,1541,1000,0,0,0,0,0,0,0,0,0
4282,2023-01-20 11:08:53.922841,168197229,1611,1575,1597,1547,1000,0,0,0,0,0,0,0,0,0
4315,2023-01-20 11:08:54.022812,168297216,1636,1589,1662,1617,1000,0,0,0,0,0,0,0,0,0
4346,2023-01-20 11:08:54.122740,168397157,1676,1588,1663,1590,1000,0,0,0,0,0,0,0,0,0
4381,2023-01-20 11:08:54.222713,168497134,1570,1542,1627,1625,1000,0,0,0,0,0,0,0,0,0
4411,2023-01-20 11:08:54.322794,168597191,1552,1563,1563,1582,1000,0,0,0,0,0,0,0,0,0
4446,2023-01-20 11:08:54.422791,168697177,1600,1564,1579,1507,1000,0,0,0,0,0,0,0,0,0
4476,2023-01-20 11:08:54.522743,168797167,1543,1590,1575,1560,1000,0,0,0,0,0,0,0,0,0
4509,2023-01-20 11:08:54.622737,168897186,1566,1624,1567,1582,1000,0,0,0,0,0,0,0,0,0
4539,2023-01-20 11:08:54.722713,168997146,1621,1578,1570,1512,1000,0,0,0,0,0,0,0,0,0
4574,2023-01-20 11:08:54.822731,169097149,1576,1585,1529,1553,1000,0,0,0,0,0,0,0,0,0
4606,2023-01-20 11:08:54.922831,169197237,1575,1555,1561,1595,1000,0,0,0,0,0,0,0,0,0
4639,2023-01-20 11:08:55.022764,169297160,1583,1567,1551,1612,1000,0,0,0,0,0,0,0,0,0
4669,2023-01-20 11:08:55.122770,169397156,1637,1562,1565,1586,1000,0,0,0,0,0,0,0,0,0
4704,2023-01-20 11:08:55.222770,169497149,1610,1516,1616,1633,1000,0,0,0,0,0,0,0,0,0
4734,2023-01-20 11:08:55.322760,169597145,1624,1570,1585,1638,1000,0,0,0,0,0,0,0,0,0
4769,2023-01-20 11:08:55.422792,169697187,1628,1609,1574,1641,1000,0,0,0,0,0,0,0,0,0
4801,2023-01-20 11:08:55.522737,169797160,1611,1618,1577,1609,1000,0,0,0,0,0,0,0,0,0
4834,2023-01-20 11:08:55.622721,169897159,1606,1602,1634,1594,1000,0,0,0,0,0,0,0,0,0
4864,2023-01-20 11:08:55.722806,169997214,1570,1622,1647,1634,1000,0,0,0,0,0,0,0,0,0
4899,2023-01-20 11:08:55.822754,170097141,1634,1622,1633,1539,1000,0,0,0,0,0,0,0,0,0
4931,2023-01-20 11:08:55.922812,170197202,1543,1609,1620,1580,1000,0,0,0,0,0,0,0,0,0
4964,2023-01-20 11:08:56.022785,170297176,1565,1609,1628,1541,1000,0,0,0,0,0,0,0,0,0
4994,2023-01-20 11:08:56.122757,170397141,1523,1653,1605,1581,1000,0,0,0,0,0,0,0,0,0
5029,2023-01-20 11:08:56.222772,170497151,1595,1628,1624,1528,1000,0,0,0,0,0,0,0,0,0
5059,2023-01-20 11:08:56.322790,170597171,1574,1610,1644,1609,1000,0,0,0,0,0,0,0,0,0
5094,2023-01-20 11:08:56.422797,170697187,1530,1620,1617,1682,1000,0,0,0,0,0,0,0,0,0
5124,2023-01-20 11:08:56.522801,170797223,1624,1611,1604,1612,1000,0,0,0,0,0,0,0,0,0
5157,2023-01-20 11:08:56.622719,170897158,1585,1582,1612,1647,1000,0,0,0,0,0,0,0,0,0
5187,2023-01-20 11:08:56.722744,170997149,1578,1572,1633,1656,1000,0,0,0,0,0,0,0,0,0
5222,2023-01-20 11:08:56.822789,171097170,1613,1600,1622,1620,1000,0,0,0,0,0,0,0,0,0
5254,2023-01-20 11:08:56.922825,171197214,1570,1591,1639,1649,1000,0,0,0,0,0,0,0,0,0
5287,2023-01-20 11:08:57.022764,171297157,1578,1591,1637,1627,1000,0,0,0,0,0,0,0,0,0
5318,2023-01-20 11:08:57.122752,171397137,1580,1559,1645,1607,1000,0,0,0,0,0,0,0,0,0
5353,2023-01-20 11:08:57.222768,171497146,1598,1573,1652,1620,1000,0,0,0,0,0,0,0,0,0
5383,2023-01-20 11:08:57.322814,171597191,1621,1627,1654,1652,1000,0,0,0,0,0,0,0,0,0
5418,2023-01-20 11:08:57.422790,171697173,1636,1653,1644,1656,1000,0,0,0,0,0,0,0,0,0
5448,2023-01-20 11:08:57.522728,171797147,1666,1618,1681,1635,1000,0,0,0,0,0,0,0,0,0
5481,2023-01-20 11:08:57.622717,171897157,1578,1620,1646,1712,1000,0,0,0,0,0,0,0,0,0
5511,2023-01-20 11:08:57.722739,171997145,1592,1615,1616,1686,1000,0,0,0,0,0,0,0,0,0
5546,2023-01-20 11:08:57.822815,172097197,1569,1559,1635,1698,1000,0,0,0,0,0,0,0,0,0
5578,2023-01-20 11:08:57.922810,172197197,1622,1524,1615,1628,1000,0,0,0,0,0,0,0,0,0
5613,2023-01-20 11:08:58.022789,172297179,1613,1576,1559,1628,1000,0,0,0,0,0,0,0,0,0
5643,2023-01-20 11:08:58.122797,172397184,1594,1600,1525,1614,1000,0,0,0,0,0,0,0,0,0
5678,2023-01-20 11:08:58.223061,172497446,1560,1539,1548,1587,1000,0,0,0,0,0,0,0,0,0
5708,2023-01-20 11:08:58.322778,172597164,1478,1532,1542,1628,1000,0,0,0,0,0,0,0,0,0
5743,2023-01-20 11:08:58.422800,172697194,1507,1553,1544,1583,1000,0,0,0,0,0,0,0,0,0
5773,2023-01-20 11:08:58.522743,172797172,1526,1575,1565,1550,1000,0,0,0,0,0,0,0,0,0
5806,2023-01-20 11:08:58.622735,172897183,1463,1610,1574,1600,1000,0,0,0,0,0,0,0,0,0
5836,2023-01-20 11:08:58.722750,172997161,1480,1636,1602,1632,1000,0,0,0,0,0,0,0,0,0
5871,2023-01-20 11:08:58.822782,173097169,1478,1638,1605,1648,1000,0,0,0,0,0,0,0,0,0
5903,2023-01-20 11:08:58.922816,173197219,1532,1606,1607,1592,1000,0,0,0,0,0,0,0,0,0
5937,2023-01-20 11:08:59.020709,173297198,1512,1588,1577,1589,1000,0,0,0,0,0,0,0,0,0
5968,2023-01-20 11:08:59.111617,173397210,1523,1574,1559,1591,1000,0,0,0,0,0,0,0,0,0
6003,2023-01-20 11:08:59.202998,173497442,1572,1572,1550,1589,1000,0,0,0,0,0,0,0,0,0
6033,2023-01-20 11:08:59.302719,173597160,1557,1559,1548,1626,1000,0,0,0,0,0,0,0,0,0
6068,2023-01-20 11:08:59.403111,173697238,1608,1586,1546,1601,1000,0,0,0,0,0,0,0,0,0
6097,2023-01-20 11:08:59.514140,173797158,1574,1571,1560,1615,1000,0,0,0,0,0,0,0,0,0
6130,2023-01-20 11:08:59.620674,173897171,1500,1589,1547,1663,1000,0,0,0,0,0,0,0,0,0
6160,2023-01-20 11:08:59.711558,173997149,1581,1552,1598,1589,1000,0,0,0,0,0,0,0,0,0
6196,2023-01-20 11:08:59.802730,174097171,1507,1601,1547,1644,1000,0,0,0,0,0,0,0,0,0
6228,2023-01-20 11:08:59.902721,174197192,1543,1582,1553,1591,1000,0,0,0,0,0,0,0,0,0
6261,2023-01-20 11:09:00.002667,174297169,1595,1589,1543,1545,1000,0,0,0,0,0,0,0,0,0
6291,2023-01-20 11:09:00.102633,174397209,1539,1544,1590,1623,1000,0,0,0,0,0,0,0,0,0
6326,2023-01-20 11:09:00.202800,174497445,1583,1548,1566,1582,1000,0,0,0,0,0,0,0,0,0
6356,2023-01-20 11:09:00.302549,174597143,1532,1561,1535,1628,1000,0,0,0,0,0,0,0,0,0
6391,2023-01-20 11:09:00.402653,174697198,1593,1540,1584,1608,1000,0,0,0,0,0,0,0,0,0
6423,2023-01-20 11:09:00.502544,174797144,1624,1545,1592,1598,1000,0,0,0,0,0,0,0,0,0
6456,2023-01-20 11:09:00.602509,174897161,1599,1550,1598,1649,1000,0,0,0,0,0,0,0,0,0
6486,2023-01-20 11:09:00.702533,174997153,1643,1603,1540,1615,1000,0,0,0,0,0,0,0,0,0
6522,2023-01-20 11:09:00.802586,175097175,1592,1568,1563,1663,1000,0,0,0,0,0,0,0,0,0
6554,2023-01-20 11:09:00.902692,175197305,1613,1556,1550,1623,1000,0,0,0,0,0,0,0,0,0
6587,2023-01-20 11:09:01.002541,175297175,1604,1513,1570,1628,1000,0,0,0,0,0,0,0,0,0
6617,2023-01-20 11:09:01.102618,175397177,1595,1567,1494,1632,1000,0,0,0,0,0,0,0,0,0
6652,2023-01-20 11:09:01.202995,175497482,1634,1571,1500,1611,1000,0,0,0,0,0,0,0,0,0
6682,2023-01-20 11:09:01.302597,175597152,1601,1580,1508,1648,1000,0,0,0,0,0,0,0,0,0
6717,2023-01-20 11:09:01.402578,175697200,1612,1552,1526,1609,1000,0,0,0,0,0,0,0,0,0
6747,2023-01-20 11:09:01.502498,175797147,1610,1561,1545,1617,1000,0,0,0,0,0,0,0,0,0
6780,2023-01-20 11:09:01.602531,175897206,1613,1591,1562,1638,1000,0,0,0,0,0,0,0,0,0
6811,2023-01-20 11:09:01.702512,175997181,1594,1624,1530,1647,1000,0,0,0,0,0,0,0,0,0
6846,2023-01-20 11:09:01.802495,176097159,1642,1585,1590,1608,1000,0,0,0,0,0,0,0,0,0
6878,2023-01-20 11:09:01.902547,176197207,1640,1582,1601,1602,1000,0,0,0,0,0,0,0,0,0
6911,2023-01-20 11:09:02.002510,176297166,1547,1635,1534,1665,1000,0,0,0,0,0,0,0,0,0
6941,2023-01-20 11:09:02.102544,176397188,1611,1625,1535,1597,1000,0,0,0,0,0,0,0,0,0
6976,2023-01-20 11:09:02.202882,176497514,1576,1594,1573,1641,1000,0,0,0,0,0,0,0,0,0
7006,2023-01-20 11:09:02.302532,176597160,1606,1615,1567,1622,1000,0,0,0,0,0,0,0,0,0
7041,2023-01-20 11:09:02.402564,176697190,1618,1651,1571,1637,1000,0,0,0,0,0,0,0,0,0
7071,2023-01-20 11:09:02.502483,176797158,1655,1624,1583,1572,1000,0,0,0,0,0,0,0,0,0
7104,2023-01-20 11:09:02.602432,176897154,1622,1617,1590,1603,1000,0,0,0,0,0,0,0,0,0
7134,2023-01-20 11:09:02.702468,176997145,1576,1596,1633,1657,1000,0,0,0,0,0,0,0,0,0
7169,2023-01-20 11:09:02.802536,177097169,1573,1638,1608,1668,1000,0,0,0,0,0,0,0,0,0
7201,2023-01-20 11:09:02.902684,177197322,1618,1616,1629,1615,1000,0,0,0,0,0,0,0,0,0
7234,2023-01-20 11:09:03.002539,177297181,1574,1662,1544,1632,1000,0,0,0,0,0,0,0,0,0
7264,2023-01-20 11:09:03.102519,177397173,1586,1626,1523,1586,1000,0,0,0,0,0,0,0,0,0
7299,2023-01-20 11:09:03.202702,177497367,1609,1612,1531,1579,1000,0,0,0,0,0,0,0,0,0
7329,2023-01-20 11:09:03.302490,177597159,1633,1620,1530,1579,1000,0,0,0,0,0,0,0,0,0
7364,2023-01-20 11:09:03.402522,177697196,1618,1584,1519,1575,1000,0,0,0,0,0,0,0,0,0
7394,2023-01-20 11:09:03.502504,177797177,1615,1560,1497,1566,1000,0,0,0,0,0,0,0,0,0
7427,2023-01-20 11:09:03.602480,177897152,1611,1582,1472,1580,1000,0,0,0,0,0,0,0,0,0
7458,2023-01-20 11:09:03.702510,177997169,1567,1579,1493,1641,1000,0,0,0,0,0,0,0,0,0
7493,2023-01-20 11:09:03.802512,178097159,1573,1554,1520,1652,1000,0,0,0,0,0,0,0,0,0
7525,2023-01-20 11:09:03.902531,178197191,1608,1582,1532,1656,1000,0,0,0,0,0,0,0,0,0
7558,2023-01-20 11:09:04.002501,178297173,1614,1604,1506,1654,1000,0,0,0,0,0,0,0,0,0
7589,2023-01-20 11:09:04.102481,178397162,1621,1590,1516,1636,1000,0,0,0,0,0,0,0,0,0
7624,2023-01-20 11:09:04.202683,178497371,1598,1545,1572,1644,1000,0,0,0,0,0,0,0,0,0
7654,2023-01-20 11:09:04.302494,178597159,1593,1580,1559,1642,1000,0,0,0,0,0,0,0,0,0
7689,2023-01-20 11:09:04.402553,178697195,1591,1595,1557,1630,1000,0,0,0,0,0,0,0,0,0
7719,2023-01-20 11:09:04.502536,178797194,1639,1572,1609,1582,1000,0,0,0,0,0,0,0,0,0
7752,2023-01-20 11:09:04.602489,178897163,1574,1599,1610,1644,1000,0,0,0,0,0,0,0,0,0
7782,2023-01-20 11:09:04.702511,178997160,1579,1615,1602,1630,1000,0,0,0,0,0,0,0,0,0
7817,2023-01-20 11:09:04.802532,179097158,1587,1618,1584,1598,1000,0,0,0,0,0,0,0,0,0
7849,2023-01-20 11:09:04.902534,179197196,1556,1608,1549,1593,1000,0,0,0,0,0,0,0,0,0
7882,2023-01-20 11:09:05.002480,179297177,1514,1563,1564,1613,1000,0,0,0,0,0,0,0,0,0
7912,2023-01-20 11:09:05.102478,179397152,1591,1550,1563,1537,1000,0,0,0,0,0,0,0,0,0
7947,2023-01-20 11:09:05.202547,179497199,1540,1582,1535,1595,1000,0,0,0,0,0,0,0,0,0
7977,2023-01-20 11:09:05.302516,179597153,1534,1571,1542,1607,1000,0,0,0,0,0,0,0,0,0
8013,2023-01-20 11:09:05.402580,179697205,1553,1546,1549,1593,1000,0,0,0,0,0,0,0,0,0
8045,2023-01-20 11:09:05.502484,179797165,1545,1535,1526,1589,1000,0,0,0,0,0,0,0,0,0
8078,2023-01-20 11:09:05.602451,179897186,1530,1537,1487,1584,1000,0,0,0,0,0,0,0,0,0
8108,2023-01-20 11:09:05.702542,179997216,1560,1497,1459,1587,1000,0,0,0,0,0,0,0,0,0
8143,2023-01-20 11:09:05.802545,180097161,1577,1502,1420,1621,1000,0,0,0,0,0,0,0,0,0
8175,2023-01-20 11:09:05.902537,180197193,1600,1547,1422,1609,1000,0,0,0,0,0,0,0,0,0
8208,2023-01-20 11:09:06.002474,180297169,1585,1522,1486,1601,1000,0,0,0,0,0,0,0,0,0
8238,2023-01-20 11:09:06.102516,180397202,1587,1511,1515,1588,1000,0,0,0,0,0,0,0,0,0
8273,2023-01-20 11:09:06.202509,180497186,1586,1546,1502,1593,1000,0,0,0,0,0,0,0,0,0
8303,2023-01-20 11:09:06.302471,180597151,1584,1532,1543,1582,1000,0,0,0,0,0,0,0,0,0
8338,2023-01-20 11:09:06.402510,180697192,1586,1561,1536,1586,1000,0,0,0,0,0,0,0,0,0
8368,2023-01-20 11:09:06.502486,180797160,1593,1591,1508,1599,1000,0,0,0,0,0,0,0,0,0
8401,2023-01-20 11:09:06.602489,180897155,1593,1580,1514,1622,1000,0,0,0,0,0,0,0,0,0
8431,2023-01-20 11:09:06.702482,180997152,1593,1566,1525,1634,1000,0,0,0,0,0,0,0,0,0
8466,2023-01-20 11:09:06.802495,181097169,1606,1547,1541,1598,1000,0,0,0,0,0,0,0,0,0
8498,2023-01-20 11:09:06.902560,181197221,1621,1556,1544,1588,1000,0,0,0,0,0,0,0,0,0
8531,2023-01-20 11:09:07.002502,181297151,1632,1585,1546,1591,1000,0,0,0,0,0,0,0,0,0
8561,2023-01-20 11:09:07.102504,181397151,1610,1587,1594,1633,1000,0,0,0,0,0,0,0,0,0
8596,2023-01-20 11:09:07.202680,181497324,1648,1596,1643,1601,1000,0,0,0,0,0,0,0,0,0
8626,2023-01-20 11:09:07.302531,181597173,1628,1665,1621,1641,1000,0,0,0,0,0,0,0,0,0
8662,2023-01-20 11:09:07.402569,181697210,1632,1650,1641,1627,1000,0,0,0,0,0,0,0,0,0
8692,2023-01-20 11:09:07.502563,181797216,1670,1624,1681,1574,1000,0,0,0,0,0,0,0,0,0
8725,2023-01-20 11:09:07.602503,181897168,1665,1635,1675,1549,1000,0,0,0,0,0,0,0,0,0
8755,2023-01-20 11:09:07.702520,181997164,1624,1652,1653,1572,1000,0,0,0,0,0,0,0,0,0
8790,2023-01-20 11:09:07.802588,182097212,1650,1623,1667,1539,1000,0,0,0,0,0,0,0,0,0
8822,2023-01-20 11:09:07.902569,182197205,1611,1664,1606,1596,1000,0,0,0,0,0,0,0,0,0
8855,2023-01-20 11:09:08.002520,182297168,1641,1607,1626,1554,1000,0,0,0,0,0,0,0,0,0
8885,2023-01-20 11:09:08.102527,182397193,1649,1644,1562,1530,1000,0,0,0,0,0,0,0,0,0
8920,2023-01-20 11:09:08.202496,182497179,1636,1633,1606,1577,1000,0,0,0,0,0,0,0,0,0
8950,2023-01-20 11:09:08.302505,182597165,1644,1611,1654,1600,1000,0,0,0,0,0,0,0,0,0
8985,2023-01-20 11:09:08.402599,182697238,1651,1666,1583,1589,1000,0,0,0,0,0,0,0,0,0
9015,2023-01-20 11:09:08.502488,182797158,1670,1632,1609,1569,1000,0,0,0,0,0,0,0,0,0
9048,2023-01-20 11:09:08.602461,182897161,1673,1577,1676,1579,1000,0,0,0,0,0,0,0,0,0
9078,2023-01-20 11:09:08.702489,182997157,1669,1609,1644,1573,1000,0,0,0,0,0,0,0,0,0
9113,2023-01-20 11:09:08.802525,183097161,1650,1631,1608,1569,1000,0,0,0,0,0,0,0,0,0
9147,2023-01-20 11:09:08.902563,183197212,1627,1652,1585,1591,1000,0,0,0,0,0,0,0,0,0
9180,2023-01-20 11:09:09.002292,183297178,1640,1611,1648,1595,1000,0,0,0,0,0,0,0,0,0
9210,2023-01-20 11:09:09.093339,183397126,1651,1657,1598,1571,1000,0,0,0,0,0,0,0,0,0
9243,2023-01-20 11:09:09.184492,183497191,1684,1602,1668,1548,1000,0,0,0,0,0,0,0,0,0
9276,2023-01-20 11:09:09.282945,183597171,1661,1636,1638,1588,1000,0,0,0,0,0,0,0,0,0
9309,2023-01-20 11:09:09.382973,183697212,1632,1665,1585,1611,1000,0,0,0,0,0,0,0,0,0
9341,2023-01-20 11:09:09.482937,183797174,1650,1646,1602,1601,1000,0,0,0,0,0,0,0,0,0
9372,2023-01-20 11:09:09.582933,183897166,1675,1597,1655,1592,1000,0,0,0,0,0,0,0,0,0
9405,2023-01-20 11:09:09.682931,183997147,1721,1611,1645,1555,1000,0,0,0,0,0,0,0,0,0
9439,2023-01-20 11:09:09.782963,184097159,1737,1607,1641,1543,1000,0,0,0,0,0,0,0,0,0
9473,2023-01-20 11:09:09.882989,184197202,1714,1606,1642,1587,1000,0,0,0,0,0,0,0,0,0
9504,2023-01-20 11:09:09.982959,184297195,1695,1650,1599,1621,1000,0,0,0,0,0,0,0,0,0
9536,2023-01-20 11:09:10.082956,184397200,1693,1642,1601,1612,1000,0,0,0,0,0,0,0,0,0
9568,2023-01-20 11:09:10.182937,184497185,1698,1620,1632,1607,1000,0,0,0,0,0,0,0,0,0
9601,2023-01-20 11:09:10.282915,184597164,1705,1598,1643,1576,1000,0,0,0,0,0,0,0,0,0
9634,2023-01-20 11:09:10.382972,184697222,1710,1596,1649,1555,1000,0,0,0,0,0,0,0,0,0
9666,2023-01-20 11:09:10.482848,184797190,1712,1623,1636,1550,1000,0,0,0,0,0,0,0,0,0
9699,2023-01-20 11:09:10.582912,184897365,1666,1656,1609,1604,1000,0,0,0,0,0,0,0,0,0
9731,2023-01-20 11:09:10.682728,184997145,1650,1616,1644,1606,1000,0,0,0,0,0,0,0,0,0
9764,2023-01-20 11:09:10.782980,185097330,1681,1650,1602,1553,1000,0,0,0,0,0,0,0,0,0
9798,2023-01-20 11:09:10.882888,185197246,1663,1642,1599,1560,1000,0,0,0,0,0,0,0,0,0
9829,2023-01-20 11:09:10.982958,185297338,1675,1586,1652,1541,1000,0,0,0,0,0,0,0,0,0
9862,2023-01-20 11:09:11.082780,185397170,1654,1587,1655,1574,1000,0,0,0,0,0,0,0,0,0
9894,2023-01-20 11:09:11.182953,185497351,1675,1639,1603,1551,1000,0,0,0,0,0,0,0,0,0
9927,2023-01-20 11:09:11.282748,185597159,1706,1637,1626,1536,1000,0,0,0,0,0,0,0,0,0
9960,2023-01-20 11:09:11.382968,185697393,1681,1605,1658,1559,1000,0,0,0,0,0,0,0,0,0
9991,2023-01-20 11:09:11.482729,185797153,1681,1583,1673,1536,1000,0,0,0,0,0,0,0,0,0
10022,2023-01-20 11:09:11.582910,185897330,1658,1612,1648,1559,1000,0,0,0,0,0,0,0,0,0
10054,2023-01-20 11:09:11.682791,185997193,1616,1672,1569,1607,1000,0,0,0,0,0,0,0,0,0
10087,2023-01-20 11:09:11.782872,186097255,1676,1593,1646,1555,1000,0,0,0,0,0,0,0,0,0
10121,2023-01-20 11:09:11.882824,186197208,1677,1626,1614,1558,1000,0,0,0,0,0,0,0,0,0
10152,2023-01-20 11:09:11.982931,186297320,1671,1663,1571,1568,1000,0,0,0,0,0,0,0,0,0
10184,2023-01-20 11:09:12.082740,186397155,1673,1632,1621,1588,1000,0,0,0,0,0,0,0,0,0
10216,2023-01-20 11:09:12.182949,186497394,1679,1611,1631,1577,1000,0,0,0,0,0,0,0,0,0
10249,2023-01-20 11:09:12.282719,186597142,1665,1584,1654,1595,1000,0,0,0,0,0,0,0,0,0
10283,2023-01-20 11:09:12.382949,186697339,1687,1560,1670,1571,1000,0,0,0,0,0,0,0,0,0
10315,2023-01-20 11:09:12.482811,186797215,1672,1582,1631,1573,1000,0,0,0,0,0,0,0,0,0
10346,2023-01-20 11:09:12.582890,186897317,1669,1580,1617,1563,1000,0,0,0,0,0,0,0,0,0
10378,2023-01-20 11:09:12.682752,186997157,1649,1631,1561,1582,1000,0,0,0,0,0,0,0,0,0
10411,2023-01-20 11:09:12.782879,187097253,1627,1598,1578,1583,1000,0,0,0,0,0,0,0,0,0
10445,2023-01-20 11:09:12.882830,187197204,1629,1534,1592,1523,1000,0,0,0,0,0,0,0,0,0
10476,2023-01-20 11:09:12.982774,187297155,1553,1541,1529,1550,1000,0,0,0,0,0,0,0,0,0
10508,2023-01-20 11:09:13.082770,187397158,1549,1499,1520,1510,1000,0,0,0,0,0,0,0,0,0
10540,2023-01-20 11:09:13.182798,187497193,1556,1523,1499,1508,1000,0,0,0,0,0,0,0,0,0
10573,2023-01-20 11:09:13.282756,187597142,1578,1529,1507,1495,1000,0,0,0,0,0,0,0,0,0
10606,2023-01-20 11:09:13.382866,187697240,1593,1523,1513,1469,1000,0,0,0,0,0,0,0,0,0
10638,2023-01-20 11:09:13.482756,187797152,1576,1493,1546,1491,1000,0,0,0,0,0,0,0,0,0
10669,2023-01-20 11:09:13.582725,187897150,1583,1550,1514,1500,1000,0,0,0,0,0,0,0,0,0
10701,2023-01-20 11:09:13.682787,187997197,1584,1551,1537,1511,1000,0,0,0,0,0,0,0,0,0
10734,2023-01-20 11:09:13.782763,188097149,1615,1576,1532,1483,1000,0,0,0,0,0,0,0,0,0
10768,2023-01-20 11:09:13.882827,188197205,1590,1593,1529,1515,1000,0,0,0,0,0,0,0,0,0
10799,2023-01-20 11:09:13.982791,188297165,1648,1582,1550,1456,1000,0,0,0,0,0,0,0,0,0
10831,2023-01-20 11:09:14.082771,188397153,1602,1586,1551,1525,1000,0,0,0,0,0,0,0,0,0
10863,2023-01-20 11:09:14.182823,188497215,1610,1540,1599,1527,1000,0,0,0,0,0,0,0,0,0
10897,2023-01-20 11:09:14.282783,188597169,1667,1594,1558,1461,1000,0,0,0,0,0,0,0,0,0
10931,2023-01-20 11:09:14.382813,188697191,1649,1590,1571,1488,1000,0,0,0,0,0,0,0,0,0
10963,2023-01-20 11:09:14.482746,188797146,1632,1591,1584,1510,1000,0,0,0,0,0,0,0,0,0
10994,2023-01-20 11:09:14.582731,188897160,1608,1612,1584,1539,1000,0,0,0,0,0,0,0,0,0
11026,2023-01-20 11:09:14.682782,188997191,1644,1576,1640,1516,1000,0,0,0,0,0,0,0,0,0
11059,2023-01-20 11:09:14.782766,189097144,1619,1612,1594,1533,1000,0,0,0,0,0,0,0,0,0
11093,2023-01-20 11:09:14.882812,189197202,1668,1612,1585,1471,1000,0,0,0,0,0,0,0,0,0
11124,2023-01-20 11:09:14.982789,189297199,1610,1650,1546,1544,1000,0,0,0,0,0,0,0,0,0
11156,2023-01-20 11:09:15.082742,189397147,1619,1604,1622,1557,1000,0,0,0,0,0,0,0,0,0
11188,2023-01-20 11:09:15.182776,189497171,1647,1609,1620,1527,1000,0,0,0,0,0,0,0,0,0
11221,2023-01-20 11:09:15.282766,189597144,1630,1612,1603,1535,1000,0,0,0,0,0,0,0,0,0
11257,2023-01-20 11:09:15.382810,189697169,1625,1623,1577,1531,1000,0,0,0,0,0,0,0,0,0
11289,2023-01-20 11:09:15.482771,189797166,1596,1644,1555,1575,1000,0,0,0,0,0,0,0,0,0
11322,2023-01-20 11:09:15.582738,189897180,1640,1600,1607,1545,1000,0,0,0,0,0,0,0,0,0
11354,2023-01-20 11:09:15.682716,189997129,1663,1635,1573,1535,1000,0,0,0,0,0,0,0,0,0
11387,2023-01-20 11:09:15.782758,190097127,1667,1552,1640,1525,1000,0,0,0,0,0,0,0,0,0
11421,2023-01-20 11:09:15.882800,190197161,1654,1619,1592,1565,1000,0,0,0,0,0,0,0,0,0
11452,2023-01-20 11:09:15.982795,190297156,1676,1632,1592,1559,1000,0,0,0,0,0,0,0,0,0
11484,2023-01-20 11:09:16.082774,190397138,1679,1596,1612,1543,1000,0,0,0,0,0,0,0,0,0
11516,2023-01-20 11:09:16.182822,190497189,1665,1553,1646,1553,1000,0,0,0,0,0,0,0,0,0
11549,2023-01-20 11:09:16.282755,190597122,1654,1623,1593,1582,1000,0,0,0,0,0,0,0,0,0
11582,2023-01-20 11:09:16.382805,190697170,1611,1657,1547,1634,1000,0,0,0,0,0,0,0,0,0
11614,2023-01-20 11:09:16.482758,190797137,1670,1635,1492,1609,1000,0,0,0,0,0,0,0,0,0
11645,2023-01-20 11:09:16.582725,190897122,1687,1540,1508,1657,1000,0,0,0,0,0,0,0,0,0
11677,2023-01-20 11:09:16.682761,190997149,1738,1488,1513,1605,1000,0,0,0,0,0,0,0,0,0
11710,2023-01-20 11:09:16.782748,191097122,1727,1531,1486,1603,1000,0,0,0,0,0,0,0,0,0
11744,2023-01-20 11:09:16.882841,191197208,1740,1559,1489,1564,1000,0,0,0,0,0,0,0,0,0
11775,2023-01-20 11:09:16.982793,191297155,1741,1472,1601,1543,1000,0,0,0,0,0,0,0,0,0
11807,2023-01-20 11:09:17.082756,191397120,1718,1539,1559,1547,1000,0,0,0,0,0,0,0,0,0
11839,2023-01-20 11:09:17.182785,191497152,1736,1539,1603,1515,1000,0,0,0,0,0,0,0,0,0
11872,2023-01-20 11:09:17.282768,191597130,1679,1567,1612,1563,1000,0,0,0,0,0,0,0,0,0
11905,2023-01-20 11:09:17.382806,191697162,1708,1553,1652,1510,1000,0,0,0,0,0,0,0,0,0
11937,2023-01-20 11:09:17.482808,191797191,1654,1535,1670,1543,1000,0,0,0,0,0,0,0,0,0
11968,2023-01-20 11:09:17.582762,191897178,1690,1576,1645,1492,1000,0,0,0,0,0,0,0,0,0
12000,2023-01-20 11:09:17.682730,191997124,1670,1553,1678,1532,1000,0,0,0,0,0,0,0,0,0
12033,2023-01-20 11:09:17.782767,192097128,1656,1559,1682,1524,1000,0,0,0,0,0,0,0,0,0
12067,2023-01-20 11:09:17.882799,192197157,1620,1595,1706,1517,1000,0,0,0,0,0,0,0,0,0
12098,2023-01-20 11:09:17.982797,192297159,1598,1607,1775,1560,1000,0,0,0,0,0,0,0,0,0
12131,2023-01-20 11:09:18.082762,192397141,1636,1634,1807,1572,1000,0,0,0,0,0,0,0,0,0
12163,2023-01-20 11:09:18.182802,192497201,1701,1629,1831,1554,1000,0,0,0,0,0,0,0,0,0
12196,2023-01-20 11:09:18.275311,192597134,1653,1675,1789,1646,1000,0,0,0,0,0,0,0,0,0
12229,2023-01-20 11:09:18.366371,192697166,1751,1643,1831,1599,1000,0,0,0,0,0,0,0,0,0
12261,2023-01-20 11:09:18.462994,192797147,1737,1641,1830,1655,1000,0,0,0,0,0,0,0,0,0
12292,2023-01-20 11:09:18.562908,192897132,1783,1674,1774,1627,1000,0,0,0,0,0,0,0,0,0
12325,2023-01-20 11:09:18.662865,192997115,1801,1616,1817,1653,1000,0,0,0,0,0,0,0,0,0
12358,2023-01-20 11:09:18.762932,193097181,1815,1613,1785,1643,1000,0,0,0,0,0,0,0,0,0
12392,2023-01-20 11:09:18.862942,193197226,1788,1602,1773,1675,1000,0,0,0,0,0,0,0,0,0
12423,2023-01-20 11:09:18.962820,193297159,1797,1607,1752,1660,1000,0,0,0,0,0,0,0,0,0
12455,2023-01-20 11:09:19.062774,193397120,1790,1574,1756,1652,1000,0,0,0,0,0,0,0,0,0
12487,2023-01-20 11:09:19.162831,193497153,1790,1572,1749,1647,1000,0,0,0,0,0,0,0,0,0
12520,2023-01-20 11:09:19.262873,193597126,1803,1579,1752,1622,1000,0,0,0,0,0,0,0,0,0
12555,2023-01-20 11:09:19.363034,193697189,1764,1564,1732,1617,1000,0,0,0,0,0,0,0,0,0
12587,2023-01-20 11:09:19.462987,193797202,1747,1537,1749,1598,1000,0,0,0,0,0,0,0,0,0
12618,2023-01-20 11:09:19.562795,193897163,1750,1560,1744,1584,1000,0,0,0,0,0,0,0,0,0
12651,2023-01-20 11:09:19.662714,193997118,1699,1616,1702,1627,1000,0,0,0,0,0,0,0,0,0
12685,2023-01-20 11:09:19.762759,194097128,1740,1547,1770,1585,1000,0,0,0,0,0,0,0,0,0
12719,2023-01-20 11:09:19.862791,194197154,1709,1588,1737,1615,1000,0,0,0,0,0,0,0,0,0
12750,2023-01-20 11:09:19.962777,194297150,1743,1539,1761,1559,1000,0,0,0,0,0,0,0,0,0
12783,2023-01-20 11:09:20.062796,194397165,1705,1558,1738,1600,1000,0,0,0,0,0,0,0,0,0
12815,2023-01-20 11:09:20.162847,194497204,1730,1548,1744,1569,1000,0,0,0,0,0,0,0,0,0
12847,2023-01-20 11:09:20.262765,194597124,1716,1546,1764,1619,1000,0,0,0,0,0,0,0,0,0
12881,2023-01-20 11:09:20.362788,194697157,1747,1555,1760,1607,1000,0,0,0,0,0,0,0,0,0
12913,2023-01-20 11:09:20.462760,194797147,1694,1514,1698,1573,1000,0,0,0,0,0,0,0,0,0
12946,2023-01-20 11:09:20.562724,194897134,1700,1489,1681,1536,1000,0,0,0,0,0,0,0,0,0
12979,2023-01-20 11:09:20.662735,194997140,1681,1493,1703,1582,1000,0,0,0,0,0,0,0,0,0
13012,2023-01-20 11:09:20.762787,195097170,1721,1497,1720,1543,1000,0,0,0,0,0,0,0,0,0
13046,2023-01-20 11:09:20.862794,195197171,1704,1499,1729,1554,1000,0,0,0,0,0,0,0,0,0
13077,2023-01-20 11:09:20.962783,195297162,1710,1488,1731,1541,1000,0,0,0,0,0,0,0,0,0
13110,2023-01-20 11:09:21.062747,195397126,1706,1523,1690,1532,1000,0,0,0,0,0,0,0,0,0
13141,2023-01-20 11:09:21.162777,195497154,1705,1528,1686,1529,1000,0,0,0,0,0,0,0,0,0
13175,2023-01-20 11:09:21.262772,195597148,1667,1559,1637,1555,1000,0,0,0,0,0,0,0,0,0
13209,2023-01-20 11:09:21.362784,195697160,1662,1526,1646,1552,1000,0,0,0,0,0,0,0,0,0
13241,2023-01-20 11:09:21.462815,195797220,1645,1541,1638,1586,1000,0,0,0,0,0,0,0,0,0
13272,2023-01-20 11:09:21.562731,195897182,1690,1516,1671,1555,1000,0,0,0,0,0,0,0,0,0
13305,2023-01-20 11:09:21.662690,195997126,1663,1511,1675,1584,1000,0,0,0,0,0,0,0,0,0
13338,2023-01-20 11:09:21.762737,196097123,1707,1545,1684,1573,1000,0,0,0,0,0,0,0,0,0
13372,2023-01-20 11:09:21.862795,196197164,1698,1493,1724,1580,1000,0,0,0,0,0,0,0,0,0
13403,2023-01-20 11:09:21.962778,196297151,1712,1514,1696,1547,1000,0,0,0,0,0,0,0,0,0
13436,2023-01-20 11:09:22.062796,196397183,1690,1536,1690,1581,1000,0,0,0,0,0,0,0,0,0
13467,2023-01-20 11:09:22.162752,196497160,1722,1492,1731,1542,1000,0,0,0,0,0,0,0,0,0
13501,2023-01-20 11:09:22.262713,196597117,1734,1564,1696,1536,1000,0,0,0,0,0,0,0,0,0
13535,2023-01-20 11:09:22.362769,196697153,1712,1581,1712,1587,1000,0,0,0,0,0,0,0,0,0
13567,2023-01-20 11:09:22.462762,196797154,1729,1524,1763,1574,1000,0,0,0,0,0,0,0,0,0
13598,2023-01-20 11:09:22.562737,196897154,1730,1588,1714,1574,1000,0,0,0,0,0,0,0,0,0
13631,2023-01-20 11:09:22.662707,196997118,1720,1513,1768,1581,1000,0,0,0,0,0,0,0,0,0
13664,2023-01-20 11:09:22.762793,197097180,1710,1569,1729,1595,1000,0,0,0,0,0,0,0,0,0
13698,2023-01-20 11:09:22.862781,197197157,1737,1579,1717,1556,1000,0,0,0,0,0,0,0,0,0
13729,2023-01-20 11:09:22.962767,197297140,1707,1555,1700,1552,1000,0,0,0,0,0,0,0,0,0
13762,2023-01-20 11:09:23.062762,197397132,1716,1575,1705,1573,1000,0,0,0,0,0,0,0,0,0
13793,2023-01-20 11:09:23.162797,197497164,1762,1583,1755,1599,1000,0,0,0,0,0,0,0,0,0
13827,2023-01-20 11:09:23.262771,197597143,1774,1567,1779,1608,1000,0,0,0,0,0,0,0,0,0
13861,2023-01-20 11:09:23.362844,197697225,1763,1576,1751,1597,1000,0,0,0,0,0,0,0,0,0
13893,2023-01-20 11:09:23.462775,197797167,1745,1596,1712,1587,1000,0,0,0,0,0,0,0,0,0
13924,2023-01-20 11:09:23.562738,197897143,1738,1558,1717,1558,1000,0,0,0,0,0,0,0,0,0
13957,2023-01-20 11:09:23.662716,197997112,1709,1561,1700,1570,1000,0,0,0,0,0,0,0,0,0
13990,2023-01-20 11:09:23.762761,198097134,1726,1604,1692,1579,1000,0,0,0,0,0,0,0,0,0
14024,2023-01-20 11:09:23.862780,198197148,1755,1541,1747,1550,1000,0,0,0,0,0,0,0,0,0
14055,2023-01-20 11:09:23.962780,198297154,1711,1585,1684,1576,1000,0,0,0,0,0,0,0,0,0
14088,2023-01-20 11:09:24.062790,198397179,1728,1557,1702,1552,1000,0,0,0,0,0,0,0,0,0
14119,2023-01-20 11:09:24.162750,198497159,1756,1551,1726,1536,1000,0,0,0,0,0,0,0,0,0
14153,2023-01-20 11:09:24.262722,198597121,1739,1612,1690,1574,1000,0,0,0,0,0,0,0,0,0
14187,2023-01-20 11:09:24.362783,198697156,1735,1555,1721,1558,1000,0,0,0,0,0,0,0,0,0
14220,2023-01-20 11:09:24.462776,198797157,1727,1528,1743,1565,1000,0,0,0,0,0,0,0,0,0
14251,2023-01-20 11:09:24.562725,198897135,1736,1562,1716,1542,1000,0,0,0,0,0,0,0,0,0
14284,2023-01-20 11:09:24.662753,198997171,1700,1560,1716,1584,1000,0,0,0,0,0,0,0,0,0
14317,2023-01-20 11:09:24.762727,199097139,1738,1572,1697,1535,1000,0,0,0,0,0,0,0,0,0
14351,2023-01-20 11:09:24.862763,199197161,1705,1591,1659,1555,1000,0,0,0,0,0,0,0,0,0
14382,2023-01-20 11:09:24.962777,199297156,1727,1497,1708,1493,1000,0,0,0,0,0,0,0,0,0
14415,2023-01-20 11:09:25.062755,199397127,1713,1546,1676,1522,1000,0,0,0,0,0,0,0,0,0
14446,2023-01-20 11:09:25.162788,199497159,1686,1527,1672,1541,1000,0,0,0,0,0,0,0,0,0
14480,2023-01-20 11:09:25.262758,199597123,1689,1569,1647,1552,1000,0,0,0,0,0,0,0,0,0
14514,2023-01-20 11:09:25.362867,199697222,1727,1603,1627,1535,1000,0,0,0,0,0,0,0,0,0
14546,2023-01-20 11:09:25.462764,199797139,1710,1485,1703,1524,1000,0,0,0,0,0,0,0,0,0
14579,2023-01-20 11:09:25.562711,199897123,1684,1547,1674,1534,1000,0,0,0,0,0,0,0,0,0
14612,2023-01-20 11:09:25.662713,199997122,1663,1554,1683,1543,1000,0,0,0,0,0,0,0,0,0
14645,2023-01-20 11:09:25.762737,200097120,1668,1564,1659,1494,1000,0,0,0,0,0,0,0,0,0
14679,2023-01-20 11:09:25.862784,200197154,1638,1557,1639,1501,1000,0,0,0,0,0,0,0,0,0
14710,2023-01-20 11:09:25.962834,200297198,1691,1526,1693,1478,1000,0,0,0,0,0,0,0,0,0
14743,2023-01-20 11:09:26.062750,200397128,1681,1513,1713,1515,1000,0,0,0,0,0,0,0,0,0
14774,2023-01-20 11:09:26.162740,200497144,1705,1509,1720,1503,1000,0,0,0,0,0,0,0,0,0
14808,2023-01-20 11:09:26.262733,200597131,1732,1515,1751,1536,1000,0,0,0,0,0,0,0,0,0
14842,2023-01-20 11:09:26.362789,200697161,1733,1583,1698,1548,1000,0,0,0,0,0,0,0,0,0
14874,2023-01-20 11:09:26.462760,200797142,1730,1560,1727,1575,1000,0,0,0,0,0,0,0,0,0
14905,2023-01-20 11:09:26.562722,200897134,1716,1562,1720,1588,1000,0,0,0,0,0,0,0,0,0
14938,2023-01-20 11:09:26.662752,200997173,1758,1552,1762,1561,1000,0,0,0,0,0,0,0,0,0
14971,2023-01-20 11:09:26.762708,201097126,1763,1598,1732,1558,1000,0,0,0,0,0,0,0,0,0
15005,2023-01-20 11:09:26.862758,201197156,1731,1607,1735,1613,1000,0,0,0,0,0,0,0,0,0
15036,2023-01-20 11:09:26.962780,201297147,1779,1612,1744,1570,1000,0,0,0,0,0,0,0,0,0
15069,2023-01-20 11:09:27.062760,201397121,1749,1591,1759,1600,1000,0,0,0,0,0,0,0,0,0
15100,2023-01-20 11:09:27.162786,201497156,1746,1591,1740,1573,1000,0,0,0,0,0,0,0,0,0
15134,2023-01-20 11:09:27.262789,201597170,1728,1554,1737,1551,1000,0,0,0,0,0,0,0,0,0
15168,2023-01-20 11:09:27.362767,201697159,1699,1589,1684,1556,1000,0,0,0,0,0,0,0,0,0
15200,2023-01-20 11:09:27.462769,201797160,1721,1506,1725,1508,1000,0,0,0,0,0,0,0,0,0
15231,2023-01-20 11:09:27.562748,201897130,1725,1499,1720,1507,1000,0,0,0,0,0,0,0,0,0
15264,2023-01-20 11:09:27.662755,201997130,1735,1546,1694,1520,1000,0,0,0,0,0,0,0,0,0
15297,2023-01-20 11:09:27.762766,202097135,1710,1574,1644,1540,1000,0,0,0,0,0,0,0,0,0
15331,2023-01-20 11:09:27.862805,202197172,1688,1514,1664,1536,1000,0,0,0,0,0,0,0,0,0
15363,2023-01-20 11:09:27.962860,202297227,1718,1502,1699,1512,1000,0,0,0,0,0,0,0,0,0
15395,2023-01-20 11:09:28.062775,202397138,1740,1535,1688,1490,1000,0,0,0,0,0,0,0,0,0
15426,2023-01-20 11:09:28.162791,202497147,1713,1505,1698,1505,1000,0,0,0,0,0,0,0,0,0
15460,2023-01-20 11:09:28.262762,202597120,1645,1522,1633,1515,1000,0,0,0,0,0,0,0,0,0
15494,2023-01-20 11:09:28.362802,202697166,1657,1527,1625,1486,1000,0,0,0,0,0,0,0,0,0
15526,2023-01-20 11:09:28.457092,202797155,1676,1424,1714,1466,1000,0,0,0,0,0,0,0,0,0
15557,2023-01-20 11:09:28.548041,202897179,1659,1530,1661,1475,1000,0,0,0,0,0,0,0,0,0
15590,2023-01-20 11:09:28.642813,202997136,1608,1508,1633,1456,1000,0,0,0,0,0,0,0,0,0
15623,2023-01-20 11:09:28.742810,203097131,1594,1525,1677,1556,1000,0,0,0,0,0,0,0,0,0
15657,2023-01-20 11:09:28.842828,203197149,1664,1521,1712,1526,1000,0,0,0,0,0,0,0,0,0
15689,2023-01-20 11:09:28.942825,203297147,1699,1525,1734,1524,1000,0,0,0,0,0,0,0,0,0
15721,2023-01-20 11:09:29.042804,203397124,1700,1503,1736,1516,1000,0,0,0,0,0,0,0,0,0
15752,2023-01-20 11:09:29.142850,203497164,1710,1514,1711,1492,1000,0,0,0,0,0,0,0,0,0
15786,2023-01-20 11:09:29.242844,203597166,1699,1573,1665,1516,1000,0,0,0,0,0,0,0,0,0
15820,2023-01-20 11:09:29.342808,203697155,1712,1556,1692,1516,1000,0,0,0,0,0,0,0,0,0
15852,2023-01-20 11:09:29.442780,203797147,1707,1552,1715,1542,1000,0,0,0,0,0,0,0,0,0
15884,2023-01-20 11:09:29.542758,203897140,1696,1528,1721,1530,1000,0,0,0,0,0,0,0,0,0
15917,2023-01-20 11:09:29.642791,203997135,1690,1572,1691,1532,1000,0,0,0,0,0,0,0,0,0
15951,2023-01-20 11:09:29.742906,204097139,1672,1592,1682,1562,1000,0,0,0,0,0,0,0,0,0
15985,2023-01-20 11:09:29.843013,204197213,1723,1574,1728,1544,1000,0,0,0,0,0,0,0,0,0
16017,2023-01-20 11:09:29.942885,204297155,1745,1542,1761,1542,1000,0,0,0,0,0,0,0,0,0
16049,2023-01-20 11:09:30.042806,204397135,1706,1585,1717,1583,1000,0,0,0,0,0,0,0,0,0
16080,2023-01-20 11:09:30.142781,204497155,1739,1547,1735,1533,1000,0,0,0,0,0,0,0,0,0
16114,2023-01-20 11:09:30.242732,204597125,1705,1589,1703,1586,1000,0,0,0,0,0,0,0,0,0
16148,2023-01-20 11:09:30.342789,204697167,1726,1575,1706,1553,1000,0,0,0,0,0,0,0,0,0
16180,2023-01-20 11:09:30.442765,204797142,1733,1542,1741,1555,1000,0,0,0,0,0,0,0,0,0
16213,2023-01-20 11:09:30.542777,204897172,1722,1588,1706,1566,1000,0,0,0,0,0,0,0,0,0
16246,2023-01-20 11:09:30.642720,204997129,1736,1572,1742,1570,1000,0,0,0,0,0,0,0,0,0
16279,2023-01-20 11:09:30.742720,205097134,1749,1625,1703,1563,1000,0,0,0,0,0,0,0,0,0
16313,2023-01-20 11:09:30.842751,205197153,1760,1581,1745,1561,1000,0,0,0,0,0,0,0,0,0
16388,2023-01-20 11:09:30.942793,205297160,1750,1557,1765,1579,1000,0,0,0,0,0,0,0,0,0
16420,2023-01-20 11:09:31.042772,205397122,1729,1566,1751,1587,1000,0,0,0,0,0,0,0,0,0
16451,2023-01-20 11:09:31.142857,205497213,1754,1618,1706,1545,1000,0,0,0,0,0,0,0,0,0
16485,2023-01-20 11:09:31.242789,205597152,1714,1602,1722,1590,1000,0,0,0,0,0,0,0,0,0
16519,2023-01-20 11:09:31.342813,205697184,1757,1555,1760,1519,1000,0,0,0,0,0,0,0,0,0
16550,2023-01-20 11:09:31.443015,205797397,1704,1591,1712,1557,1000,0,0,0,0,0,0,0,0,0
16581,2023-01-20 11:09:31.542736,205897135,1695,1540,1700,1486,1000,0,0,0,0,0,0,0,0,0
16614,2023-01-20 11:09:31.642722,205997122,1697,1544,1713,1501,1000,0,0,0,0,0,0,0,0,0
16647,2023-01-20 11:09:31.742743,206097123,1760,1551,1763,1506,1000,0,0,0,0,0,0,0,0,0
16681,2023-01-20 11:09:31.842835,206197202,1718,1611,1722,1591,1000,0,0,0,0,0,0,0,0,0
16713,2023-01-20 11:09:31.942787,206297151,1738,1556,1750,1551,1000,0,0,0,0,0,0,0,0,0
16745,2023-01-20 11:09:32.042760,206397122,1716,1556,1714,1531,1000,0,0,0,0,0,0,0,0,0
16776,2023-01-20 11:09:32.142797,206497158,1691,1572,1672,1518,1000,0,0,0,0,0,0,0,0,0
16810,2023-01-20 11:09:32.242774,206597137,1701,1617,1669,1541,1000,0,0,0,0,0,0,0,0,0
16844,2023-01-20 11:09:32.342785,206697154,1731,1616,1727,1580,1000,0,0,0,0,0,0,0,0,0
16876,2023-01-20 11:09:32.443090,206797472,1751,1609,1746,1582,1000,0,0,0,0,0,0,0,0,0
16907,2023-01-20 11:09:32.542722,206897124,1774,1555,1777,1547,1000,0,0,0,0,0,0,0,0,0
16940,2023-01-20 11:09:32.642707,206997121,1736,1561,1749,1570,1000,0,0,0,0,0,0,0,0,0
16973,2023-01-20 11:09:32.742721,207097138,1740,1616,1691,1551,1000,0,0,0,0,0,0,0,0,0
17007,2023-01-20 11:09:32.842764,207197169,1721,1577,1727,1581,1000,0,0,0,0,0,0,0,0,0
17039,2023-01-20 11:09:32.942770,207297146,1757,1562,1729,1515,1000,0,0,0,0,0,0,0,0,0
17071,2023-01-20 11:09:33.042775,207397134,1711,1601,1681,1553,1000,0,0,0,0,0,0,0,0,0
17102,2023-01-20 11:09:33.142830,207497188,1720,1592,1706,1567,1000,0,0,0,0,0,0,0,0,0
17136,2023-01-20 11:09:33.242755,207597126,1722,1640,1693,1612,1000,0,0,0,0,0,0,0,0,0
17170,2023-01-20 11:09:33.342763,207697166,1772,1584,1740,1551,1000,0,0,0,0,0,0,0,0,0
17202,2023-01-20 11:09:33.443016,207797437,1752,1570,1741,1564,1000,0,0,0,0,0,0,0,0,0
17233,2023-01-20 11:09:33.542699,207897118,1750,1551,1770,1586,1000,0,0,0,0,0,0,0,0,0
17266,2023-01-20 11:09:33.642726,207997135,1751,1625,1697,1560,1000,0,0,0,0,0,0,0,0,0
17299,2023-01-20 11:09:33.742791,208097177,1723,1603,1710,1578,1000,0,0,0,0,0,0,0,0,0
17333,2023-01-20 11:09:33.842841,208197211,1744,1539,1752,1520,1000,0,0,0,0,0,0,0,0,0
17365,2023-01-20 11:09:33.942804,208297167,1714,1632,1679,1559,1000,0,0,0,0,0,0,0,0,0
17397,2023-01-20 11:09:34.042795,208397153,1743,1572,1749,1547,1000,0,0,0,0,0,0,0,0,0
17428,2023-01-20 11:09:34.142796,208497151,1730,1609,1710,1555,1000,0,0,0,0,0,0,0,0,0
17462,2023-01-20 11:09:34.242781,208597136,1745,1570,1740,1536,1000,0,0,0,0,0,0,0,0,0
17496,2023-01-20 11:09:34.342810,208697166,1724,1598,1710,1558,1000,0,0,0,0,0,0,0,0,0
17528,2023-01-20 11:09:34.443076,208797443,1745,1593,1718,1538,1000,0,0,0,0,0,0,0,0,0
17559,2023-01-20 11:09:34.542742,208897133,1713,1569,1724,1562,1000,0,0,0,0,0,0,0,0,0
17593,2023-01-20 11:09:34.642751,208997148,1731,1602,1698,1542,1000,0,0,0,0,0,0,0,0,0
17626,2023-01-20 11:09:34.742743,209097121,1754,1553,1741,1518,1000,0,0,0,0,0,0,0,0,0
17660,2023-01-20 11:09:34.842793,209197158,1734,1619,1693,1550,1000,0,0,0,0,0,0,0,0,0
17692,2023-01-20 11:09:34.942782,209297143,1744,1549,1758,1542,1000,0,0,0,0,0,0,0,0,0
17724,2023-01-20 11:09:35.042806,209397164,1723,1585,1702,1527,1000,0,0,0,0,0,0,0,0,0
17755,2023-01-20 11:09:35.142852,209497211,1717,1565,1722,1527,1000,0,0,0,0,0,0,0,0,0
17789,2023-01-20 11:09:35.242754,209597127,1692,1619,1693,1575,1000,0,0,0,0,0,0,0,0,0
17823,2023-01-20 11:09:35.342773,209697176,1718,1603,1720,1558,1000,0,0,0,0,0,0,0,0,0
17855,2023-01-20 11:09:35.443005,209797417,1755,1571,1759,1528,1000,0,0,0,0,0,0,0,0,0
17888,2023-01-20 11:09:35.542741,209897136,1733,1631,1711,1572,1000,0,0,0,0,0,0,0,0,0
17921,2023-01-20 11:09:35.642766,209997148,1729,1630,1705,1578,1000,0,0,0,0,0,0,0,0,0
17954,2023-01-20 11:09:35.742816,210097189,1735,1570,1739,1550,1000,0,0,0,0,0,0,0,0,0
17988,2023-01-20 11:09:35.842787,210197162,1740,1636,1694,1550,1000,0,0,0,0,0,0,0,0,0
18020,2023-01-20 11:09:35.942745,210297135,1729,1612,1725,1570,1000,0,0,0,0,0,0,0,0,0
18052,2023-01-20 11:09:36.042731,210397120,1763,1586,1754,1532,1000,0,0,0,0,0,0,0,0,0
18083,2023-01-20 11:09:36.142781,210497147,1713,1629,1721,1595,1000,0,0,0,0,0,0,0,0,0
18117,2023-01-20 11:09:36.242773,210597126,1745,1597,1762,1572,1000,0,0,0,0,0,0,0,0,0
18151,2023-01-20 11:09:36.342862,210697215,1743,1584,1785,1589,1000,0,0,0,0,0,0,0,0,0
18183,2023-01-20 11:09:36.438979,210797197,1763,1625,1750,1566,1000,0,0,0,0,0,0,0,0,0
18214,2023-01-20 11:09:36.529913,210897146,1771,1645,1728,1561,1000,0,0,0,0,0,0,0,0,0
18247,2023-01-20 11:09:36.622943,210997124,1764,1636,1743,1585,1000,0,0,0,0,0,0,0,0,0
18280,2023-01-20 11:09:36.722948,211097126,1759,1638,1749,1607,1000,0,0,0,0,0,0,0,0,0
18314,2023-01-20 11:09:36.823005,211197177,1770,1659,1715,1583,1000,0,0,0,0,0,0,0,0,0
18346,2023-01-20 11:09:36.923010,211297168,1768,1620,1748,1589,1000,0,0,0,0,0,0,0,0,0
18378,2023-01-20 11:09:37.023020,211397171,1733,1636,1716,1613,1000,0,0,0,0,0,0,0,0,0
18409,2023-01-20 11:09:37.123000,211497167,1758,1629,1725,1582,1000,0,0,0,0,0,0,0,0,0
18443,2023-01-20 11:09:37.222931,211597118,1744,1604,1747,1595,1000,0,0,0,0,0,0,0,0,0
18477,2023-01-20 11:09:37.322953,211697173,1768,1586,1747,1542,1000,0,0,0,0,0,0,0,0,0
18509,2023-01-20 11:09:37.425484,211797200,1743,1593,1747,1577,1000,0,0,0,0,0,0,0,0,0
18540,2023-01-20 11:09:37.536433,211897140,1749,1631,1706,1551,1000,0,0,0,0,0,0,0,0,0
18573,2023-01-20 11:09:37.638844,211997119,1739,1623,1717,1565,1000,0,0,0,0,0,0,0,0,0
18606,2023-01-20 11:09:37.729830,212097181,1755,1558,1785,1563,1000,0,0,0,0,0,0,0,0,0
18640,2023-01-20 11:09:37.822834,212197180,1731,1623,1717,1578,1000,0,0,0,0,0,0,0,0,0
18672,2023-01-20 11:09:37.922818,212297146,1736,1623,1701,1558,1000,0,0,0,0,0,0,0,0,0
18704,2023-01-20 11:09:38.022807,212397124,1770,1585,1739,1531,1000,0,0,0,0,0,0,0,0,0
18735,2023-01-20 11:09:38.122838,212497166,1726,1642,1690,1597,1000,0,0,0,0,0,0,0,0,0
18769,2023-01-20 11:09:38.222794,212597135,1752,1624,1710,1575,1000,0,0,0,0,0,0,0,0,0
18803,2023-01-20 11:09:38.322863,212697220,1758,1581,1737,1558,1000,0,0,0,0,0,0,0,0,0
18835,2023-01-20 11:09:38.422766,212797140,1727,1568,1735,1582,1000,0,0,0,0,0,0,0,0,0
18866,2023-01-20 11:09:38.522735,212897124,1739,1609,1706,1570,1000,0,0,0,0,0,0,0,0,0
18899,2023-01-20 11:09:38.622732,212997130,1739,1621,1677,1546,1000,0,0,0,0,0,0,0,0,0
18932,2023-01-20 11:09:38.722747,213097133,1718,1578,1711,1566,1000,0,0,0,0,0,0,0,0,0
18966,2023-01-20 11:09:38.822778,213197152,1701,1621,1666,1572,1000,0,0,0,0,0,0,0,0,0
18998,2023-01-20 11:09:38.922801,213297163,1707,1553,1733,1564,1000,0,0,0,0,0,0,0,0,0
19030,2023-01-20 11:09:39.022813,213397167,1700,1608,1689,1561,1000,0,0,0,0,0,0,0,0,0
19061,2023-01-20 11:09:39.122780,213497138,1720,1551,1749,1542,1000,0,0,0,0,0,0,0,0,0
19095,2023-01-20 11:09:39.222763,213597130,1731,1601,1727,1547,1000,0,0,0,0,0,0,0,0,0
19129,2023-01-20 11:09:39.322777,213697168,1698,1574,1734,1563,1000,0,0,0,0,0,0,0,0,0
19161,2023-01-20 11:09:39.422744,213797153,1739,1578,1728,1509,1000,0,0,0,0,0,0,0,0,0
19192,2023-01-20 11:09:39.522742,213897147,1723,1634,1678,1531,1000,0,0,0,0,0,0,0,0,0
19225,2023-01-20 11:09:39.622769,213997168,1701,1554,1730,1539,1000,0,0,0,0,0,0,0,0,0
19260,2023-01-20 11:09:39.722743,214097130,1694,1601,1692,1545,1000,0,0,0,0,0,0,0,0,0
19296,2023-01-20 11:09:39.822785,214197159,1716,1572,1712,1504,1000,0,0,0,0,0,0,0,0,0
19328,2023-01-20 11:09:39.922790,214297153,1717,1561,1736,1520,1000,0,0,0,0,0,0,0,0,0
19360,2023-01-20 11:09:40.022780,214397135,1693,1579,1704,1526,1000,0,0,0,0,0,0,0,0,0
19391,2023-01-20 11:09:40.122809,214497168,1658,1615,1678,1582,1000,0,0,0,0,0,0,0,0,0
19425,2023-01-20 11:09:40.222785,214597147,1675,1608,1673,1559,1000,0,0,0,0,0,0,0,0,0
19459,2023-01-20 11:09:40.322848,214697213,1693,1545,1705,1516,1000,0,0,0,0,0,0,0,0,0
19491,2023-01-20 11:09:40.422803,214797175,1711,1527,1708,1484,1000,0,0,0,0,0,0,0,0,0
19524,2023-01-20 11:09:40.522744,214897136,1685,1551,1699,1539,1000,0,0,0,0,0,0,0,0,0
19557,2023-01-20 11:09:40.622749,214997153,1671,1607,1653,1564,1000,0,0,0,0,0,0,0,0,0
19590,2023-01-20 11:09:40.722734,215097121,1698,1602,1653,1526,1000,0,0,0,0,0,0,0,0,0
19624,2023-01-20 11:09:40.822800,215197171,1702,1538,1709,1518,1000,0,0,0,0,0,0,0,0,0
19656,2023-01-20 11:09:40.922862,215297222,1712,1541,1694,1481,1000,0,0,0,0,0,0,0,0,0
19688,2023-01-20 11:09:41.022795,215397146,1705,1558,1676,1479,1000,0,0,0,0,0,0,0,0,0
19719,2023-01-20 11:09:41.122816,215497169,1706,1585,1669,1494,1000,0,0,0,0,0,0,0,0,0
19753,2023-01-20 11:09:41.222763,215597124,1633,1581,1672,1576,1000,0,0,0,0,0,0,0,0,0
19787,2023-01-20 11:09:41.322764,215697157,1678,1619,1648,1540,1000,0,0,0,0,0,0,0,0,0
19819,2023-01-20 11:09:41.422745,215797161,1678,1571,1691,1544,1000,0,0,0,0,0,0,0,0,0
19850,2023-01-20 11:09:41.522723,215897131,1684,1544,1709,1533,1000,0,0,0,0,0,0,0,0,0
19883,2023-01-20 11:09:41.622762,215997162,1712,1560,1721,1528,1000,0,0,0,0,0,0,0,0,0
19916,2023-01-20 11:09:41.722742,216097134,1681,1581,1692,1551,1000,0,0,0,0,0,0,0,0,0
19950,2023-01-20 11:09:41.822774,216197161,1681,1604,1657,1531,1000,0,0,0,0,0,0,0,0,0
19982,2023-01-20 11:09:41.922769,216297160,1699,1539,1720,1521,1000,0,0,0,0,0,0,0,0,0
20014,2023-01-20 11:09:42.022730,216397120,1695,1541,1722,1536,1000,0,0,0,0,0,0,0,0,0
20045,2023-01-20 11:09:42.122796,216497169,1721,1578,1693,1511,1000,0,0,0,0,0,0,0,0,0
20079,2023-01-20 11:09:42.222807,216597169,1678,1588,1678,1573,1000,0,0,0,0,0,0,0,0,0
20113,2023-01-20 11:09:42.322788,216697158,1716,1557,1699,1528,1000,0,0,0,0,0,0,0,0,0
20145,2023-01-20 11:09:42.422780,216797160,1704,1592,1676,1557,1000,0,0,0,0,0,0,0,0,0
20176,2023-01-20 11:09:42.522735,216897129,1693,1607,1658,1571,1000,0,0,0,0,0,0,0,0,0
20209,2023-01-20 11:09:42.622720,216997123,1722,1562,1703,1544,1000,0,0,0,0,0,0,0,0,0
20242,2023-01-20 11:09:42.722749,217097143,1711,1607,1659,1552,1000,0,0,0,0,0,0,0,0,0
20276,2023-01-20 11:09:42.822776,217197159,1744,1538,1716,1502,1000,0,0,0,0,0,0,0,0,0
20308,2023-01-20 11:09:42.922858,217297224,1715,1603,1664,1537,1000,0,0,0,0,0,0,0,0,0
20340,2023-01-20 11:09:43.022780,217397133,1730,1551,1714,1518,1000,0,0,0,0,0,0,0,0,0
20371,2023-01-20 11:09:43.122798,217497152,1716,1588,1679,1527,1000,0,0,0,0,0,0,0,0,0
20405,2023-01-20 11:09:43.222757,217597115,1706,1596,1688,1559,1000,0,0,0,0,0,0,0,0,0
20439,2023-01-20 11:09:43.322823,217697194,1757,1574,1721,1512,1000,0,0,0,0,0,0,0,0,0
20470,2023-01-20 11:09:43.422786,217797170,1751,1628,1688,1547,1000,0,0,0,0,0,0,0,0,0
20501,2023-01-20 11:09:43.522782,217897176,1776,1598,1735,1545,1000,0,0,0,0,0,0,0,0,0
20534,2023-01-20 11:09:43.622733,217997133,1736,1574,1758,1605,1000,0,0,0,0,0,0,0,0,0
20567,2023-01-20 11:09:43.722745,218097134,1775,1588,1759,1576,1000,0,0,0,0,0,0,0,0,0
20601,2023-01-20 11:09:43.822768,218197151,1801,1618,1733,1543,1000,0,0,0,0,0,0,0,0,0
20633,2023-01-20 11:09:43.922772,218297165,1756,1580,1741,1574,1000,0,0,0,0,0,0,0,0,0
20665,2023-01-20 11:09:44.022732,218397128,1757,1579,1744,1564,1000,0,0,0,0,0,0,0,0,0
20696,2023-01-20 11:09:44.122776,218497149,1736,1638,1704,1589,1000,0,0,0,0,0,0,0,0,0
20730,2023-01-20 11:09:44.222812,218597170,1772,1637,1719,1548,1000,0,0,0,0,0,0,0,0,0
20764,2023-01-20 11:09:44.322794,218697162,1761,1601,1765,1575,1000,0,0,0,0,0,0,0,0,0
20796,2023-01-20 11:09:44.422758,218797143,1756,1590,1767,1571,1000,0,0,0,0,0,0,0,0,0
20827,2023-01-20 11:09:44.522703,218897126,1738,1620,1751,1606,1000,0,0,0,0,0,0,0,0,0
20860,2023-01-20 11:09:44.622683,218997126,1746,1651,1701,1572,1000,0,0,0,0,0,0,0,0,0
20893,2023-01-20 11:09:44.722726,219097128,1761,1600,1735,1544,1000,0,0,0,0,0,0,0,0,0
20928,2023-01-20 11:09:44.822856,219197224,1754,1573,1748,1543,1000,0,0,0,0,0,0,0,0,0
20960,2023-01-20 11:09:44.922798,219297156,1724,1589,1736,1582,1000,0,0,0,0,0,0,0,0,0
20992,2023-01-20 11:09:45.022782,219397133,1748,1583,1738,1550,1000,0,0,0,0,0,0,0,0,0
21023,2023-01-20 11:09:45.122801,219497151,1734,1574,1744,1564,1000,0,0,0,0,0,0,0,0,0
21057,2023-01-20 11:09:45.222770,219597122,1722,1623,1709,1585,1000,0,0,0,0,0,0,0,0,0
21091,2023-01-20 11:09:45.322802,219697167,1756,1583,1734,1529,1000,0,0,0,0,0,0,0,0,0
21123,2023-01-20 11:09:45.422795,219797168,1722,1594,1722,1565,1000,0,0,0,0,0,0,0,0,0
21156,2023-01-20 11:09:45.522817,219897181,1724,1646,1686,1574,1000,0,0,0,0,0,0,0,0,0
21189,2023-01-20 11:09:45.620692,219997124,1765,1570,1752,1524,1000,0,0,0,0,0,0,0,0,0
21222,2023-01-20 11:09:45.711581,220097124,1734,1655,1676,1566,1000,0,0,0,0,0,0,0,0,0
21256,2023-01-20 11:09:45.802752,220197159,1741,1613,1704,1547,1000,0,0,0,0,0,0,0,0,0
21288,2023-01-20 11:09:45.902708,220297153,1767,1597,1710,1507,1000,0,0,0,0,0,0,0,0,0
21320,2023-01-20 11:09:46.002674,220397155,1719,1634,1676,1569,1000,0,0,0,0,0,0,0,0,0
21351,2023-01-20 11:09:46.102747,220497194,1733,1570,1739,1559,1000,0,0,0,0,0,0,0,0,0
21385,2023-01-20 11:09:46.202726,220597140,1731,1632,1682,1558,1000,0,0,0,0,0,0,0,0,0
21419,2023-01-20 11:09:46.302730,220697158,1742,1576,1719,1522,1000,0,0,0,0,0,0,0,0,0
21451,2023-01-20 11:09:46.402711,220797153,1712,1630,1666,1546,1000,0,0,0,0,0,0,0,0,0
21482,2023-01-20 11:09:46.502686,220897139,1708,1541,1750,1557,1000,0,0,0,0,0,0,0,0,0
21515,2023-01-20 11:09:46.602687,220997150,1699,1597,1717,1580,1000,0,0,0,0,0,0,0,0,0
21548,2023-01-20 11:09:46.702714,221097169,1714,1563,1747,1561,1000,0,0,0,0,0,0,0,0,0
21582,2023-01-20 11:09:46.802767,221197215,1763,1574,1744,1502,1000,0,0,0,0,0,0,0,0,0
21614,2023-01-20 11:09:46.902681,221297150,1709,1613,1713,1582,1000,0,0,0,0,0,0,0,0,0
21646,2023-01-20 11:09:47.002666,221397156,1734,1589,1735,1555,1000,0,0,0,0,0,0,0,0,0
21677,2023-01-20 11:09:47.102675,221497171,1754,1583,1747,1538,1000,0,0,0,0,0,0,0,0,0
21711,2023-01-20 11:09:47.202640,221597143,1724,1610,1713,1556,1000,0,0,0,0,0,0,0,0,0
21745,2023-01-20 11:09:47.302633,221697162,1738,1547,1739,1502,1000,0,0,0,0,0,0,0,0,0
21777,2023-01-20 11:09:47.402653,221797208,1707,1608,1676,1523,1000,0,0,0,0,0,0,0,0,0
21808,2023-01-20 11:09:47.502531,221897123,1686,1622,1677,1566,1000,0,0,0,0,0,0,0,0,0
21890,2023-01-20 11:09:47.602503,221997132,1692,1582,1717,1568,1000,0,0,0,0,0,0,0,0,0
21923,2023-01-20 11:09:47.702521,222097131,1723,1569,1706,1506,1000,0,0,0,0,0,0,0,0,0
21957,2023-01-20 11:09:47.802568,222197158,1690,1604,1660,1535,1000,0,0,0,0,0,0,0,0,0
21989,2023-01-20 11:09:47.902586,222297143,1692,1560,1682,1508,1000,0,0,0,0,0,0,0,0,0
22021,2023-01-20 11:09:48.002616,222397141,1681,1531,1699,1513,1000,0,0,0,0,0,0,0,0,0
22052,2023-01-20 11:09:48.102611,222497176,1678,1535,1684,1504,1000,0,0,0,0,0,0,0,0,0
22086,2023-01-20 11:09:48.202529,222597133,1689,1528,1683,1478,1000,0,0,0,0,0,0,0,0,0
22120,2023-01-20 11:09:48.302552,222697163,1707,1514,1689,1444,1000,0,0,0,0,0,0,0,0,0
22152,2023-01-20 11:09:48.402531,222797150,1676,1542,1684,1505,1000,0,0,0,0,0,0,0,0,0
22183,2023-01-20 11:09:48.502478,222897133,1673,1517,1706,1503,1000,0,0,0,0,0,0,0,0,0
22216,2023-01-20 11:09:48.602455,222997144,1698,1522,1704,1467,1000,0,0,0,0,0,0,0,0,0
22249,2023-01-20 11:09:48.702528,223097176,1681,1528,1679,1472,1000,0,0,0,0,0,0,0,0,0
22283,2023-01-20 11:09:48.802542,223197150,1673,1536,1677,1493,1000,0,0,0,0,0,0,0,0,0
22315,2023-01-20 11:09:48.902551,223297158,1707,1523,1696,1461,1000,0,0,0,0,0,0,0,0,0
22347,2023-01-20 11:09:49.002519,223397125,1659,1514,1699,1516,1000,0,0,0,0,0,0,0,0,0
22378,2023-01-20 11:09:49.102523,223497127,1682,1550,1681,1490,1000,0,0,0,0,0,0,0,0,0
22411,2023-01-20 11:09:49.202540,223597142,1713,1541,1705,1466,1000,0,0,0,0,0,0,0,0,0
22446,2023-01-20 11:09:49.302561,223697171,1729,1561,1711,1472,1000,0,0,0,0,0,0,0,0,0
22478,2023-01-20 11:09:49.402570,223797187,1714,1593,1694,1506,1000,0,0,0,0,0,0,0,0,0
22509,2023-01-20 11:09:49.502503,223897135,1712,1627,1685,1549,1000,0,0,0,0,0,0,0,0,0
22542,2023-01-20 11:09:49.602507,223997154,1743,1580,1726,1525,1000,0,0,0,0,0,0,0,0,0
22576,2023-01-20 11:09:49.702497,224097129,1732,1641,1654,1536,1000,0,0,0,0,0,0,0,0,0
22610,2023-01-20 11:09:49.802558,224197175,1713,1574,1705,1558,1000,0,0,0,0,0,0,0,0,0
22643,2023-01-20 11:09:49.902564,224297172,1711,1617,1675,1578,1000,0,0,0,0,0,0,0,0,0
22675,2023-01-20 11:09:50.002576,224397176,1733,1560,1736,1573,1000,0,0,0,0,0,0,0,0,0
22706,2023-01-20 11:09:50.102587,224497191,1713,1554,1728,1585,1000,0,0,0,0,0,0,0,0,0
22739,2023-01-20 11:09:50.202531,224597138,1711,1612,1655,1551,1000,0,0,0,0,0,0,0,0,0
22774,2023-01-20 11:09:50.302534,224697154,1721,1579,1695,1544,1000,0,0,0,0,0,0,0,0,0
22806,2023-01-20 11:09:50.402513,224797146,1727,1636,1666,1559,1000,0,0,0,0,0,0,0,0,0
22839,2023-01-20 11:09:50.502455,224897128,1734,1598,1706,1552,1000,0,0,0,0,0,0,0,0,0
22872,2023-01-20 11:09:50.602452,224997162,1707,1594,1711,1584,1000,0,0,0,0,0,0,0,0,0
22905,2023-01-20 11:09:50.702488,225097153,1702,1618,1673,1569,1000,0,0,0,0,0,0,0,0,0
22939,2023-01-20 11:09:50.802551,225197172,1683,1540,1729,1576,1000,0,0,0,0,0,0,0,0,0
22971,2023-01-20 11:09:50.902541,225297156,1702,1591,1693,1557,1000,0,0,0,0,0,0,0,0,0
23003,2023-01-20 11:09:51.002514,225397124,1721,1589,1694,1532,1000,0,0,0,0,0,0,0,0,0
23034,2023-01-20 11:09:51.102520,225497145,1718,1575,1702,1535,1000,0,0,0,0,0,0,0,0,0
23067,2023-01-20 11:09:51.202495,225597135,1697,1626,1651,1555,1000,0,0,0,0,0,0,0,0,0
23102,2023-01-20 11:09:51.302571,225697209,1686,1534,1731,1569,1000,0,0,0,0,0,0,0,0,0
23134,2023-01-20 11:09:51.402535,225797172,1717,1577,1706,1541,1000,0,0,0,0,0,0,0,0,0
23165,2023-01-20 11:09:51.502518,225897156,1711,1630,1672,1561,1000,0,0,0,0,0,0,0,0,0
23198,2023-01-20 11:09:51.602511,225997149,1737,1580,1706,1507,1000,0,0,0,0,0,0,0,0,0
23231,2023-01-20 11:09:51.702499,226097115,1706,1601,1679,1537,1000,0,0,0,0,0,0,0,0,0
23265,2023-01-20 11:09:51.802584,226197178,1726,1564,1710,1505,1000,0,0,0,0,0,0,0,0,0
23297,2023-01-20 11:09:51.902558,226297162,1733,1583,1696,1498,1000,0,0,0,0,0,0,0,0,0
23329,2023-01-20 11:09:52.002573,226397187,1731,1626,1676,1529,1000,0,0,0,0,0,0,0,0,0
23360,2023-01-20 11:09:52.102534,226497146,1716,1555,1725,1533,1000,0,0,0,0,0,0,0,0,0
23393,2023-01-20 11:09:52.202522,226597133,1739,1610,1686,1514,1000,0,0,0,0,0,0,0,0,0
23428,2023-01-20 11:09:52.302525,226697150,1733,1604,1705,1543,1000,0,0,0,0,0,0,0,0,0
23460,2023-01-20 11:09:52.402532,226797170,1736,1605,1701,1537,1000,0,0,0,0,0,0,0,0,0
23491,2023-01-20 11:09:52.502480,226897129,1742,1551,1734,1522,1000,0,0,0,0,0,0,0,0,0
23524,2023-01-20 11:09:52.602522,226997180,1715,1625,1656,1545,1000,0,0,0,0,0,0,0,0,0
23557,2023-01-20 11:09:52.702549,227097171,1738,1555,1715,1509,1000,0,0,0,0,0,0,0,0,0
23591,2023-01-20 11:09:52.802589,227197176,1723,1643,1658,1548,1000,0,0,0,0,0,0,0,0,0
23623,2023-01-20 11:09:52.902535,227297141,1724,1571,1731,1556,1000,0,0,0,0,0,0,0,0,0
23655,2023-01-20 11:09:53.002510,227397134,1711,1624,1681,1565,1000,0,0,0,0,0,0,0,0,0
23686,2023-01-20 11:09:53.102496,227497125,1707,1555,1739,1570,1000,0,0,0,0,0,0,0,0,0
23719,2023-01-20 11:09:53.202521,227597154,1714,1629,1670,1553,1000,0,0,0,0,0,0,0,0,0
23754,2023-01-20 11:09:53.302580,227697201,1739,1590,1712,1526,1000,0,0,0,0,0,0,0,0,0
23786,2023-01-20 11:09:53.402551,227797160,1735,1621,1688,1535,1000,0,0,0,0,0,0,0,0,0
23817,2023-01-20 11:09:53.502503,227897128,1732,1544,1737,1520,1000,0,0,0,0,0,0,0,0,0
23850,2023-01-20 11:09:53.602497,227997137,1698,1581,1700,1544,1000,0,0,0,0,0,0,0,0,0
23883,2023-01-20 11:09:53.702487,228097131,1721,1558,1708,1496,1000,0,0,0,0,0,0,0,0,0
23917,2023-01-20 11:09:53.802515,228197162,1726,1569,1701,1496,1000,0,0,0,0,0,0,0,0,0
23949,2023-01-20 11:09:53.902552,228297177,1694,1599,1647,1511,1000,0,0,0,0,0,0,0,0,0
23981,2023-01-20 11:09:54.002542,228397145,1699,1552,1675,1495,1000,0,0,0,0,0,0,0,0,0
24012,2023-01-20 11:09:54.102550,228497148,1674,1559,1656,1511,1000,0,0,0,0,0,0,0,0,0
24044,2023-01-20 11:09:54.202569,228597162,1682,1509,1687,1484,1000,0,0,0,0,0,0,0,0,0
24079,2023-01-20 11:09:54.302549,228697153,1693,1514,1679,1451,1000,0,0,0,0,0,0,0,0,0
24111,2023-01-20 11:09:54.402543,228797157,1657,1590,1639,1521,1000,0,0,0,0,0,0,0,0,0
24142,2023-01-20 11:09:54.502509,228897135,1673,1582,1660,1513,1000,0,0,0,0,0,0,0,0,0
24175,2023-01-20 11:09:54.602544,228997181,1657,1578,1646,1507,1000,0,0,0,0,0,0,0,0,0
24208,2023-01-20 11:09:54.702524,229097138,1644,1568,1655,1517,1000,0,0,0,0,0,0,0,0,0
24242,2023-01-20 11:09:54.802580,229197171,1680,1558,1685,1495,1000,0,0,0,0,0,0,0,0,0
24274,2023-01-20 11:09:54.902545,229297137,1683,1543,1703,1502,1000,0,0,0,0,0,0,0,0,0
24307,2023-01-20 11:09:55.002547,229397140,1696,1529,1718,1491,1000,0,0,0,0,0,0,0,0,0
24338,2023-01-20 11:09:55.102507,229497132,1708,1543,1701,1471,1000,0,0,0,0,0,0,0,0,0
24371,2023-01-20 11:09:55.202483,229597139,1726,1518,1712,1442,1000,0,0,0,0,0,0,0,0,0
24406,2023-01-20 11:09:55.302573,229697202,1720,1520,1717,1466,1000,0,0,0,0,0,0,0,0,0
24438,2023-01-20 11:09:55.402548,229797151,1700,1545,1689,1485,1000,0,0,0,0,0,0,0,0,0
24469,2023-01-20 11:09:55.502593,229897223,1667,1573,1673,1535,1000,0,0,0,0,0,0,0,0,0
24504,2023-01-20 11:09:55.602476,229997134,1663,1580,1639,1506,1000,0,0,0,0,0,0,0,0,0
24537,2023-01-20 11:09:55.702459,230097139,1699,1545,1699,1500,1000,0,0,0,0,0,0,0,0,0
24571,2023-01-20 11:09:55.802239,230197159,1709,1589,1681,1516,1000,0,0,0,0,0,0,0,0,0
24603,2023-01-20 11:09:55.893385,230297192,1717,1587,1683,1506,1000,0,0,0,0,0,0,0,0,0
24633,2023-01-20 11:09:55.984440,230397124,1714,1561,1673,1475,1000,0,0,0,0,0,0,0,0,0
24666,2023-01-20 11:09:56.082952,230497130,1671,1507,1724,1537,1000,0,0,0,0,0,0,0,0,0
24697,2023-01-20 11:09:56.182992,230597142,1676,1547,1710,1544,1000,0,0,0,0,0,0,0,0,0
24734,2023-01-20 11:09:56.282992,230697156,1712,1570,1727,1541,1000,0,0,0,0,0,0,0,0,0
24764,2023-01-20 11:09:56.382960,230797148,1651,1586,1681,1576,1000,0,0,0,0,0,0,0,0,0
24797,2023-01-20 11:09:56.482884,230897135,1685,1621,1658,1544,1000,0,0,0,0,0,0,0,0,0
24828,2023-01-20 11:09:56.583010,230997333,1708,1579,1717,1540,1000,0,0,0,0,0,0,0,0,0
24863,2023-01-20 11:09:56.682852,231097138,1727,1558,1721,1497,1000,0,0,0,0,0,0,0,0,0
24895,2023-01-20 11:09:56.782926,231197152,1716,1612,1687,1532,1000,0,0,0,0,0,0,0,0,0
24929,2023-01-20 11:09:56.882929,231297156,1758,1631,1685,1512,1000,0,0,0,0,0,0,0,0,0
24959,2023-01-20 11:09:56.982968,231397209,1739,1597,1694,1526,1000,0,0,0,0,0,0,0,0,0
24992,2023-01-20 11:09:57.082865,231497166,1725,1572,1693,1527,1000,0,0,0,0,0,0,0,0,0
