LineNo,UTC_Approx,TimeUS,Active,NumPts,MaxPts,Action,N,E,D
5295,2023-01-20 11:08:57.067150,171341540,1,2,300,0,5.488772,-0.2385844,-2.257509
5945,2023-01-20 11:08:59.056489,173336561,1,3,300,0,4.973361,-0.09220082,-4.210344
6493,2023-01-20 11:09:00.704415,174999034,1,4,300,0,3.128821,-0.5633212,-5.497721
6795,2023-01-20 11:09:01.701960,175996629,1,5,300,0,1.302356,-0.2720383,-6.360806
7437,2023-01-20 11:09:03.696907,177991567,1,6,300,0,0.2978044,-0.2960377,-8.293782
7985,2023-01-20 11:09:05.359456,179654086,1,7,300,0,-0.6929078,-1.08928,-10.13175
8634,2023-01-20 11:09:07.354394,181649036,1,8,300,0,-2.806269,-1.319728,-10.58532
9383,2023-01-20 11:09:09.664830,183979050,1,9,300,0,-3.398375,0.1779714,-12.1914
9836,2023-01-20 11:09:10.997197,185311580,1,10,300,0,-3.726426,1.491899,-13.95553
10258,2023-01-20 11:09:12.332177,186646583,1,11,300,0,-3.82755,2.612495,-15.86811
10906,2023-01-20 11:09:14.332197,188646579,1,12,300,0,-3.603482,3.851964,-17.5068
12105,2023-01-20 11:09:17.997218,192311581,1,13,300,0,-1.582432,5.242723,-17.5706
12304,2023-01-20 11:09:18.644785,192979035,1,14,300,0,0.2258909,6.770574,-17.74321
12528,2023-01-20 11:09:19.312322,193646526,1,15,300,0,2.69695,9.050173,-18.26777
12629,2023-01-20 11:09:19.644601,193979011,1,16,300,0,3.994168,10.54598,-18.60308
12757,2023-01-20 11:09:19.977169,194311544,1,17,300,0,5.318852,12.29132,-18.88749
12856,2023-01-20 11:09:20.312152,194646516,1,18,300,0,6.499138,14.23563,-19.16446
12958,2023-01-20 11:09:20.644610,194979019,1,19,300,0,7.692559,16.2561,-19.44161
13085,2023-01-20 11:09:20.977157,195311536,1,20,300,0,9.000325,18.33798,-19.68501
13184,2023-01-20 11:09:21.312172,195646548,1,21,300,0,10.24965,20.43711,-19.89967
13284,2023-01-20 11:09:21.644572,195979018,1,22,300,0,11.45587,22.44905,-20.08386
13410,2023-01-20 11:09:21.977202,196311575,1,23,300,0,12.77993,24.34792,-20.26037
13510,2023-01-20 11:09:22.311436,196645830,1,24,300,0,13.99514,26.20975,-20.47529
13610,2023-01-20 11:09:22.642133,196976549,1,25,300,0,15.12492,28.00441,-20.72405
13736,2023-01-20 11:09:22.974640,197309013,1,26,300,0,16.28074,29.80692,-20.99334
13836,2023-01-20 11:09:23.307178,197641553,1,27,300,0,17.54857,31.56632,-21.26665
13935,2023-01-20 11:09:23.639665,197974066,1,28,300,0,18.90003,33.28983,-21.59794
14062,2023-01-20 11:09:23.972414,198306789,1,29,300,0,20.27234,35.04675,-21.93835
14162,2023-01-20 11:09:24.304639,198639027,1,30,300,0,21.60872,36.81119,-22.28993
14262,2023-01-20 11:09:24.637111,198971530,1,31,300,0,22.93457,38.60522,-22.6347
14389,2023-01-20 11:09:24.969696,199304074,1,32,300,0,24.35251,40.39516,-22.95999
14488,2023-01-20 11:09:25.302182,199636543,1,33,300,0,25.87292,42.21584,-23.24504
14590,2023-01-20 11:09:25.634937,199969353,1,34,300,0,27.37111,44.03273,-23.49205
14717,2023-01-20 11:09:25.967178,200301542,1,35,300,0,28.86938,45.8643,-23.75606
14816,2023-01-20 11:09:26.299649,200634038,1,36,300,0,30.35428,47.67593,-23.98408
14916,2023-01-20 11:09:26.632136,200966558,1,37,300,0,31.77023,49.4698,-24.20947
15043,2023-01-20 11:09:26.964660,201299026,1,38,300,0,33.21509,51.28168,-24.4587
15142,2023-01-20 11:09:27.297649,201632034,1,39,300,0,34.66372,53.09528,-24.73479
15242,2023-01-20 11:09:27.629668,201964045,1,40,300,0,36.06793,54.93559,-25.04893
15347,2023-01-20 11:09:27.962336,202296703,1,41,300,0,37.47518,56.73018,-25.36647
15468,2023-01-20 11:09:28.294672,202629032,1,42,300,0,38.8678,58.5469,-25.66874
15567,2023-01-20 11:09:28.607201,202961524,1,43,300,0,40.22343,60.39936,-25.9596
15670,2023-01-20 11:09:28.940137,203294459,1,44,300,0,41.61523,62.23458,-26.22638
15794,2023-01-20 11:09:29.272225,203626554,1,45,300,0,43.00951,64.05946,-26.47877
15894,2023-01-20 11:09:29.605064,203959450,1,46,300,0,44.40849,65.91612,-26.72858
15995,2023-01-20 11:09:29.937274,204291540,1,47,300,0,45.77861,67.78619,-26.99463
16122,2023-01-20 11:09:30.269686,204624075,1,48,300,0,47.14762,69.63059,-27.27399
16223,2023-01-20 11:09:30.603270,204957676,1,49,300,0,48.5105,71.47254,-27.53524
16322,2023-01-20 11:09:30.934658,205289028,1,50,300,0,49.88521,73.32642,-27.81084
16324,2023-01-20 11:09:30.938634,205293003,1,50,300,2,5.488772,-0.2385844,-2.257509
16325,2023-01-20 11:09:30.938648,205293017,1,50,300,2,3.128821,-0.5633212,-5.497721
16326,2023-01-20 11:09:30.938662,205293030,1,50,300,2,1.302356,-0.2720383,-6.360806
16327,2023-01-20 11:09:30.938675,205293044,1,50,300,2,0.2978044,-0.2960377,-8.293782
16328,2023-01-20 11:09:30.938692,205293060,1,50,300,2,-0.6929078,-1.08928,-10.13175
16329,2023-01-20 11:09:30.938704,205293073,1,50,300,2,-3.398375,0.1779714,-12.1914
16330,2023-01-20 11:09:30.938718,205293086,1,50,300,2,-3.726426,1.491899,-13.95553
16331,2023-01-20 11:09:30.938731,205293100,1,50,300,2,-3.82755,2.612495,-15.86811
16332,2023-01-20 11:09:30.938745,205293113,1,50,300,2,-1.582432,5.242723,-17.5706
16333,2023-01-20 11:09:30.938759,205293127,1,50,300,2,0.2258909,6.770574,-17.74321
16334,2023-01-20 11:09:30.938771,205293140,1,50,300,2,2.69695,9.050173,-18.26777
16335,2023-01-20 11:09:30.938785,205293153,1,50,300,2,5.318852,12.29132,-18.88749
16336,2023-01-20 11:09:30.938799,205293167,1,50,300,2,6.499138,14.23563,-19.16446
16337,2023-01-20 11:09:30.938812,205293180,1,50,300,2,7.692559,16.2561,-19.44161
16338,2023-01-20 11:09:30.938825,205293193,1,50,300,2,9.000325,18.33798,-19.68501
16339,2023-01-20 11:09:30.938838,205293207,1,50,300,2,10.24965,20.43711,-19.89967
16340,2023-01-20 11:09:30.938856,205293224,1,50,300,2,11.45587,22.44905,-20.08386
16341,2023-01-20 11:09:30.938872,205293240,1,50,300,2,12.77993,24.34792,-20.26037
16342,2023-01-20 11:09:30.938884,205293253,1,50,300,2,13.99514,26.20975,-20.47529
16343,2023-01-20 11:09:30.938985,205293353,1,50,300,2,15.12492,28.00441,-20.72405
16344,2023-01-20 11:09:30.938999,205293367,1,50,300,2,16.28074,29.80692,-20.99334
16345,2023-01-20 11:09:30.939012,205293380,1,50,300,2,18.90003,33.28983,-21.59794
16346,2023-01-20 11:09:30.939025,205293393,1,50,300,2,20.27234,35.04675,-21.93835
16351,2023-01-20 11:09:30.940406,205294774,1,50,300,2,21.60872,36.81119,-22.28993
16352,2023-01-20 11:09:30.940420,205294788,1,50,300,2,22.93457,38.60522,-22.6347
16353,2023-01-20 11:09:30.940436,205294804,1,50,300,2,24.35251,40.39516,-22.95999
16354,2023-01-20 11:09:30.940449,205294817,1,50,300,2,25.87292,42.21584,-23.24504
16355,2023-01-20 11:09:30.940463,205294831,1,50,300,2,27.37111,44.03273,-23.49205
16356,2023-01-20 11:09:30.940476,205294844,1,50,300,2,28.86938,45.8643,-23.75606
16357,2023-01-20 11:09:30.940511,205294879,1,50,300,2,30.35428,47.67593,-23.98408
16358,2023-01-20 11:09:30.940564,205294932,1,50,300,2,31.77023,49.4698,-24.20947
16359,2023-01-20 11:09:30.940578,205294946,1,50,300,2,33.21509,51.28168,-24.4587
16360,2023-01-20 11:09:30.940804,205295172,1,50,300,2,34.66372,53.09528,-24.73479
16361,2023-01-20 11:09:30.940821,205295189,1,50,300,2,36.06793,54.93559,-25.04893
16362,2023-01-20 11:09:30.940834,205295202,1,50,300,2,37.47518,56.73018,-25.36647
16363,2023-01-20 11:09:30.940847,205295215,1,50,300,2,38.8678,58.5469,-25.66874
16364,2023-01-20 11:09:30.940861,205295229,1,50,300,2,40.22343,60.39936,-25.9596
16365,2023-01-20 11:09:30.940874,205295242,1,50,300,2,41.61523,62.23458,-26.22638
16366,2023-01-20 11:09:30.940887,205295255,1,50,300,2,43.00951,64.05946,-26.47877
16367,2023-01-20 11:09:30.940953,205295321,1,50,300,2,44.40849,65.91612,-26.72858
16368,2023-01-20 11:09:30.940967,205295335,1,50,300,2,45.77861,67.78619,-26.99463
16369,2023-01-20 11:09:30.940995,205295363,1,50,300,2,47.14762,69.63059,-27.27399
16370,2023-01-20 11:09:30.941009,205295377,1,50,300,2,48.5105,71.47254,-27.53524
16493,2023-01-20 11:09:31.267166,205621531,1,8,300,0,51.24306,75.17773,-28.13346
16592,2023-01-20 11:09:31.600053,205954461,1,9,300,0,52.60405,77.02127,-28.49092
16691,2023-01-20 11:09:31.932192,206286556,1,10,300,0,53.99141,78.81389,-28.82372
16819,2023-01-20 11:09:32.264964,206619328,1,11,300,0,55.26015,80.5732,-29.14423
16916,2023-01-20 11:09:32.597121,206951534,1,12,300,0,56.61992,82.38483,-29.44173
17017,2023-01-20 11:09:32.929622,207284002,1,13,300,0,58.07446,84.23324,-29.78388
17144,2023-01-20 11:09:33.262194,207616571,1,14,300,0,59.52351,86.09688,-30.12944
17242,2023-01-20 11:09:33.594622,207949040,1,15,300,0,60.94498,88.00365,-30.44378
17343,2023-01-20 11:09:33.927408,208281772,1,16,300,0,62.43763,89.89614,-30.76373
17469,2023-01-20 11:09:34.259702,208614057,1,17,300,0,63.96117,91.82253,-31.0697
17568,2023-01-20 11:09:34.592290,208946693,1,18,300,0,65.44971,93.73877,-31.38003
17670,2023-01-20 11:09:34.924664,209279025,1,19,300,0,66.95433,95.62554,-31.67024
17796,2023-01-20 11:09:35.257141,209611518,1,20,300,0,68.40583,97.50715,-31.96478
17897,2023-01-20 11:09:35.592179,209946565,1,21,300,0,69.87136,99.39117,-32.22955
17998,2023-01-20 11:09:35.924668,210279055,1,22,300,0,71.31714,101.2345,-32.49917
18124,2023-01-20 11:09:36.257191,210611544,1,23,300,0,72.69276,103.0428,-32.76086
18222,2023-01-20 11:09:36.574884,210946576,1,24,300,0,74.04342,104.8412,-33.04021
18324,2023-01-20 11:09:36.904876,211279036,1,25,300,0,75.3811,106.6134,-33.3247
18450,2023-01-20 11:09:37.237326,211611518,1,26,300,0,76.68549,108.431,-33.62685
18548,2023-01-20 11:09:37.591353,211946611,1,27,300,0,78.05439,110.2891,-33.93982
18650,2023-01-20 11:09:37.904705,212279036,1,28,300,0,79.41215,112.1855,-34.27172
18776,2023-01-20 11:09:38.237257,212611600,1,29,300,0,80.78525,114.0894,-34.5928
18874,2023-01-20 11:09:38.572156,212946553,1,30,300,0,82.23314,116.0224,-34.92127
18976,2023-01-20 11:09:38.904708,213279072,1,31,300,0,83.68164,117.9424,-35.24913
19102,2023-01-20 11:09:39.237155,213611526,1,32,300,0,85.10291,119.8227,-35.54161
19200,2023-01-20 11:09:39.572199,213946602,1,33,300,0,86.55667,121.7083,-35.82452
19306,2023-01-20 11:09:39.904678,214279043,1,34,300,0,88.01664,123.5646,-36.12753
19432,2023-01-20 11:09:40.237216,214611579,1,35,300,0,89.51032,125.4016,-36.42978
19532,2023-01-20 11:09:40.572162,214946564,1,36,300,0,91.05616,127.2932,-36.73466
19634,2023-01-20 11:09:40.904708,215279070,1,37,300,0,92.52763,129.169,-37.03259
19760,2023-01-20 11:09:41.237171,215611537,1,38,300,0,93.92902,131.0352,-37.33662
19858,2023-01-20 11:09:41.572173,215946577,1,39,300,0,95.3046,132.8819,-37.64241
19959,2023-01-20 11:09:41.904637,216279027,1,40,300,0,96.69218,134.6787,-37.95992
20086,2023-01-20 11:09:42.237156,216611519,1,41,300,0,98.03497,136.4542,-38.27837
20184,2023-01-20 11:09:42.572161,216946562,1,42,300,0,99.37247,138.2367,-38.59294
20285,2023-01-20 11:09:42.904659,217279028,1,43,300,0,100.7079,140.0634,-38.9077
20412,2023-01-20 11:09:43.237187,217611547,1,44,300,0,102.061,141.9167,-39.21547
20510,2023-01-20 11:09:43.572178,217946577,1,45,300,0,103.4632,143.7813,-39.50397
20611,2023-01-20 11:09:43.904640,218279031,1,46,300,0,104.8581,145.6386,-39.77686
20738,2023-01-20 11:09:44.237180,218611540,1,47,300,0,106.2386,147.47,-40.07315
20836,2023-01-20 11:09:44.572134,218946575,1,48,300,0,107.6885,149.3477,-40.39424
20938,2023-01-20 11:09:44.904680,219279040,1,49,300,0,109.1521,151.1772,-40.72668
21064,2023-01-20 11:09:45.237198,219611552,1,50,300,0,110.5963,152.9921,-41.06454
21165,2023-01-20 11:09:45.572206,219946566,1,51,300,0,112.0347,154.8424,-41.39232
21266,2023-01-20 11:09:45.884585,220279023,1,52,300,0,113.4374,156.6658,-41.68328
21392,2023-01-20 11:09:46.217115,220611531,1,53,300,0,114.8166,158.5224,-41.9622
21491,2023-01-20 11:09:46.552125,220946583,1,54,300,0,116.1615,160.43,-42.2448
21592,2023-01-20 11:09:46.884589,221279054,1,55,300,0,117.5298,162.3302,-42.51681
21718,2023-01-20 11:09:47.217030,221611536,1,56,300,0,118.9351,164.2108,-42.79005
21817,2023-01-20 11:09:47.551969,221946580,1,57,300,0,120.3782,166.1165,-43.09922
21818,2023-01-20 11:09:47.554765,221949377,1,57,300,2,51.24306,75.17773,-28.13346
21819,2023-01-20 11:09:47.554779,221949391,1,57,300,2,52.60405,77.02127,-28.49092
21820,2023-01-20 11:09:47.554792,221949404,1,57,300,2,53.99141,78.81389,-28.82372
21821,2023-01-20 11:09:47.554805,221949417,1,57,300,2,55.26015,80.5732,-29.14423
21822,2023-01-20 11:09:47.554819,221949431,1,57,300,2,56.61992,82.38483,-29.44173
21823,2023-01-20 11:09:47.554834,221949446,1,57,300,2,58.07446,84.23324,-29.78388
21824,2023-01-20 11:09:47.554847,221949459,1,57,300,2,59.52351,86.09688,-30.12944
21825,2023-01-20 11:09:47.554863,221949475,1,57,300,2,60.94498,88.00365,-30.44378
21826,2023-01-20 11:09:47.554876,221949488,1,57,300,2,62.43763,89.89614,-30.76373
21827,2023-01-20 11:09:47.554892,221949504,1,57,300,2,63.96117,91.82253,-31.0697
21828,2023-01-20 11:09:47.554906,221949518,1,57,300,2,65.44971,93.73877,-31.38003
21829,2023-01-20 11:09:47.554923,221949535,1,57,300,2,66.95433,95.62554,-31.67024
21830,2023-01-20 11:09:47.554936,221949548,1,57,300,2,68.40583,97.50715,-31.96478
21831,2023-01-20 11:09:47.554952,221949564,1,57,300,2,69.87136,99.39117,-32.22955
21832,2023-01-20 11:09:47.554965,221949577,1,57,300,2,71.31714,101.2345,-32.49917
21833,2023-01-20 11:09:47.554978,221949590,1,57,300,2,72.69276,103.0428,-32.76086
21834,2023-01-20 11:09:47.554992,221949604,1,57,300,2,74.04342,104.8412,-33.04021
21835,2023-01-20 11:09:47.555005,221949617,1,57,300,2,75.3811,106.6134,-33.3247
21836,2023-01-20 11:09:47.555018,221949630,1,57,300,2,76.68549,108.431,-33.62685
21837,2023-01-20 11:09:47.555032,221949644,1,57,300,2,78.05439,110.2891,-33.93982
21838,2023-01-20 11:09:47.555045,221949657,1,57,300,2,79.41215,112.1855,-34.27172
21839,2023-01-20 11:09:47.555058,221949670,1,57,300,2,80.78525,114.0894,-34.5928
21840,2023-01-20 11:09:47.555071,221949683,1,57,300,2,82.23314,116.0224,-34.92127
21841,2023-01-20 11:09:47.555085,221949697,1,57,300,2,83.68164,117.9424,-35.24913
21842,2023-01-20 11:09:47.555098,221949710,1,57,300,2,85.10291,119.8227,-35.54161
21843,2023-01-20 11:09:47.555111,221949723,1,57,300,2,86.55667,121.7083,-35.82452
21844,2023-01-20 11:09:47.555125,221949737,1,57,300,2,88.01664,123.5646,-36.12753
21845,2023-01-20 11:09:47.555138,221949750,1,57,300,2,89.51032,125.4016,-36.42978
21846,2023-01-20 11:09:47.555151,221949763,1,57,300,2,91.05616,127.2932,-36.73466
21847,2023-01-20 11:09:47.555164,221949776,1,57,300,2,92.52763,129.169,-37.03259
21848,2023-01-20 11:09:47.555178,221949790,1,57,300,2,93.92902,131.0352,-37.33662
21849,2023-01-20 11:09:47.555191,221949803,1,57,300,2,95.3046,132.8819,-37.64241
21850,2023-01-20 11:09:47.555208,221949820,1,57,300,2,96.69218,134.6787,-37.95992
21851,2023-01-20 11:09:47.555221,221949833,1,57,300,2,98.03497,136.4542,-38.27837
21852,2023-01-20 11:09:47.555292,221949904,1,57,300,2,99.37247,138.2367,-38.59294
21853,2023-01-20 11:09:47.555320,221949932,1,57,300,2,100.7079,140.0634,-38.9077
21854,2023-01-20 11:09:47.555333,221949945,1,57,300,2,102.061,141.9167,-39.21547
21855,2023-01-20 11:09:47.555347,221949959,1,57,300,2,103.4632,143.7813,-39.50397
21856,2023-01-20 11:09:47.555360,221949972,1,57,300,2,104.8581,145.6386,-39.77686
21857,2023-01-20 11:09:47.555373,221949985,1,57,300,2,106.2386,147.47,-40.07315
21858,2023-01-20 11:09:47.555387,221949999,1,57,300,2,107.6885,149.3477,-40.39424
21859,2023-01-20 11:09:47.555400,221950012,1,57,300,2,109.1521,151.1772,-40.72668
21860,2023-01-20 11:09:47.555413,221950025,1,57,300,2,110.5963,152.9921,-41.06454
21861,2023-01-20 11:09:47.555427,221950039,1,57,300,2,112.0347,154.8424,-41.39232
21862,2023-01-20 11:09:47.555449,221950061,1,57,300,2,113.4374,156.6658,-41.68328
21863,2023-01-20 11:09:47.555462,221950074,1,57,300,2,114.8166,158.5224,-41.9622
21864,2023-01-20 11:09:47.555500,221950112,1,57,300,2,116.1615,160.43,-42.2448
21865,2023-01-20 11:09:47.555520,221950132,1,57,300,2,117.5298,162.3302,-42.51681
21866,2023-01-20 11:09:47.555533,221950145,1,57,300,2,118.9351,164.2108,-42.79005
21967,2023-01-20 11:09:47.884455,222279018,1,9,300,0,121.8519,168.0373,-43.41468
22093,2023-01-20 11:09:48.216923,222611528,1,10,300,0,123.3872,169.9596,-43.71941
22191,2023-01-20 11:09:48.551915,222946588,1,11,300,0,124.8848,171.8855,-43.99376
22293,2023-01-20 11:09:48.884415,223279022,1,12,300,0,126.2892,173.7803,-44.23491
22419,2023-01-20 11:09:49.216920,223611523,1,13,300,0,127.652,175.6351,-44.46678
22517,2023-01-20 11:09:49.551926,223946566,1,14,300,0,129.0139,177.4708,-44.6967
22620,2023-01-20 11:09:49.884440,224279050,1,15,300,0,130.3227,179.2628,-44.94001
22747,2023-01-20 11:09:50.216938,224611547,1,16,300,0,131.5948,181.027,-45.23798
22847,2023-01-20 11:09:50.551933,224946625,1,17,300,0,132.9178,182.8015,-45.58994
22949,2023-01-20 11:09:50.884415,225279031,1,18,300,0,134.3074,184.6027,-45.95438
23075,2023-01-20 11:09:51.216886,225611526,1,19,300,0,135.75,186.4353,-46.31184
23173,2023-01-20 11:09:51.551933,225946571,1,20,300,0,137.2528,188.2977,-46.655
23275,2023-01-20 11:09:51.884440,226279043,1,21,300,0,138.7687,190.1444,-46.98928
23401,2023-01-20 11:09:52.216915,226611528,1,22,300,0,140.2541,192.0025,-47.3115
23499,2023-01-20 11:09:52.551958,226946612,1,23,300,0,141.6727,193.8981,-47.61375
23601,2023-01-20 11:09:52.884420,227279022,1,24,300,0,143.0992,195.7798,-47.91063
23727,2023-01-20 11:09:53.216944,227611575,1,25,300,0,144.5206,197.6314,-48.19949
23825,2023-01-20 11:09:53.551926,227946559,1,26,300,0,145.9498,199.4764,-48.48222
23926,2023-01-20 11:09:53.884459,228279088,1,27,300,0,147.4101,201.3298,-48.77796
24053,2023-01-20 11:09:54.216948,228611543,1,28,300,0,148.9103,203.1883,-49.08101
24151,2023-01-20 11:09:54.551980,228946612,1,29,300,0,150.4114,205.0689,-49.35957
24252,2023-01-20 11:09:54.884437,229279028,1,30,300,0,151.8711,206.9398,-49.61514
24378,2023-01-20 11:09:55.216924,229611576,1,31,300,0,153.2533,208.7995,-49.86956
24480,2023-01-20 11:09:55.551932,229946576,1,32,300,0,154.6281,210.6834,-50.15406
24581,2023-01-20 11:09:55.876871,230279068,1,33,300,0,156.0122,212.5302,-50.4472
24704,2023-01-20 11:09:56.197403,230611549,1,34,300,0,157.3809,214.3549,-50.75637
24806,2023-01-20 11:09:56.532279,230946566,1,35,300,0,158.8176,216.1738,-51.06719
24907,2023-01-20 11:09:56.864832,231279057,1,36,300,0,160.1736,217.991,-51.38099
25030,2023-01-20 11:09:57.197164,231611545,1,37,300,0,161.5008,219.8345,-51.70629
25132,2023-01-20 11:09:57.532203,231946598,1,38,300,0,162.8724,221.7083,-52.05432
25233,2023-01-20 11:09:57.864667,232279035,1,39,300,0,164.3192,223.5936,-52.39653
25356,2023-01-20 11:09:58.197179,232611546,1,40,300,0,165.7728,225.4992,-52.69249
25458,2023-01-20 11:09:58.532221,232946621,1,41,300,0,167.1851,227.412,-52.9463
25559,2023-01-20 11:09:58.864680,233279054,1,42,300,0,168.5388,229.2703,-53.19645
25682,2023-01-20 11:09:59.197120,233611534,1,43,300,0,169.8684,231.1008,-53.46971
25783,2023-01-20 11:09:59.532193,233946591,1,44,300,0,171.2646,232.8994,-53.74529
25886,2023-01-20 11:09:59.864663,234279063,1,45,300,0,172.6509,234.6653,-53.99874
26010,2023-01-20 11:10:00.197186,234611545,1,46,300,0,173.9393,236.3485,-54.21764
26113,2023-01-20 11:10:00.532185,234946587,1,47,300,0,175.1932,237.916,-54.4339
26337,2023-01-20 11:10:01.197174,235611538,1,48,300,0,177.3821,240.4729,-54.83572
26661,2023-01-20 11:10:02.194629,236609003,1,49,300,0,178.8338,242.2993,-55.07595
27188,2023-01-20 11:10:03.857180,238271539,1,50,300,0,176.1363,241.1381,-55.20825
27512,2023-01-20 11:10:04.855039,239269401,1,51,300,0,173.7106,239.8462,-55.11814
27839,2023-01-20 11:10:05.832419,240266565,1,52,300,0,171.3888,238.7765,-55.12507
28168,2023-01-20 11:10:06.829705,241264049,1,53,300,0,168.9959,237.5406,-55.2685
28391,2023-01-20 11:10:07.494636,241929030,1,54,300,0,166.9074,236.4703,-55.34958
28590,2023-01-20 11:10:08.160129,242594506,1,55,300,0,164.1447,234.9756,-55.4168
28817,2023-01-20 11:10:08.825056,243259478,1,56,300,0,160.9287,232.957,-55.52047
28912,2023-01-20 11:10:09.157149,243591524,1,57,300,0,159.1349,231.874,-55.55849
29041,2023-01-20 11:10:09.489623,243924022,1,58,300,0,157.2808,230.755,-55.59438
29042,2023-01-20 11:10:09.492358,243926758,1,58,300,2,121.8519,168.0373,-43.41468
29043,2023-01-20 11:10:09.492372,243926772,1,58,300,2,123.3872,169.9596,-43.71941
29044,2023-01-20 11:10:09.492385,243926785,1,58,300,2,124.8848,171.8855,-43.99376
29045,2023-01-20 11:10:09.492398,243926798,1,58,300,2,126.2892,173.7803,-44.23491
29046,2023-01-20 11:10:09.492414,243926814,1,58,300,2,127.652,175.6351,-44.46678
29047,2023-01-20 11:10:09.492427,243926827,1,58,300,2,129.0139,177.4708,-44.6967
29048,2023-01-20 11:10:09.492441,243926841,1,58,300,2,130.3227,179.2628,-44.94001
29049,2023-01-20 11:10:09.492475,243926875,1,58,300,2,131.5948,181.027,-45.23798
29050,2023-01-20 11:10:09.492524,243926924,1,58,300,2,132.9178,182.8015,-45.58994
29051,2023-01-20 11:10:09.492537,243926937,1,58,300,2,134.3074,184.6027,-45.95438
29052,2023-01-20 11:10:09.492550,243926950,1,58,300,2,135.75,186.4353,-46.31184
29053,2023-01-20 11:10:09.492564,243926964,1,58,300,2,137.2528,188.2977,-46.655
29054,2023-01-20 11:10:09.492577,243926977,1,58,300,2,138.7687,190.1444,-46.98928
29055,2023-01-20 11:10:09.492593,243926993,1,58,300,2,140.2541,192.0025,-47.3115
29056,2023-01-20 11:10:09.492606,243927006,1,58,300,2,141.6727,193.8981,-47.61375
29057,2023-01-20 11:10:09.492620,243927020,1,58,300,2,143.0992,195.7798,-47.91063
29058,2023-01-20 11:10:09.492637,243927037,1,58,300,2,144.5206,197.6314,-48.19949
29059,2023-01-20 11:10:09.492650,243927050,1,58,300,2,145.9498,199.4764,-48.48222
29060,2023-01-20 11:10:09.492673,243927073,1,58,300,2,147.4101,201.3298,-48.77796
29061,2023-01-20 11:10:09.492686,243927086,1,58,300,2,148.9103,203.1883,-49.08101
29062,2023-01-20 11:10:09.492704,243927104,1,58,300,2,150.4114,205.0689,-49.35957
29063,2023-01-20 11:10:09.492717,243927117,1,58,300,2,151.8711,206.9398,-49.61514
29064,2023-01-20 11:10:09.492731,243927131,1,58,300,2,153.2533,208.7995,-49.86956
29065,2023-01-20 11:10:09.492744,243927144,1,58,300,2,154.6281,210.6834,-50.15406
29066,2023-01-20 11:10:09.492757,243927157,1,58,300,2,156.0122,212.5302,-50.4472
29067,2023-01-20 11:10:09.492773,243927173,1,58,300,2,157.3809,214.3549,-50.75637
29068,2023-01-20 11:10:09.492787,243927187,1,58,300,2,158.8176,216.1738,-51.06719
29069,2023-01-20 11:10:09.492823,243927223,1,58,300,2,160.1736,217.991,-51.38099
29070,2023-01-20 11:10:09.492837,243927237,1,58,300,2,161.5008,219.8345,-51.70629
29071,2023-01-20 11:10:09.492850,243927250,1,58,300,2,162.8724,221.7083,-52.05432
29072,2023-01-20 11:10:09.492917,243927317,1,58,300,2,164.3192,223.5936,-52.39653
29073,2023-01-20 11:10:09.492930,243927330,1,58,300,2,165.7728,225.4992,-52.69249
29074,2023-01-20 11:10:09.492946,243927346,1,58,300,2,167.1851,227.412,-52.9463
29075,2023-01-20 11:10:09.492959,243927359,1,58,300,2,168.5388,229.2703,-53.19645
29076,2023-01-20 11:10:09.492972,243927372,1,58,300,2,169.8684,231.1008,-53.46971
29077,2023-01-20 11:10:09.492985,243927385,1,58,300,2,171.2646,232.8994,-53.74529
29078,2023-01-20 11:10:09.492999,243927399,1,58,300,2,172.6509,234.6653,-53.99874
29079,2023-01-20 11:10:09.493012,243927412,1,58,300,2,173.9393,236.3485,-54.21764
29080,2023-01-20 11:10:09.493025,243927425,1,58,300,2,175.1932,237.916,-54.4339
29081,2023-01-20 11:10:09.493039,243927439,1,58,300,2,177.3821,240.4729,-54.83572
29082,2023-01-20 11:10:09.493052,243927452,1,58,300,2,176.1363,241.1381,-55.20825
29083,2023-01-20 11:10:09.493065,243927465,1,58,300,2,173.7106,239.8462,-55.11814
29084,2023-01-20 11:10:09.493079,243927479,1,58,300,2,171.3888,238.7765,-55.12507
29085,2023-01-20 11:10:09.493092,243927492,1,58,300,2,168.9959,237.5406,-55.2685
29086,2023-01-20 11:10:09.493108,243927508,1,58,300,2,166.9074,236.4703,-55.34958
29087,2023-01-20 11:10:09.493121,243927521,1,58,300,2,164.1447,234.9756,-55.4168
29088,2023-01-20 11:10:09.493134,243927534,1,58,300,2,160.9287,232.957,-55.52047
29089,2023-01-20 11:10:09.493148,243927548,1,58,300,2,159.1349,231.874,-55.55849
29195,2023-01-20 11:10:09.823374,244257761,1,11,300,0,155.3786,229.6304,-55.64391
29290,2023-01-20 11:10:10.154651,244589032,1,12,300,0,153.4563,228.4976,-55.68242
29419,2023-01-20 11:10:10.487107,244921531,1,13,300,0,151.4576,227.3628,-55.70604
29523,2023-01-20 11:10:10.819687,245254074,1,14,300,0,149.3928,226.2106,-55.70734
29619,2023-01-20 11:10:11.152200,245586579,1,15,300,0,147.3469,225.054,-55.70351
29747,2023-01-20 11:10:11.484926,245919321,1,16,300,0,145.256,223.8768,-55.695
29849,2023-01-20 11:10:11.817183,246251553,1,17,300,0,143.1754,222.6893,-55.68711
29946,2023-01-20 11:10:12.149634,246584009,1,18,300,0,141.1431,221.5302,-55.67311
30074,2023-01-20 11:10:12.482132,246916538,1,19,300,0,139.1833,220.3373,-55.66122
30175,2023-01-20 11:10:12.814658,247249044,1,20,300,0,137.2534,219.1183,-55.6459
30272,2023-01-20 11:10:13.147400,247581785,1,21,300,0,135.3445,217.9108,-55.63151
30400,2023-01-20 11:10:13.479692,247914108,1,22,300,0,133.3632,216.7236,-55.61408
30502,2023-01-20 11:10:13.812204,248246584,1,23,300,0,131.3367,215.5464,-55.59726
30599,2023-01-20 11:10:14.144663,248579022,1,24,300,0,129.3473,214.3426,-55.57698
30727,2023-01-20 11:10:14.477163,248911537,1,25,300,0,127.3534,213.1567,-55.54718
30828,2023-01-20 11:10:14.812231,249246599,1,26,300,0,125.2791,211.9726,-55.51449
30924,2023-01-20 11:10:15.144667,249579037,1,27,300,0,123.2537,210.8176,-55.47999
31054,2023-01-20 11:10:15.477140,249911542,1,28,300,0,121.2243,209.6901,-55.44155
31155,2023-01-20 11:10:15.793109,250246606,1,29,300,0,119.1225,208.5452,-55.40554
31254,2023-01-20 11:10:16.124813,250579019,1,30,300,0,117.0284,207.3908,-55.38202
31383,2023-01-20 11:10:16.457262,250911538,1,31,300,0,114.9444,206.2543,-55.34673
31482,2023-01-20 11:10:16.792278,251246598,1,32,300,0,112.8658,205.1141,-55.31605
31580,2023-01-20 11:10:17.124686,251579036,1,33,300,0,110.8744,203.9339,-55.30143
31709,2023-01-20 11:10:17.457151,251911540,1,34,300,0,108.8809,202.7762,-55.28984
31808,2023-01-20 11:10:17.792215,252246591,1,35,300,0,106.8655,201.6044,-55.29372
31907,2023-01-20 11:10:18.124648,252579022,1,36,300,0,104.857,200.4385,-55.29611
32035,2023-01-20 11:10:18.457156,252911544,1,37,300,0,102.8073,199.2661,-55.28883
32135,2023-01-20 11:10:18.792209,253246597,1,38,300,0,100.7526,198.0923,-55.27135
32233,2023-01-20 11:10:19.124643,253579024,1,39,300,0,98.67831,196.9222,-55.25809
32361,2023-01-20 11:10:19.457124,253911527,1,40,300,0,96.64584,195.7468,-55.26101
32462,2023-01-20 11:10:19.792237,254246599,1,41,300,0,94.63863,194.5904,-55.26287
32560,2023-01-20 11:10:20.124661,254579033,1,42,300,0,92.62599,193.4287,-55.28279
32690,2023-01-20 11:10:20.457160,254911546,1,43,300,0,90.57572,192.2725,-55.29605
32792,2023-01-20 11:10:20.792267,255246649,1,44,300,0,88.5102,191.0968,-55.28701
32890,2023-01-20 11:10:21.124664,255579034,1,45,300,0,86.44801,189.9393,-55.28561
33018,2023-01-20 11:10:21.457144,255911546,1,46,300,0,84.42394,188.781,-55.29468
33118,2023-01-20 11:10:21.792341,256246711,1,47,300,0,82.38393,187.6047,-55.30154
33216,2023-01-20 11:10:22.124632,256579027,1,48,300,0,80.35645,186.4068,-55.29932
33345,2023-01-20 11:10:22.457139,256911520,1,49,300,0,78.3297,185.2169,-55.28164
33444,2023-01-20 11:10:22.792343,257246726,1,50,300,0,76.25962,184.0494,-55.25962
33543,2023-01-20 11:10:23.124673,257579033,1,51,300,0,74.22807,182.8863,-55.24139
33671,2023-01-20 11:10:23.457137,257911529,1,52,300,0,72.23444,181.7105,-55.21818
33770,2023-01-20 11:10:23.792382,258246760,1,53,300,0,70.26085,180.536,-55.20199
33868,2023-01-20 11:10:24.124628,258579022,1,54,300,0,68.2523,179.384,-55.18872
33997,2023-01-20 11:10:24.457185,258911570,1,55,300,0,66.28099,178.2728,-55.18864
34097,2023-01-20 11:10:24.792177,259246595,1,56,300,0,64.31828,177.1489,-55.19742
34195,2023-01-20 11:10:25.116463,259579076,1,57,300,0,62.39432,175.9787,-55.21219
34324,2023-01-20 11:10:25.437332,259911522,1,58,300,0,60.46947,174.7893,-55.22752
34426,2023-01-20 11:10:25.772336,260246646,1,59,300,0,58.49053,173.6046,-55.23992
34524,2023-01-20 11:10:26.104654,260579019,1,60,300,0,56.46319,172.435,-55.24089
34525,2023-01-20 11:10:26.107710,260582074,1,60,300,2,155.3786,229.6304,-55.64391
34526,2023-01-20 11:10:26.107723,260582088,1,60,300,2,153.4563,228.4976,-55.68242
34527,2023-01-20 11:10:26.107741,260582105,1,60,300,2,151.4576,227.3628,-55.70604
34528,2023-01-20 11:10:26.107769,260582133,1,60,300,2,149.3928,226.2106,-55.70734
34529,2023-01-20 11:10:26.107783,260582147,1,60,300,2,147.3469,225.054,-55.70351
34530,2023-01-20 11:10:26.107795,260582160,1,60,300,2,145.256,223.8768,-55.695
34531,2023-01-20 11:10:26.107809,260582173,1,60,300,2,143.1754,222.6893,-55.68711
34532,2023-01-20 11:10:26.107823,260582187,1,60,300,2,141.1431,221.5302,-55.67311
34533,2023-01-20 11:10:26.107838,260582202,1,60,300,2,139.1833,220.3373,-55.66122
34534,2023-01-20 11:10:26.107857,260582221,1,60,300,2,137.2534,219.1183,-55.6459
34535,2023-01-20 11:10:26.107870,260582234,1,60,300,2,135.3445,217.9108,-55.63151
34536,2023-01-20 11:10:26.107884,260582248,1,60,300,2,133.3632,216.7236,-55.61408
34537,2023-01-20 11:10:26.107949,260582313,1,60,300,2,131.3367,215.5464,-55.59726
34538,2023-01-20 11:10:26.107962,260582326,1,60,300,2,129.3473,214.3426,-55.57698
34539,2023-01-20 11:10:26.107975,260582339,1,60,300,2,127.3534,213.1567,-55.54718
34540,2023-01-20 11:10:26.107989,260582353,1,60,300,2,125.2791,211.9726,-55.51449
34541,2023-01-20 11:10:26.108002,260582366,1,60,300,2,123.2537,210.8176,-55.47999
34542,2023-01-20 11:10:26.108015,260582379,1,60,300,2,121.2243,209.6901,-55.44155
34543,2023-01-20 11:10:26.108029,260582393,1,60,300,2,119.1225,208.5452,-55.40554
34544,2023-01-20 11:10:26.108042,260582406,1,60,300,2,117.0284,207.3908,-55.38202
34545,2023-01-20 11:10:26.108055,260582419,1,60,300,2,114.9444,206.2543,-55.34673
34546,2023-01-20 11:10:26.108068,260582432,1,60,300,2,112.8658,205.1141,-55.31605
34547,2023-01-20 11:10:26.108082,260582446,1,60,300,2,110.8744,203.9339,-55.30143
34548,2023-01-20 11:10:26.108095,260582459,1,60,300,2,108.8809,202.7762,-55.28984
34549,2023-01-20 11:10:26.108108,260582472,1,60,300,2,106.8655,201.6044,-55.29372
34550,2023-01-20 11:10:26.108122,260582486,1,60,300,2,104.857,200.4385,-55.29611
34551,2023-01-20 11:10:26.108139,260582503,1,60,300,2,102.8073,199.2661,-55.28883
34552,2023-01-20 11:10:26.108152,260582516,1,60,300,2,100.7526,198.0923,-55.27135
34553,2023-01-20 11:10:26.108165,260582529,1,60,300,2,98.67831,196.9222,-55.25809
34554,2023-01-20 11:10:26.108179,260582543,1,60,300,2,96.64584,195.7468,-55.26101
34555,2023-01-20 11:10:26.108192,260582556,1,60,300,2,94.63863,194.5904,-55.26287
34556,2023-01-20 11:10:26.108223,260582587,1,60,300,2,92.62599,193.4287,-55.28279
34557,2023-01-20 11:10:26.108236,260582600,1,60,300,2,90.57572,192.2725,-55.29605
34558,2023-01-20 11:10:26.108249,260582613,1,60,300,2,88.5102,191.0968,-55.28701
34559,2023-01-20 11:10:26.108263,260582627,1,60,300,2,86.44801,189.9393,-55.28561
34560,2023-01-20 11:10:26.108276,260582640,1,60,300,2,84.42394,188.781,-55.29468
34561,2023-01-20 11:10:26.108289,260582653,1,60,300,2,82.38393,187.6047,-55.30154
34562,2023-01-20 11:10:26.108302,260582666,1,60,300,2,80.35645,186.4068,-55.29932
34563,2023-01-20 11:10:26.108316,260582680,1,60,300,2,78.3297,185.2169,-55.28164
34564,2023-01-20 11:10:26.108329,260582693,1,60,300,2,76.25962,184.0494,-55.25962
34565,2023-01-20 11:10:26.108342,260582706,1,60,300,2,74.22807,182.8863,-55.24139
34566,2023-01-20 11:10:26.108356,260582720,1,60,300,2,72.23444,181.7105,-55.21818
34567,2023-01-20 11:10:26.108369,260582733,1,60,300,2,70.26085,180.536,-55.20199
34568,2023-01-20 11:10:26.108382,260582746,1,60,300,2,68.2523,179.384,-55.18872
34569,2023-01-20 11:10:26.108395,260582759,1,60,300,2,66.28099,178.2728,-55.18864
34570,2023-01-20 11:10:26.108413,260582777,1,60,300,2,64.31828,177.1489,-55.19742
34571,2023-01-20 11:10:26.108426,260582790,1,60,300,2,62.39432,175.9787,-55.21219
34572,2023-01-20 11:10:26.108439,260582803,1,60,300,2,60.46947,174.7893,-55.22752
34573,2023-01-20 11:10:26.108452,260582816,1,60,300,2,58.49053,173.6046,-55.23992
34702,2023-01-20 11:10:26.437210,260911585,1,12,300,0,54.46145,171.2878,-55.2431
34802,2023-01-20 11:10:26.772211,261246595,1,13,300,0,52.41496,170.1351,-55.25088
34900,2023-01-20 11:10:27.104735,261579076,1,14,300,0,50.34667,169.0004,-55.24474
35028,2023-01-20 11:10:27.437193,261911552,1,15,300,0,48.25294,167.8479,-55.22039
35128,2023-01-20 11:10:27.772226,262246603,1,16,300,0,46.17936,166.6802,-55.19641
35226,2023-01-20 11:10:28.104637,262579019,1,17,300,0,44.12566,165.53,-55.1842
35354,2023-01-20 11:10:28.437170,262911537,1,18,300,0,42.09757,164.3802,-55.16692
35454,2023-01-20 11:10:28.772230,263246609,1,19,300,0,40.08107,163.2099,-55.14993
35553,2023-01-20 11:10:29.104681,263579038,1,20,300,0,38.08212,162.0427,-55.14065
35681,2023-01-20 11:10:29.437193,263911557,1,21,300,0,36.11023,160.8574,-55.14861
35782,2023-01-20 11:10:29.772227,264246609,1,22,300,0,34.10563,159.6906,-55.16075
35880,2023-01-20 11:10:30.104627,264579013,1,23,300,0,32.10738,158.5307,-55.1671
36008,2023-01-20 11:10:30.437153,264911519,1,24,300,0,30.12515,157.36,-55.16595
36111,2023-01-20 11:10:30.772192,265246609,1,25,300,0,28.06808,156.1739,-55.1583
36210,2023-01-20 11:10:31.104665,265579037,1,26,300,0,26.02922,155.0074,-55.15372
36338,2023-01-20 11:10:31.437194,265911555,1,27,300,0,23.97242,153.8527,-55.14557
36437,2023-01-20 11:10:31.772212,266246594,1,28,300,0,21.90829,152.6812,-55.12531
36536,2023-01-20 11:10:32.104662,266579026,1,29,300,0,19.90655,151.53,-55.10537
36664,2023-01-20 11:10:32.437153,266911523,1,30,300,0,17.90434,150.3521,-55.08829
36763,2023-01-20 11:10:32.772199,267246608,1,31,300,0,15.82863,149.1635,-55.07356
36863,2023-01-20 11:10:33.104675,267579035,1,32,300,0,13.75348,147.9837,-55.07066
36991,2023-01-20 11:10:33.437153,267911542,1,33,300,0,11.68732,146.799,-55.07464
37090,2023-01-20 11:10:33.756505,268246611,1,34,300,0,9.603996,145.6048,-55.07542
37189,2023-01-20 11:10:34.104702,268579039,1,35,300,0,7.528131,144.4256,-55.06696
37317,2023-01-20 11:10:34.417076,268911531,1,36,300,0,5.493283,143.2502,-55.04389
37416,2023-01-20 11:10:34.769105,269246600,1,37,300,0,3.478065,142.0889,-55.02301
37515,2023-01-20 11:10:35.084536,269579040,1,38,300,0,1.463041,140.9043,-55.01239
37644,2023-01-20 11:10:35.416986,269911542,1,39,300,0,-0.5184035,139.7238,-55.006
37746,2023-01-20 11:10:35.751970,270246582,1,40,300,0,-2.510466,138.544,-55.0027
37844,2023-01-20 11:10:36.084416,270579015,1,41,300,0,-4.497952,137.3762,-54.99793
37973,2023-01-20 11:10:36.416891,270911527,1,42,300,0,-6.496839,136.2142,-54.98596
38072,2023-01-20 11:10:36.751955,271246661,1,43,300,0,-8.526953,135.044,-54.97964
38170,2023-01-20 11:10:37.084422,271579044,1,44,300,0,-10.54105,133.8744,-54.99326
38300,2023-01-20 11:10:37.416873,271911538,1,45,300,0,-12.52311,132.7371,-55.01365
38399,2023-01-20 11:10:37.751941,272246589,1,46,300,0,-14.51874,131.5779,-55.04085
38497,2023-01-20 11:10:38.084385,272579016,1,47,300,0,-16.46366,130.4072,-55.08221
38626,2023-01-20 11:10:38.416903,272911533,1,48,300,0,-18.39673,129.2384,-55.12135
38725,2023-01-20 11:10:38.751995,273246645,1,49,300,0,-20.3774,128.0517,-55.153
38823,2023-01-20 11:10:39.084412,273579036,1,50,300,0,-22.36755,126.8932,-55.18559
38951,2023-01-20 11:10:39.416927,273911596,1,51,300,0,-24.37493,125.7592,-55.20421
39053,2023-01-20 11:10:39.751928,274246583,1,52,300,0,-26.39705,124.6221,-55.21694
39151,2023-01-20 11:10:40.084410,274579067,1,53,300,0,-28.41297,123.4854,-55.22359
39279,2023-01-20 11:10:40.416875,274911527,1,54,300,0,-30.44993,122.3364,-55.22628
39383,2023-01-20 11:10:40.751981,275246641,1,55,300,0,-32.48536,121.1856,-55.21505
39482,2023-01-20 11:10:41.084411,275579034,1,56,300,0,-34.52036,120.0103,-55.20777
39610,2023-01-20 11:10:41.416976,275911592,1,57,300,0,-36.53701,118.8389,-55.20162
39711,2023-01-20 11:10:41.751942,276246598,1,58,300,0,-38.55769,117.644,-55.20428
39809,2023-01-20 11:10:42.084443,276579079,1,59,300,0,-40.58498,116.4853,-55.21085
39937,2023-01-20 11:10:42.416919,276911544,1,60,300,0,-42.61325,115.3422,-55.21404
40037,2023-01-20 11:10:42.751926,277246596,1,61,300,0,-44.60146,114.1775,-55.21548
40038,2023-01-20 11:10:42.754858,277249528,1,61,300,2,54.46145,171.2878,-55.2431
40039,2023-01-20 11:10:42.754871,277249541,1,61,300,2,52.41496,170.1351,-55.25088
40040,2023-01-20 11:10:42.754889,277249559,1,61,300,2,50.34667,169.0004,-55.24474
40041,2023-01-20 11:10:42.754903,277249573,1,61,300,2,48.25294,167.8479,-55.22039
40042,2023-01-20 11:10:42.754916,277249586,1,61,300,2,46.17936,166.6802,-55.19641
40043,2023-01-20 11:10:42.754929,277249599,1,61,300,2,44.12566,165.53,-55.1842
40044,2023-01-20 11:10:42.754943,277249613,1,61,300,2,42.09757,164.3802,-55.16692
40045,2023-01-20 11:10:42.754956,277249626,1,61,300,2,40.08107,163.2099,-55.14993
40046,2023-01-20 11:10:42.754969,277249639,1,61,300,2,38.08212,162.0427,-55.14065
40047,2023-01-20 11:10:42.754982,277249652,1,61,300,2,36.11023,160.8574,-55.14861
40048,2023-01-20 11:10:42.754996,277249666,1,61,300,2,34.10563,159.6906,-55.16075
40049,2023-01-20 11:10:42.755035,277249705,1,61,300,2,32.10738,158.5307,-55.1671
40050,2023-01-20 11:10:42.755048,277249718,1,61,300,2,30.12515,157.36,-55.16595
40051,2023-01-20 11:10:42.755062,277249732,1,61,300,2,28.06808,156.1739,-55.1583
40052,2023-01-20 11:10:42.755075,277249745,1,61,300,2,26.02922,155.0074,-55.15372
40053,2023-01-20 11:10:42.755088,277249758,1,61,300,2,23.97242,153.8527,-55.14557
40054,2023-01-20 11:10:42.755105,277249775,1,61,300,2,21.90829,152.6812,-55.12531
40055,2023-01-20 11:10:42.755119,277249789,1,61,300,2,19.90655,151.53,-55.10537
40056,2023-01-20 11:10:42.755132,277249802,1,61,300,2,17.90434,150.3521,-55.08829
40057,2023-01-20 11:10:42.755145,277249815,1,61,300,2,15.82863,149.1635,-55.07356
40058,2023-01-20 11:10:42.755159,277249829,1,61,300,2,13.75348,147.9837,-55.07066
40059,2023-01-20 11:10:42.755172,277249842,1,61,300,2,11.68732,146.799,-55.07464
40060,2023-01-20 11:10:42.755208,277249878,1,61,300,2,9.603996,145.6048,-55.07542
40061,2023-01-20 11:10:42.755258,277249928,1,61,300,2,7.528131,144.4256,-55.06696
40062,2023-01-20 11:10:42.755271,277249941,1,61,300,2,5.493283,143.2502,-55.04389
40063,2023-01-20 11:10:42.755285,277249954,1,61,300,2,3.478065,142.0889,-55.02301
40064,2023-01-20 11:10:42.755298,277249968,1,61,300,2,1.463041,140.9043,-55.01239
40065,2023-01-20 11:10:42.755311,277249981,1,61,300,2,-0.5184035,139.7238,-55.006
40066,2023-01-20 11:10:42.755324,277249994,1,61,300,2,-2.510466,138.544,-55.0027
40067,2023-01-20 11:10:42.755338,277250008,1,61,300,2,-4.497952,137.3762,-54.99793
40068,2023-01-20 11:10:42.755352,277250021,1,61,300,2,-6.496839,136.2142,-54.98596
40069,2023-01-20 11:10:42.755364,277250034,1,61,300,2,-8.526953,135.044,-54.97964
40070,2023-01-20 11:10:42.755384,277250054,1,61,300,2,-10.54105,133.8744,-54.99326
40071,2023-01-20 11:10:42.755398,277250067,1,61,300,2,-12.52311,132.7371,-55.01365
40072,2023-01-20 11:10:42.755419,277250089,1,61,300,2,-14.51874,131.5779,-55.04085
40073,2023-01-20 11:10:42.755432,277250102,1,61,300,2,-16.46366,130.4072,-55.08221
40074,2023-01-20 11:10:42.755446,277250116,1,61,300,2,-18.39673,129.2384,-55.12135
40075,2023-01-20 11:10:42.755460,277250129,1,61,300,2,-20.3774,128.0517,-55.153
40076,2023-01-20 11:10:42.755472,277250142,1,61,300,2,-22.36755,126.8932,-55.18559
40077,2023-01-20 11:10:42.755486,277250156,1,61,300,2,-24.37493,125.7592,-55.20421
40078,2023-01-20 11:10:42.755500,277250169,1,61,300,2,-26.39705,124.6221,-55.21694
40079,2023-01-20 11:10:42.755512,277250182,1,61,300,2,-28.41297,123.4854,-55.22359
40080,2023-01-20 11:10:42.755527,277250196,1,61,300,2,-30.44993,122.3364,-55.22628
40081,2023-01-20 11:10:42.755539,277250209,1,61,300,2,-32.48536,121.1856,-55.21505
40082,2023-01-20 11:10:42.755555,277250225,1,61,300,2,-34.52036,120.0103,-55.20777
40083,2023-01-20 11:10:42.755569,277250238,1,61,300,2,-36.53701,118.8389,-55.20162
40084,2023-01-20 11:10:42.755583,277250252,1,61,300,2,-38.55769,117.644,-55.20428
40085,2023-01-20 11:10:42.755646,277250315,1,61,300,2,-40.58498,116.4853,-55.21085
40086,2023-01-20 11:10:42.755662,277250332,1,61,300,2,-42.61325,115.3422,-55.21404
40184,2023-01-20 11:10:43.084417,277579034,1,13,300,0,-46.59101,113.0306,-55.23395
40312,2023-01-20 11:10:43.415446,277911548,1,14,300,0,-48.58221,111.8644,-55.25561
40411,2023-01-20 11:10:43.732452,278246596,1,15,300,0,-50.63302,110.7005,-55.2722
40511,2023-01-20 11:10:44.064857,278579025,1,16,300,0,-52.66413,109.5582,-55.27827
40637,2023-01-20 11:10:44.397361,278911547,1,17,300,0,-54.68304,108.3939,-55.285
40738,2023-01-20 11:10:44.732382,279246599,1,18,300,0,-56.70821,107.2294,-55.28351
40837,2023-01-20 11:10:45.071819,279579022,1,19,300,0,-58.75511,106.0906,-55.29668
40963,2023-01-20 11:10:45.397414,279911522,1,20,300,0,-60.81905,104.9459,-55.30779
41066,2023-01-20 11:10:45.732309,280246602,1,21,300,0,-62.9289,103.7639,-55.29837
41167,2023-01-20 11:10:46.064652,280579030,1,22,300,0,-64.93707,102.572,-55.28894
41293,2023-01-20 11:10:46.397186,280911539,1,23,300,0,-66.86154,101.3442,-55.27899
41394,2023-01-20 11:10:46.732231,281246608,1,24,300,0,-68.83266,100.1429,-55.26519
41493,2023-01-20 11:10:47.064675,281579036,1,25,300,0,-70.82928,98.97652,-55.25911
41619,2023-01-20 11:10:47.397191,281911549,1,26,300,0,-72.84332,97.83568,-55.26552
41720,2023-01-20 11:10:47.732220,282246604,1,27,300,0,-74.88795,96.68874,-55.26875
41818,2023-01-20 11:10:48.064627,282579020,1,28,300,0,-76.86018,95.5234,-55.27806
41946,2023-01-20 11:10:48.397174,282911536,1,29,300,0,-78.79628,94.35298,-55.29568
42047,2023-01-20 11:10:48.732202,283246596,1,30,300,0,-80.76443,93.15228,-55.31211
42145,2023-01-20 11:10:49.064657,283579018,1,31,300,0,-82.78326,91.95435,-55.32671
42272,2023-01-20 11:10:49.397187,283911551,1,32,300,0,-84.80173,90.76447,-55.33291
42374,2023-01-20 11:10:49.732215,284246601,1,33,300,0,-86.79013,89.57496,-55.3403
42472,2023-01-20 11:10:50.064666,284579023,1,34,300,0,-88.8124,88.41695,-55.34448
42600,2023-01-20 11:10:50.397177,284911542,1,35,300,0,-90.89756,87.26853,-55.34011
42703,2023-01-20 11:10:50.732204,285246595,1,36,300,0,-92.94964,86.10382,-55.33591
42802,2023-01-20 11:10:51.064661,285579033,1,37,300,0,-94.99176,84.94724,-55.3253
42928,2023-01-20 11:10:51.397168,285911536,1,38,300,0,-97.03139,83.80136,-55.30695
43030,2023-01-20 11:10:51.732276,286246654,1,39,300,0,-99.0996,82.65003,-55.28597
43128,2023-01-20 11:10:52.064662,286579025,1,40,300,0,-101.1723,81.49955,-55.26912
43254,2023-01-20 11:10:52.397190,286911548,1,41,300,0,-103.2252,80.34327,-55.25827
43357,2023-01-20 11:10:52.720323,287246587,1,42,300,0,-105.3076,79.17144,-55.24835
43455,2023-01-20 11:10:53.064652,287579031,1,43,300,0,-107.3306,78.00986,-55.23879
43581,2023-01-20 11:10:53.397247,287911600,1,44,300,0,-109.3132,76.84763,-55.2261
43683,2023-01-20 11:10:53.732265,288246655,1,45,300,0,-111.3044,75.66326,-55.21407
43781,2023-01-20 11:10:54.044720,288579027,1,46,300,0,-113.3088,74.49789,-55.20008
43907,2023-01-20 11:10:54.377323,288911572,1,47,300,0,-115.3458,73.33289,-55.18911
44010,2023-01-20 11:10:54.712181,289246592,1,48,300,0,-117.4081,72.16225,-55.18871
44108,2023-01-20 11:10:55.044695,289579076,1,49,300,0,-119.4784,71.00816,-55.19529
44234,2023-01-20 11:10:55.377147,289911522,1,50,300,0,-121.5167,69.86473,-55.19777
44337,2023-01-20 11:10:55.712295,290246635,1,51,300,0,-123.5746,68.69394,-55.19627
44436,2023-01-20 11:10:56.044654,290579036,1,52,300,0,-125.6033,67.51048,-55.20134
44563,2023-01-20 11:10:56.377228,290911605,1,53,300,0,-127.5978,66.32291,-55.21199
44664,2023-01-20 11:10:56.712186,291246602,1,54,300,0,-129.5905,65.12529,-55.22621
44764,2023-01-20 11:10:57.044673,291579068,1,55,300,0,-131.5625,63.91857,-55.2453
44890,2023-01-20 11:10:57.377124,291911527,1,56,300,0,-133.5547,62.7307,-55.25418
44991,2023-01-20 11:10:57.712191,292246593,1,57,300,0,-135.5595,61.55263,-55.25466
45090,2023-01-20 11:10:58.044642,292579025,1,58,300,0,-137.5635,60.4071,-55.26027
45216,2023-01-20 11:10:58.377186,292911551,1,59,300,0,-139.5634,59.27321,-55.25449
45317,2023-01-20 11:10:58.712202,293246594,1,60,300,0,-141.6425,58.14458,-55.24075
45417,2023-01-20 11:10:59.044633,293579018,1,61,300,0,-143.6919,57.00193,-55.23021
45543,2023-01-20 11:10:59.377151,293911542,1,62,300,0,-145.7524,55.85432,-55.22635
45544,2023-01-20 11:10:59.379858,293914248,1,62,300,2,-46.59101,113.0306,-55.23395
45545,2023-01-20 11:10:59.379921,293914311,1,62,300,2,-48.58221,111.8644,-55.25561
45546,2023-01-20 11:10:59.379934,293914324,1,62,300,2,-50.63302,110.7005,-55.2722
45547,2023-01-20 11:10:59.379947,293914337,1,62,300,2,-52.66413,109.5582,-55.27827
45548,2023-01-20 11:10:59.379961,293914351,1,62,300,2,-54.68304,108.3939,-55.285
45549,2023-01-20 11:10:59.379974,293914364,1,62,300,2,-56.70821,107.2294,-55.28351
45550,2023-01-20 11:10:59.379987,293914377,1,62,300,2,-58.75511,106.0906,-55.29668
45551,2023-01-20 11:10:59.380001,293914391,1,62,300,2,-60.81905,104.9459,-55.30779
45552,2023-01-20 11:10:59.380014,293914404,1,62,300,2,-62.9289,103.7639,-55.29837
45553,2023-01-20 11:10:59.380027,293914417,1,62,300,2,-64.93707,102.572,-55.28894
45554,2023-01-20 11:10:59.380040,293914430,1,62,300,2,-66.86154,101.3442,-55.27899
45555,2023-01-20 11:10:59.380054,293914444,1,62,300,2,-68.83266,100.1429,-55.26519
45556,2023-01-20 11:10:59.380067,293914457,1,62,300,2,-70.82928,98.97652,-55.25911
45557,2023-01-20 11:10:59.380080,293914470,1,62,300,2,-72.84332,97.83568,-55.26552
45558,2023-01-20 11:10:59.380094,293914484,1,62,300,2,-74.88795,96.68874,-55.26875
45559,2023-01-20 11:10:59.380107,293914497,1,62,300,2,-76.86018,95.5234,-55.27806
45560,2023-01-20 11:10:59.380124,293914514,1,62,300,2,-78.79628,94.35298,-55.29568
45561,2023-01-20 11:10:59.380137,293914527,1,62,300,2,-80.76443,93.15228,-55.31211
45562,2023-01-20 11:10:59.380151,293914541,1,62,300,2,-82.78326,91.95435,-55.32671
45563,2023-01-20 11:10:59.380164,293914554,1,62,300,2,-84.80173,90.76447,-55.33291
45564,2023-01-20 11:10:59.380177,293914567,1,62,300,2,-86.79013,89.57496,-55.3403
45565,2023-01-20 11:10:59.380190,293914580,1,62,300,2,-88.8124,88.41695,-55.34448
45566,2023-01-20 11:10:59.380204,293914594,1,62,300,2,-90.89756,87.26853,-55.34011
45567,2023-01-20 11:10:59.380217,293914607,1,62,300,2,-92.94964,86.10382,-55.33591
45568,2023-01-20 11:10:59.380230,293914620,1,62,300,2,-94.99176,84.94724,-55.3253
45569,2023-01-20 11:10:59.380244,293914634,1,62,300,2,-97.03139,83.80136,-55.30695
45570,2023-01-20 11:10:59.380257,293914647,1,62,300,2,-99.0996,82.65003,-55.28597
45571,2023-01-20 11:10:59.380270,293914660,1,62,300,2,-101.1723,81.49955,-55.26912
45572,2023-01-20 11:10:59.380283,293914673,1,62,300,2,-103.2252,80.34327,-55.25827
45573,2023-01-20 11:10:59.380297,293914687,1,62,300,2,-105.3076,79.17144,-55.24835
45574,2023-01-20 11:10:59.380310,293914700,1,62,300,2,-107.3306,78.00986,-55.23879
45575,2023-01-20 11:10:59.380323,293914713,1,62,300,2,-109.3132,76.84763,-55.2261
45576,2023-01-20 11:10:59.380337,293914727,1,62,300,2,-111.3044,75.66326,-55.21407
45577,2023-01-20 11:10:59.380350,293914740,1,62,300,2,-113.3088,74.49789,-55.20008
45578,2023-01-20 11:10:59.380363,293914753,1,62,300,2,-115.3458,73.33289,-55.18911
45579,2023-01-20 11:10:59.380392,293914782,1,62,300,2,-117.4081,72.16225,-55.18871
45580,2023-01-20 11:10:59.380409,293914799,1,62,300,2,-119.4784,71.00816,-55.19529
45581,2023-01-20 11:10:59.380423,293914813,1,62,300,2,-121.5167,69.86473,-55.19777
45582,2023-01-20 11:10:59.380436,293914826,1,62,300,2,-123.5746,68.69394,-55.19627
45583,2023-01-20 11:10:59.380449,293914839,1,62,300,2,-125.6033,67.51048,-55.20134
45584,2023-01-20 11:10:59.380463,293914853,1,62,300,2,-127.5978,66.32291,-55.21199
45585,2023-01-20 11:10:59.380532,293914922,1,62,300,2,-129.5905,65.12529,-55.22621
45586,2023-01-20 11:10:59.380546,293914936,1,62,300,2,-131.5625,63.91857,-55.2453
45587,2023-01-20 11:10:59.380559,293914949,1,62,300,2,-133.5547,62.7307,-55.25418
45588,2023-01-20 11:10:59.380572,293914962,1,62,300,2,-135.5595,61.55263,-55.25466
45589,2023-01-20 11:10:59.380586,293914976,1,62,300,2,-137.5635,60.4071,-55.26027
45590,2023-01-20 11:10:59.380599,293914989,1,62,300,2,-139.5634,59.27321,-55.25449
45591,2023-01-20 11:10:59.380612,293915002,1,62,300,2,-141.6425,58.14458,-55.24075
45592,2023-01-20 11:10:59.380626,293915016,1,62,300,2,-143.6919,57.00193,-55.23021
45694,2023-01-20 11:10:59.712166,294246599,1,14,300,0,-147.7666,54.68454,-55.22463
45792,2023-01-20 11:11:00.044672,294579049,1,15,300,0,-149.7278,53.49458,-55.23436
45919,2023-01-20 11:11:00.377172,294911542,1,16,300,0,-151.7118,52.30052,-55.2486
46022,2023-01-20 11:11:00.712202,295246604,1,17,300,0,-153.7366,51.10117,-55.25554
46120,2023-01-20 11:11:01.044633,295579013,1,18,300,0,-155.7388,49.90851,-55.25871
46249,2023-01-20 11:11:01.377175,295911539,1,19,300,0,-157.711,48.73759,-55.25884
46350,2023-01-20 11:11:01.712186,296246608,1,20,300,0,-159.6987,47.56052,-55.25862
46448,2023-01-20 11:11:02.044658,296579027,1,21,300,0,-161.7199,46.40223,-55.25613
46575,2023-01-20 11:11:02.377116,296911541,1,22,300,0,-163.7726,45.25264,-55.24823
46676,2023-01-20 11:11:02.712185,297246590,1,23,300,0,-165.8496,44.09664,-55.24102
46774,2023-01-20 11:11:03.024897,297579028,1,24,300,0,-167.8882,42.93391,-55.24198
46901,2023-01-20 11:11:03.374677,297911556,1,25,300,0,-169.9376,41.78175,-55.23074
47003,2023-01-20 11:11:03.692357,298246592,1,26,300,0,-172.0076,40.60864,-55.21687
47101,2023-01-20 11:11:04.024778,298579018,1,27,300,0,-174.0844,39.45352,-55.20189
47227,2023-01-20 11:11:04.357285,298911531,1,28,300,0,-176.1577,38.30277,-55.17932
47329,2023-01-20 11:11:04.692194,299246582,1,29,300,0,-178.1751,37.11748,-55.16159
47427,2023-01-20 11:11:05.024686,299579042,1,30,300,0,-180.1871,35.94463,-55.15689
47554,2023-01-20 11:11:05.357174,299911544,1,31,300,0,-182.1898,34.77393,-55.15438
47658,2023-01-20 11:11:05.692193,300246586,1,32,300,0,-184.1956,33.58835,-55.15791
47756,2023-01-20 11:11:06.024807,300579022,1,33,300,0,-186.1585,32.41827,-55.18035
47883,2023-01-20 11:11:06.357157,300911531,1,34,300,0,-188.1228,31.23465,-55.20486
47984,2023-01-20 11:11:06.692270,301246654,1,35,300,0,-190.1096,30.05244,-55.23373
48083,2023-01-20 11:11:07.024678,301579041,1,36,300,0,-192.1193,28.90991,-55.25535
48209,2023-01-20 11:11:07.357177,301911542,1,37,300,0,-194.167,27.78455,-55.27719
48311,2023-01-20 11:11:07.692180,302246582,1,38,300,0,-196.2104,26.63495,-55.2951
48410,2023-01-20 11:11:08.024650,302579014,1,39,300,0,-198.2147,25.4885,-55.31126
48536,2023-01-20 11:11:08.357136,302911535,1,40,300,0,-200.2064,24.33843,-55.32331
48637,2023-01-20 11:11:08.692270,303246655,1,41,300,0,-202.218,23.18557,-55.33431
48736,2023-01-20 11:11:09.024673,303579039,1,42,300,0,-204.2153,22.00628,-55.35255
48862,2023-01-20 11:11:09.357233,303911596,1,43,300,0,-206.202,20.81004,-55.36652
48965,2023-01-20 11:11:09.692196,304246587,1,44,300,0,-208.2433,19.59054,-55.37893
49063,2023-01-20 11:11:10.024689,304579061,1,45,300,0,-210.2489,18.39706,-55.38396
49190,2023-01-20 11:11:10.357147,304911547,1,46,300,0,-212.2459,17.22337,-55.37903
49293,2023-01-20 11:11:10.692222,305246611,1,47,300,0,-214.3039,16.04258,-55.3799
49391,2023-01-20 11:11:11.024602,305579016,1,48,300,0,-216.3601,14.88698,-55.38416
49519,2023-01-20 11:11:11.357168,305911535,1,49,300,0,-218.3756,13.73298,-55.38536
49622,2023-01-20 11:11:11.692228,306246594,1,50,300,0,-220.394,12.5955,-55.38192
49721,2023-01-20 11:11:12.004903,306579065,1,51,300,0,-222.3938,11.45542,-55.37674
49848,2023-01-20 11:11:12.337339,306911542,1,52,300,0,-224.3929,10.29292,-55.37325
49949,2023-01-20 11:11:12.672388,307246602,1,53,300,0,-226.3896,9.13355,-55.37074
50047,2023-01-20 11:11:13.004730,307579042,1,54,300,0,-228.4058,7.98113,-55.37831
50174,2023-01-20 11:11:13.337247,307911545,1,55,300,0,-230.4559,6.826211,-55.38888
50275,2023-01-20 11:11:13.680294,308246597,1,56,300,0,-232.5483,5.652304,-55.38667
50374,2023-01-20 11:11:14.004803,308579026,1,57,300,0,-234.6151,4.486038,-55.37929
50500,2023-01-20 11:11:14.337191,308911551,1,58,300,0,-236.6707,3.349182,-55.35871
50602,2023-01-20 11:11:14.672233,309246613,1,59,300,0,-238.7294,2.201084,-55.33641
50700,2023-01-20 11:11:15.004668,309579044,1,60,300,0,-240.7157,1.029451,-55.32608
50826,2023-01-20 11:11:15.337169,309911547,1,61,300,0,-242.7116,-0.1637373,-55.32352
50930,2023-01-20 11:11:15.672185,310246607,1,62,300,0,-244.7322,-1.355675,-55.33265
51028,2023-01-20 11:11:16.004646,310579016,1,63,300,0,-246.7181,-2.527905,-55.33704
51029,2023-01-20 11:11:16.010041,310584412,1,63,300,2,-147.7666,54.68454,-55.22463
51030,2023-01-20 11:11:16.010054,310584425,1,63,300,2,-149.7278,53.49458,-55.23436
51031,2023-01-20 11:11:16.010067,310584438,1,63,300,2,-151.7118,52.30052,-55.2486
51032,2023-01-20 11:11:16.010081,310584452,1,63,300,2,-153.7366,51.10117,-55.25554
51033,2023-01-20 11:11:16.010107,310584478,1,63,300,2,-155.7388,49.90851,-55.25871
51034,2023-01-20 11:11:16.010120,310584491,1,63,300,2,-157.711,48.73759,-55.25884
51035,2023-01-20 11:11:16.010133,310584504,1,63,300,2,-159.6987,47.56052,-55.25862
51036,2023-01-20 11:11:16.010147,310584518,1,63,300,2,-161.7199,46.40223,-55.25613
51037,2023-01-20 11:11:16.010160,310584531,1,63,300,2,-163.7726,45.25264,-55.24823
51038,2023-01-20 11:11:16.010173,310584544,1,63,300,2,-165.8496,44.09664,-55.24102
51039,2023-01-20 11:11:16.010186,310584557,1,63,300,2,-167.8882,42.93391,-55.24198
51040,2023-01-20 11:11:16.010200,310584571,1,63,300,2,-169.9376,41.78175,-55.23074
51041,2023-01-20 11:11:16.010213,310584584,1,63,300,2,-172.0076,40.60864,-55.21687
51042,2023-01-20 11:11:16.010230,310584601,1,63,300,2,-174.0844,39.45352,-55.20189
51043,2023-01-20 11:11:16.010243,310584614,1,63,300,2,-176.1577,38.30277,-55.17932
51044,2023-01-20 11:11:16.010257,310584628,1,63,300,2,-178.1751,37.11748,-55.16159
51045,2023-01-20 11:11:16.010270,310584641,1,63,300,2,-180.1871,35.94463,-55.15689
51046,2023-01-20 11:11:16.010283,310584654,1,63,300,2,-182.1898,34.77393,-55.15438
51047,2023-01-20 11:11:16.010297,310584668,1,63,300,2,-184.1956,33.58835,-55.15791
51048,2023-01-20 11:11:16.010310,310584681,1,63,300,2,-186.1585,32.41827,-55.18035
51049,2023-01-20 11:11:16.010323,310584694,1,63,300,2,-188.1228,31.23465,-55.20486
51050,2023-01-20 11:11:16.010336,310584707,1,63,300,2,-190.1096,30.05244,-55.23373
51051,2023-01-20 11:11:16.010350,310584721,1,63,300,2,-192.1193,28.90991,-55.25535
51052,2023-01-20 11:11:16.010363,310584734,1,63,300,2,-194.167,27.78455,-55.27719
51053,2023-01-20 11:11:16.010376,310584747,1,63,300,2,-196.2104,26.63495,-55.2951
51054,2023-01-20 11:11:16.010390,310584761,1,63,300,2,-198.2147,25.4885,-55.31126
51055,2023-01-20 11:11:16.010403,310584774,1,63,300,2,-200.2064,24.33843,-55.32331
51056,2023-01-20 11:11:16.010416,310584787,1,63,300,2,-202.218,23.18557,-55.33431
51057,2023-01-20 11:11:16.010429,310584800,1,63,300,2,-204.2153,22.00628,-55.35255
51058,2023-01-20 11:11:16.010443,310584814,1,63,300,2,-206.202,20.81004,-55.36652
51059,2023-01-20 11:11:16.010456,310584827,1,63,300,2,-208.2433,19.59054,-55.37893
51060,2023-01-20 11:11:16.010469,310584840,1,63,300,2,-210.2489,18.39706,-55.38396
51061,2023-01-20 11:11:16.010507,310584878,1,63,300,2,-212.2459,17.22337,-55.37903
51062,2023-01-20 11:11:16.010556,310584927,1,63,300,2,-214.3039,16.04258,-55.3799
51063,2023-01-20 11:11:16.010569,310584940,1,63,300,2,-216.3601,14.88698,-55.38416
51064,2023-01-20 11:11:16.010583,310584954,1,63,300,2,-218.3756,13.73298,-55.38536
51065,2023-01-20 11:11:16.010596,310584967,1,63,300,2,-220.394,12.5955,-55.38192
51066,2023-01-20 11:11:16.010609,310584980,1,63,300,2,-222.3938,11.45542,-55.37674
51067,2023-01-20 11:11:16.010622,310584993,1,63,300,2,-224.3929,10.29292,-55.37325
51068,2023-01-20 11:11:16.010636,310585007,1,63,300,2,-226.3896,9.13355,-55.37074
51069,2023-01-20 11:11:16.010649,310585020,1,63,300,2,-228.4058,7.98113,-55.37831
51070,2023-01-20 11:11:16.010662,310585033,1,63,300,2,-230.4559,6.826211,-55.38888
51071,2023-01-20 11:11:16.010676,310585047,1,63,300,2,-232.5483,5.652304,-55.38667
51072,2023-01-20 11:11:16.010689,310585060,1,63,300,2,-234.6151,4.486038,-55.37929
51073,2023-01-20 11:11:16.010702,310585073,1,63,300,2,-236.6707,3.349182,-55.35871
51074,2023-01-20 11:11:16.010716,310585087,1,63,300,2,-238.7294,2.201084,-55.33641
51075,2023-01-20 11:11:16.010729,310585100,1,63,300,2,-240.7157,1.029451,-55.32608
51076,2023-01-20 11:11:16.010742,310585113,1,63,300,2,-242.7116,-0.1637373,-55.32352
51077,2023-01-20 11:11:16.010864,310585235,1,63,300,2,-244.7322,-1.355675,-55.33265
51204,2023-01-20 11:11:16.337154,310911533,1,15,300,0,-248.672,-3.701727,-55.33205
51307,2023-01-20 11:11:16.672180,311246597,1,16,300,0,-250.6545,-4.893055,-55.33031
51405,2023-01-20 11:11:17.004639,311579049,1,17,300,0,-252.645,-6.071283,-55.33942
51531,2023-01-20 11:11:17.337169,311911554,1,18,300,0,-254.6842,-7.234266,-55.36277
51633,2023-01-20 11:11:17.672193,312246605,1,19,300,0,-256.7603,-8.40458,-55.38973
51731,2023-01-20 11:11:18.004657,312579026,1,20,300,0,-258.826,-9.552484,-55.41956
51858,2023-01-20 11:11:18.337145,312911526,1,21,300,0,-260.8647,-10.68205,-55.43765
51959,2023-01-20 11:11:18.672184,313246602,1,22,300,0,-262.8855,-11.83437,-55.43163
52058,2023-01-20 11:11:19.004657,313579035,1,23,300,0,-264.8792,-12.98299,-55.41584
52184,2023-01-20 11:11:19.337167,313911547,1,24,300,0,-266.934,-14.11708,-55.40026
52286,2023-01-20 11:11:19.672171,314246603,1,25,300,0,-268.9874,-15.29257,-55.40052
52385,2023-01-20 11:11:20.004640,314579019,1,26,300,0,-271.0029,-16.46469,-55.42815
52511,2023-01-20 11:11:20.337152,314911538,1,27,300,0,-273.0205,-17.62594,-55.46204
52615,2023-01-20 11:11:20.672192,315246588,1,28,300,0,-275.0429,-18.81343,-55.47952
52714,2023-01-20 11:11:21.004657,315579030,1,29,300,0,-277.0659,-19.98809,-55.47011
52840,2023-01-20 11:11:21.337200,315911546,1,30,300,0,-279.0743,-21.18171,-55.46955
52942,2023-01-20 11:11:21.672253,316246670,1,31,300,0,-281.0803,-22.38209,-55.48177
53041,2023-01-20 11:11:22.004239,316579023,1,32,300,0,-283.0697,-23.55125,-55.48331
53167,2023-01-20 11:11:22.317096,316911619,1,33,300,0,-285.0722,-24.70284,-55.4811
53269,2023-01-20 11:11:22.652036,317246589,1,34,300,0,-287.0905,-25.8486,-55.48407
53366,2023-01-20 11:11:22.984441,317579092,1,35,300,0,-289.0899,-27.01694,-55.49537
53494,2023-01-20 11:11:23.316902,317911533,1,36,300,0,-291.0873,-28.19056,-55.50794
53595,2023-01-20 11:11:23.651942,318246630,1,37,300,0,-293.118,-29.38936,-55.50307
53691,2023-01-20 11:11:23.984434,318579044,1,38,300,0,-295.154,-30.55913,-55.48869
53820,2023-01-20 11:11:24.317023,318911592,1,39,300,0,-297.175,-31.70811,-55.46839
53921,2023-01-20 11:11:24.651932,319246586,1,40,300,0,-299.1807,-32.87589,-55.44052
54018,2023-01-20 11:11:24.984479,319579117,1,41,300,0,-301.218,-34.03143,-55.41158
54147,2023-01-20 11:11:25.316895,319911527,1,42,300,0,-303.2785,-35.1996,-55.40961
54250,2023-01-20 11:11:25.651877,320246584,1,43,300,0,-305.3766,-36.40083,-55.36835
54346,2023-01-20 11:11:25.984433,320579048,1,44,300,0,-307.4273,-37.6025,-55.31528
54474,2023-01-20 11:11:26.316907,320911557,1,45,300,0,-309.4283,-38.77922,-55.2646
54577,2023-01-20 11:11:26.651939,321246608,1,46,300,0,-311.4721,-39.96753,-55.25208
54674,2023-01-20 11:11:26.984443,321579065,1,47,300,0,-313.5385,-41.15247,-55.2724
54802,2023-01-20 11:11:27.316916,321911548,1,48,300,0,-315.5772,-42.33483,-55.30334
54904,2023-01-20 11:11:27.651948,322246595,1,49,300,0,-317.5968,-43.55476,-55.30212
55000,2023-01-20 11:11:27.984428,322579039,1,50,300,0,-319.6203,-44.76987,-55.29922
55128,2023-01-20 11:11:28.316907,322911547,1,51,300,0,-321.6777,-45.94427,-55.31429
55230,2023-01-20 11:11:28.651910,323246595,1,52,300,0,-323.718,-47.10091,-55.32952
55327,2023-01-20 11:11:28.984392,323579030,1,53,300,0,-325.7552,-48.2415,-55.34043
55455,2023-01-20 11:11:29.316894,323911537,1,54,300,0,-327.7872,-49.3639,-55.36331
55558,2023-01-20 11:11:29.651882,324246589,1,55,300,0,-329.8277,-50.49696,-55.37172
55654,2023-01-20 11:11:29.984422,324579029,1,56,300,0,-331.872,-51.6694,-55.37617
55782,2023-01-20 11:11:30.316929,324911550,1,57,300,0,-333.9301,-52.82486,-55.35829
55885,2023-01-20 11:11:30.651938,325246586,1,58,300,0,-335.9393,-53.98422,-55.33355
