LineNo,UTC_Approx,TimeUS,Id,Pri,Total,Free,Name
1848,2023-01-20 11:08:47.857714,162111695,2,60,1104,768,UART_RX
1895,2023-01-20 11:08:47.958576,162212802,3,60,656,400,OTG1
1941,2023-01-20 11:08:48.058663,162312986,4,183,1360,1016,monitor
1987,2023-01-20 11:08:48.160895,162415214,5,181,1872,1488,timer
2037,2023-01-20 11:08:48.261020,162515317,6,181,848,616,rcout
2082,2023-01-20 11:08:48.362541,162616804,7,177,1360,736,rcin
2145,2023-01-20 11:08:48.457723,162717712,8,58,2384,1432,io
2199,2023-01-20 11:08:48.548691,162817722,9,59,1360,824,storage
2259,2023-01-20 11:08:48.643644,162917767,10,60,656,304,UART3
2310,2023-01-20 11:08:48.745660,163019763,11,60,656,264,UART4
2368,2023-01-20 11:08:48.846647,163120738,12,60,656,264,UART5
2421,2023-01-20 11:08:48.946694,163220785,13,176,1360,856,I2C0
2465,2023-01-20 11:08:49.047700,163321798,14,59,1616,896,OSD
2507,2023-01-20 11:08:49.147726,163421840,15,59,1912,416,log_io
2548,2023-01-20 11:08:49.254097,163522843,16,181,1360,720,SPI1
2589,2023-01-20 11:08:49.366666,163624224,255,255,1536,1264,ISR
2631,2023-01-20 11:08:49.470939,163725230,0,182,7168,5360,ArduCopter
2670,2023-01-20 11:08:49.572332,163826689,1,1,352,144,idle
2709,2023-01-20 11:08:49.666742,163927696,2,60,1104,768,UART_RX
2747,2023-01-20 11:08:49.757798,164027729,3,60,656,400,OTG1
2791,2023-01-20 11:08:49.853637,164127741,4,183,1360,1016,monitor
2831,2023-01-20 11:08:49.955054,164229181,5,181,1872,1488,timer
2871,2023-01-20 11:08:50.055061,164329178,6,181,848,616,rcout
2911,2023-01-20 11:08:50.156270,164430349,7,177,1360,736,rcin
2952,2023-01-20 11:08:50.258148,164532235,8,58,2384,1432,io
2991,2023-01-20 11:08:50.359107,164633234,9,59,1360,824,storage
3033,2023-01-20 11:08:50.459029,164733201,10,60,656,304,UART3
3074,2023-01-20 11:08:50.559101,164833321,11,60,656,264,UART4
3114,2023-01-20 11:08:50.659195,164933400,12,60,656,264,UART5
3152,2023-01-20 11:08:50.760213,165034359,13,176,1360,856,I2C0
3193,2023-01-20 11:08:50.861176,165135339,14,59,1616,896,OSD
3233,2023-01-20 11:08:50.961181,165235408,15,59,1912,416,log_io
3273,2023-01-20 11:08:51.062473,165336716,16,181,1360,720,SPI1
3312,2023-01-20 11:08:51.162462,165436690,255,255,1536,1264,ISR
3354,2023-01-20 11:08:51.262473,165536723,0,182,7168,5360,ArduCopter
3392,2023-01-20 11:08:51.363498,165637793,1,1,352,144,idle
3434,2023-01-20 11:08:51.464848,165739170,2,60,1104,768,UART_RX
3472,2023-01-20 11:08:51.565112,165839450,3,60,656,400,OTG1
3513,2023-01-20 11:08:51.665869,165940209,4,183,1360,1016,monitor
3551,2023-01-20 11:08:51.765905,166040237,5,181,1872,1488,timer
3593,2023-01-20 11:08:51.867339,166141671,6,181,848,616,rcout
3633,2023-01-20 11:08:51.968725,166243060,7,177,1360,736,rcin
3673,2023-01-20 11:08:52.070379,166344710,8,58,2384,1432,io
3707,2023-01-20 11:08:52.170453,166444777,9,59,1360,824,storage
3741,2023-01-20 11:08:52.271414,166545738,10,60,656,304,UART3
3771,2023-01-20 11:08:52.371432,166645758,11,60,656,264,UART4
3806,2023-01-20 11:08:52.472423,166746768,12,60,656,264,UART5
3836,2023-01-20 11:08:52.572437,166846808,13,176,1360,856,I2C0
3869,2023-01-20 11:08:52.673437,166947791,14,59,1616,896,OSD
3899,2023-01-20 11:08:52.773501,167047822,15,59,1912,416,log_io
3934,2023-01-20 11:08:52.874833,167149144,16,181,1360,720,SPI1
3966,2023-01-20 11:08:52.974871,167249180,255,255,1536,1264,ISR
3999,2023-01-20 11:08:53.075891,167350223,0,182,7168,5360,ArduCopter
4030,2023-01-20 11:08:53.177327,167451691,1,1,352,144,idle
4064,2023-01-20 11:08:53.277400,167551763,2,60,1104,768,UART_RX
4094,2023-01-20 11:08:53.378401,167652754,3,60,656,400,OTG1
4129,2023-01-20 11:08:53.478421,167752804,4,183,1360,1016,monitor
4160,2023-01-20 11:08:53.579964,167854388,5,181,1872,1488,timer
4192,2023-01-20 11:08:53.680931,167955337,6,181,848,616,rcout
4223,2023-01-20 11:08:53.780996,168055370,7,177,1360,736,rcin
4257,2023-01-20 11:08:53.881009,168155390,8,58,2384,1432,io
4291,2023-01-20 11:08:53.982760,168257158,9,59,1360,824,storage
4324,2023-01-20 11:08:54.083713,168358125,10,60,656,304,UART3
4356,2023-01-20 11:08:54.183814,168458239,11,60,656,264,UART4
4389,2023-01-20 11:08:54.285313,168559719,12,60,656,264,UART5
4420,2023-01-20 11:08:54.385355,168659737,13,176,1360,856,I2C0
4454,2023-01-20 11:08:54.485270,168759680,14,59,1616,896,OSD
4485,2023-01-20 11:08:54.586388,168860836,15,59,1912,416,log_io
4517,2023-01-20 11:08:54.687322,168961761,16,181,1360,720,SPI1
4548,2023-01-20 11:08:54.787414,169061836,255,255,1536,1264,ISR
4582,2023-01-20 11:08:54.888439,169162849,0,182,7168,5360,ArduCopter
4615,2023-01-20 11:08:54.988554,169262953,1,1,352,144,idle
4647,2023-01-20 11:08:55.089942,169364331,2,60,1104,768,UART_RX
4680,2023-01-20 11:08:55.190055,169464434,3,60,656,400,OTG1
4712,2023-01-20 11:08:55.290974,169565357,4,183,1360,1016,monitor
4743,2023-01-20 11:08:55.391065,169665453,5,181,1872,1488,timer
4777,2023-01-20 11:08:55.492399,169766813,6,181,848,616,rcout
4810,2023-01-20 11:08:55.593514,169867956,7,177,1360,736,rcin
4842,2023-01-20 11:08:55.695157,169969573,8,58,2384,1432,io
4873,2023-01-20 11:08:55.795194,170069581,9,59,1360,824,storage
4907,2023-01-20 11:08:55.895549,170169938,10,60,656,304,UART3
4940,2023-01-20 11:08:55.996251,170270643,11,60,656,264,UART4
4972,2023-01-20 11:08:56.096288,170370674,12,60,656,264,UART5
5005,2023-01-20 11:08:56.196302,170470681,13,176,1360,856,I2C0
5037,2023-01-20 11:08:56.298635,170573016,14,59,1616,896,OSD
5070,2023-01-20 11:08:56.400312,170674695,15,59,1912,416,log_io
5103,2023-01-20 11:08:56.500953,170775368,16,181,1360,720,SPI1
5135,2023-01-20 11:08:56.601268,170875715,255,255,1536,1264,ISR
5166,2023-01-20 11:08:56.702327,170976739,0,182,7168,5360,ArduCopter
5198,2023-01-20 11:08:56.802421,171076800,1,1,352,144,idle
5231,2023-01-20 11:08:56.903436,171177823,2,60,1104,768,UART_RX
5265,2023-01-20 11:08:57.003488,171277883,3,60,656,400,OTG1
5297,2023-01-20 11:08:57.104811,171379198,4,183,1360,1016,monitor
5331,2023-01-20 11:08:57.204843,171479222,5,181,1872,1488,timer
5362,2023-01-20 11:08:57.305947,171580324,6,181,848,616,rcout
5394,2023-01-20 11:08:57.408603,171682981,7,177,1360,736,rcin
5427,2023-01-20 11:08:57.507717,171782131,8,58,2384,1432,io
5459,2023-01-20 11:08:57.609804,171884248,9,59,1360,824,storage
5490,2023-01-20 11:08:57.709789,171984200,10,60,656,304,UART3
5522,2023-01-20 11:08:57.810954,172085336,11,60,656,264,UART4
5555,2023-01-20 11:08:57.910971,172185358,12,60,656,264,UART5
5591,2023-01-20 11:08:58.012368,172286759,13,176,1360,856,I2C0
5622,2023-01-20 11:08:58.113385,172387773,14,59,1616,896,OSD
5656,2023-01-20 11:08:58.213406,172487791,15,59,1912,416,log_io
5687,2023-01-20 11:08:58.314933,172589318,16,181,1360,720,SPI1
5719,2023-01-20 11:08:58.415860,172690252,255,255,1536,1264,ISR
5752,2023-01-20 11:08:58.515903,172790329,0,182,7168,5360,ArduCopter
5784,2023-01-20 11:08:58.617284,172891734,1,1,352,144,idle
5815,2023-01-20 11:08:58.717347,172991760,2,60,1104,768,UART_RX
5847,2023-01-20 11:08:58.818376,173092762,3,60,656,400,OTG1
5880,2023-01-20 11:08:58.918408,173192810,4,183,1360,1016,monitor
5914,2023-01-20 11:08:59.016742,173292834,5,181,1872,1488,timer
5950,2023-01-20 11:08:59.109279,173394638,6,181,848,616,rcout
5985,2023-01-20 11:08:59.200314,173494758,7,177,1360,736,rcin
6015,2023-01-20 11:08:59.300205,173594646,8,58,2384,1432,io
6048,2023-01-20 11:08:59.401504,173695791,9,59,1360,824,storage
6104,2023-01-20 11:08:59.514445,173797433,10,60,656,304,UART3
6137,2023-01-20 11:08:59.620927,173897449,11,60,656,264,UART4
6167,2023-01-20 11:08:59.720556,174007047,12,60,656,264,UART5
6203,2023-01-20 11:08:59.814785,174109229,13,176,1360,856,I2C0
6235,2023-01-20 11:08:59.914757,174209232,14,59,1616,896,OSD
6268,2023-01-20 11:09:00.029725,174324247,15,59,1912,416,log_io
6299,2023-01-20 11:09:00.130718,174425314,16,181,1360,720,SPI1
6333,2023-01-20 11:09:00.230730,174525361,255,255,1536,1264,ISR
6364,2023-01-20 11:09:00.332178,174626757,0,182,7168,5360,ArduCopter
6398,2023-01-20 11:09:00.432176,174726737,1,1,352,144,idle
6431,2023-01-20 11:09:00.533170,174827786,2,60,1104,768,UART_RX
6463,2023-01-20 11:09:00.634694,174929336,3,60,656,400,OTG1
6495,2023-01-20 11:09:00.734638,175029247,4,183,1360,1016,monitor
6529,2023-01-20 11:09:00.834650,175129246,5,181,1872,1488,timer
6562,2023-01-20 11:09:00.935730,175230351,6,181,848,616,rcout
6594,2023-01-20 11:09:01.037602,175332210,7,177,1360,736,rcin
6625,2023-01-20 11:09:01.138868,175433399,8,58,2384,1432,io
6660,2023-01-20 11:09:01.239839,175534351,9,59,1360,824,storage
6690,2023-01-20 11:09:01.339796,175634376,10,60,656,304,UART3
6725,2023-01-20 11:09:01.440784,175735416,11,60,656,264,UART4
6755,2023-01-20 11:09:01.542123,175836782,12,60,656,264,UART5
6788,2023-01-20 11:09:01.642143,175936816,13,176,1360,856,I2C0
6819,2023-01-20 11:09:01.743151,176037818,14,59,1616,896,OSD
6854,2023-01-20 11:09:01.843180,176137842,15,59,1912,416,log_io
6886,2023-01-20 11:09:01.943219,176237877,16,181,1360,720,SPI1
6919,2023-01-20 11:09:02.044562,176339213,255,255,1536,1264,ISR
6949,2023-01-20 11:09:02.144573,176439212,0,182,7168,5360,ArduCopter
6984,2023-01-20 11:09:02.244698,176539328,1,1,352,144,idle
7014,2023-01-20 11:09:02.345685,176640312,2,60,1104,768,UART_RX
7049,2023-01-20 11:09:02.445661,176740308,3,60,656,400,OTG1
7079,2023-01-20 11:09:02.545650,176840347,4,183,1360,1016,monitor
7112,2023-01-20 11:09:02.647044,176941746,5,181,1872,1488,timer
7142,2023-01-20 11:09:02.748124,177042780,6,181,848,616,rcout
7177,2023-01-20 11:09:02.848151,177142786,7,177,1360,736,rcin
7209,2023-01-20 11:09:02.948479,177243119,8,58,2384,1432,io
7242,2023-01-20 11:09:03.050121,177344769,9,59,1360,824,storage
7272,2023-01-20 11:09:03.150166,177444825,10,60,656,304,UART3
7307,2023-01-20 11:09:03.250094,177544761,11,60,656,264,UART4
7337,2023-01-20 11:09:03.351174,177645846,12,60,656,264,UART5
7372,2023-01-20 11:09:03.452361,177747034,13,176,1360,856,I2C0
7402,2023-01-20 11:09:03.552274,177846947,14,59,1616,896,OSD
7435,2023-01-20 11:09:03.653070,177947736,15,59,1912,416,log_io
7466,2023-01-20 11:09:03.753310,178047963,16,181,1360,720,SPI1
7501,2023-01-20 11:09:03.854547,178149201,255,255,1536,1264,ISR
7533,2023-01-20 11:09:03.954570,178249236,0,182,7168,5360,ArduCopter
7566,2023-01-20 11:09:04.055577,178350254,1,1,352,144,idle
7597,2023-01-20 11:09:04.155568,178450253,2,60,1104,768,UART_RX
7632,2023-01-20 11:09:04.255725,178550401,3,60,656,400,OTG1
7662,2023-01-20 11:09:04.357158,178651810,4,183,1360,1016,monitor
7697,2023-01-20 11:09:04.457130,178751781,5,181,1872,1488,timer
7727,2023-01-20 11:09:04.557097,178851764,6,181,848,616,rcout
7760,2023-01-20 11:09:04.658125,178952785,7,177,1360,736,rcin
7791,2023-01-20 11:09:04.759675,179054310,8,58,2384,1432,io
7825,2023-01-20 11:09:04.859711,179154358,9,59,1360,824,storage
7858,2023-01-20 11:09:04.959649,179254332,10,60,656,304,UART3
7890,2023-01-20 11:09:05.060678,179355362,11,60,656,264,UART4
7921,2023-01-20 11:09:05.160738,179455399,12,60,656,264,UART5
7955,2023-01-20 11:09:05.262436,179557079,13,176,1360,856,I2C0
7987,2023-01-20 11:09:05.362459,179657088,14,59,1616,896,OSD
8021,2023-01-20 11:09:05.462431,179757090,15,59,1912,416,log_io
8054,2023-01-20 11:09:05.563457,179858173,16,181,1360,720,SPI1
8086,2023-01-20 11:09:05.664954,179959651,255,255,1536,1264,ISR
8117,2023-01-20 11:09:05.764997,180059633,0,182,7168,5360,ArduCopter
8151,2023-01-20 11:09:05.865679,180160320,1,1,352,144,idle
8184,2023-01-20 11:09:05.967111,180261793,2,60,1104,768,UART_RX
8216,2023-01-20 11:09:06.068153,180362842,3,60,656,400,OTG1
8248,2023-01-20 11:09:06.169565,180464245,4,183,1360,1016,monitor
8281,2023-01-20 11:09:06.269591,180564270,5,181,1872,1488,timer
8312,2023-01-20 11:09:06.369562,180664243,6,181,848,616,rcout
8346,2023-01-20 11:09:06.470772,180765448,7,177,1360,736,rcin
8377,2023-01-20 11:09:06.572106,180866774,8,58,2384,1432,io
8409,2023-01-20 11:09:06.672087,180966756,9,59,1360,824,storage
8440,2023-01-20 11:09:06.773140,181067813,10,60,656,296,UART3
8474,2023-01-20 11:09:06.873159,181167824,11,60,656,264,UART4
8507,2023-01-20 11:09:06.974966,181269618,12,60,656,264,UART5
8539,2023-01-20 11:09:07.074889,181369536,13,176,1360,856,I2C0
8571,2023-01-20 11:09:07.175983,181470628,14,59,1616,896,OSD
8604,2023-01-20 11:09:07.275974,181570617,15,59,1912,416,log_io
8636,2023-01-20 11:09:07.377141,181671782,16,181,1360,720,SPI1
8670,2023-01-20 11:09:07.477119,181771769,255,255,1536,1264,ISR
8701,2023-01-20 11:09:07.577155,181871817,0,182,7168,5360,ArduCopter
8733,2023-01-20 11:09:07.678163,181972812,1,1,352,144,idle
8764,2023-01-20 11:09:07.778200,182072829,2,60,1104,768,UART_RX
8798,2023-01-20 11:09:07.878193,182172826,3,60,656,400,OTG1
8831,2023-01-20 11:09:07.978233,182272878,4,183,1360,1016,monitor
8864,2023-01-20 11:09:08.079661,182374323,5,181,1872,1488,timer
8895,2023-01-20 11:09:08.179653,182474333,6,181,848,616,rcout
8929,2023-01-20 11:09:08.280751,182575416,7,177,1360,736,rcin
8959,2023-01-20 11:09:08.382129,182676771,8,58,2384,1432,io
8994,2023-01-20 11:09:08.482138,182776802,9,59,1360,824,storage
9024,2023-01-20 11:09:08.582095,182876790,10,60,656,296,UART3
9057,2023-01-20 11:09:08.683148,182977822,11,60,656,264,UART4
9087,2023-01-20 11:09:08.783181,183077823,12,60,656,264,UART5
9124,2023-01-20 11:09:08.883318,183177965,13,176,1360,856,I2C0
9156,2023-01-20 11:09:08.984581,183279241,14,59,1616,896,OSD
9189,2023-01-20 11:09:09.077027,183379219,15,59,1912,416,log_io
9220,2023-01-20 11:09:09.168133,183479232,16,181,1360,720,SPI1
9255,2023-01-20 11:09:09.266110,183580334,255,255,1536,1264,ISR
9285,2023-01-20 11:09:09.367797,183682034,0,182,7168,5360,ArduCopter
9320,2023-01-20 11:09:09.467846,183782084,1,1,352,144,idle
9350,2023-01-20 11:09:09.567867,183882100,2,60,1104,768,UART_RX
9384,2023-01-20 11:09:09.668846,183983065,3,60,656,400,OTG1
9414,2023-01-20 11:09:09.770045,184084244,4,183,1360,1016,monitor
9450,2023-01-20 11:09:09.870265,184184475,5,181,1872,1488,timer
9482,2023-01-20 11:09:09.971513,184285746,6,181,848,616,rcout
9515,2023-01-20 11:09:10.072506,184386749,7,177,1360,736,rcin
9546,2023-01-20 11:09:10.172848,184487096,8,58,2384,1432,io
9580,2023-01-20 11:09:10.273516,184587765,9,59,1360,792,storage
9610,2023-01-20 11:09:10.373531,184687781,10,60,656,296,UART3
9645,2023-01-20 11:09:10.473474,184787805,11,60,656,264,UART4
9677,2023-01-20 11:09:10.574771,184889215,12,60,656,264,UART5
9710,2023-01-20 11:09:10.674804,184989226,13,176,1360,856,I2C0
9740,2023-01-20 11:09:10.774875,185089231,14,59,1616,896,OSD
9775,2023-01-20 11:09:10.875958,185190314,15,59,1912,416,log_io
9807,2023-01-20 11:09:10.977372,185291751,16,181,1360,720,SPI1
9841,2023-01-20 11:09:11.078399,185392789,255,255,1536,1264,ISR
9876,2023-01-20 11:09:11.180375,185494772,0,182,7168,5360,ArduCopter
9909,2023-01-20 11:09:11.280230,185594640,1,1,352,144,idle
9940,2023-01-20 11:09:11.381389,185695813,2,60,1104,768,UART_RX
9998,2023-01-20 11:09:11.492658,185807081,3,60,656,400,OTG1
10029,2023-01-20 11:09:11.583424,185897844,4,183,1360,1016,monitor
10061,2023-01-20 11:09:11.686123,186000525,5,181,1872,1488,timer
10094,2023-01-20 11:09:11.795135,186109515,6,181,848,616,rcout
10128,2023-01-20 11:09:11.897384,186211768,7,177,1360,736,rcin
10159,2023-01-20 11:09:11.998392,186312782,8,58,2384,1432,io
10192,2023-01-20 11:09:12.099924,186414344,9,59,1360,792,storage
10226,2023-01-20 11:09:12.200224,186514674,10,60,656,296,UART3
10257,2023-01-20 11:09:12.300946,186615363,11,60,656,264,UART4
10292,2023-01-20 11:09:12.401271,186715655,12,60,656,264,UART5
10323,2023-01-20 11:09:12.502713,186817121,13,176,1360,856,I2C0
10355,2023-01-20 11:09:12.602331,186916761,14,59,1616,896,OSD
10386,2023-01-20 11:09:12.710175,187024572,15,59,1912,416,log_io
10420,2023-01-20 11:09:12.810989,187125359,16,181,1360,720,SPI1
10453,2023-01-20 11:09:12.910995,187225371,255,255,1536,1264,ISR
10485,2023-01-20 11:09:13.012365,187326748,0,182,7168,5360,ArduCopter
10516,2023-01-20 11:09:13.113375,187427765,1,1,352,144,idle
10550,2023-01-20 11:09:13.213377,187527771,2,60,1104,768,UART_RX
10581,2023-01-20 11:09:13.313408,187627790,3,60,656,400,OTG1
10615,2023-01-20 11:09:13.414844,187729220,4,183,1360,1016,monitor
10646,2023-01-20 11:09:13.514915,187829320,5,181,1872,1488,timer
10678,2023-01-20 11:09:13.614821,187929248,6,181,848,616,rcout
10709,2023-01-20 11:09:13.715941,188030343,7,177,1360,736,rcin
10743,2023-01-20 11:09:13.817829,188132210,8,58,2384,1432,io
10776,2023-01-20 11:09:13.917873,188232250,9,59,1360,792,storage
10808,2023-01-20 11:09:14.017857,188332232,10,60,656,296,UART3
10839,2023-01-20 11:09:14.118968,188433353,11,60,656,264,UART4
10874,2023-01-20 11:09:14.219980,188534372,12,60,656,264,UART5
10905,2023-01-20 11:09:14.320010,188634393,13,176,1360,856,I2C0
10941,2023-01-20 11:09:14.421034,188735416,14,59,1616,896,OSD
10971,2023-01-20 11:09:14.522379,188836791,15,59,1912,416,log_io
11004,2023-01-20 11:09:14.622369,188936796,16,181,1360,720,SPI1
11034,2023-01-20 11:09:14.722376,189036773,255,255,1536,1264,ISR
11069,2023-01-20 11:09:14.823578,189137956,0,182,7168,5360,ArduCopter
11101,2023-01-20 11:09:14.924794,189239193,1,1,352,144,idle
11134,2023-01-20 11:09:15.024782,189339193,2,60,1104,768,UART_RX
11164,2023-01-20 11:09:15.125835,189440236,3,60,656,400,OTG1
11199,2023-01-20 11:09:15.225926,189540314,4,183,1360,1016,monitor
11232,2023-01-20 11:09:15.327403,189641772,5,181,1872,1488,timer
11267,2023-01-20 11:09:15.427693,189742062,6,181,848,616,rcout
11299,2023-01-20 11:09:15.528342,189842758,7,177,1360,736,rcin
11332,2023-01-20 11:09:15.632350,189946786,8,58,2384,1432,io
11362,2023-01-20 11:09:15.733396,190047787,9,59,1360,792,storage
11397,2023-01-20 11:09:15.833775,190148136,10,60,656,296,UART3
11429,2023-01-20 11:09:15.935089,190249450,11,60,656,264,UART4
11462,2023-01-20 11:09:16.035864,190350226,12,60,656,264,UART5
11492,2023-01-20 11:09:16.137356,190451722,13,176,1360,856,I2C0
11527,2023-01-20 11:09:16.237349,190551716,14,59,1616,896,OSD
11557,2023-01-20 11:09:16.337352,190651718,15,59,1912,416,log_io
11592,2023-01-20 11:09:16.437419,190751791,16,181,1360,720,SPI1
11622,2023-01-20 11:09:16.538419,190852808,255,255,1536,1264,ISR
11655,2023-01-20 11:09:16.639846,190954240,0,182,7168,5360,ArduCopter
11686,2023-01-20 11:09:16.740962,191055342,1,1,352,144,idle
11720,2023-01-20 11:09:16.842696,191157065,2,60,1104,768,UART_RX
11753,2023-01-20 11:09:16.942731,191257095,3,60,656,400,OTG1
11785,2023-01-20 11:09:17.043757,191358120,4,183,1360,1016,monitor
11816,2023-01-20 11:09:17.145271,191459637,5,181,1872,1488,timer
11850,2023-01-20 11:09:17.245270,191559635,6,181,848,616,rcout
11881,2023-01-20 11:09:17.346354,191660713,7,177,1360,736,rcin
11915,2023-01-20 11:09:17.447417,191761788,8,58,2384,1432,io
11946,2023-01-20 11:09:17.548375,191862780,9,59,1360,792,storage
11978,2023-01-20 11:09:17.649847,191964252,10,60,656,296,UART3
12009,2023-01-20 11:09:17.749834,192064206,11,60,656,264,UART4
12043,2023-01-20 11:09:17.849886,192164243,12,60,656,264,UART5
12076,2023-01-20 11:09:17.950989,192265350,13,176,1360,856,I2C0
12109,2023-01-20 11:09:18.052392,192366765,14,59,1616,896,OSD
12140,2023-01-20 11:09:18.153393,192467786,15,59,1912,416,log_io
12174,2023-01-20 11:09:18.250168,192569513,16,181,1360,720,SPI1
12205,2023-01-20 11:09:18.341246,192669566,255,255,1536,1264,ISR
12239,2023-01-20 11:09:18.435412,192769546,0,182,7168,5360,ArduCopter
12270,2023-01-20 11:09:18.536394,192870599,1,1,352,144,idle
12302,2023-01-20 11:09:18.637500,192971750,2,60,1104,768,UART_RX
12334,2023-01-20 11:09:18.737482,193071731,3,60,656,400,OTG1
12368,2023-01-20 11:09:18.837485,193171755,4,183,1360,1016,monitor
12401,2023-01-20 11:09:18.938464,193272790,5,181,1872,1488,timer
12434,2023-01-20 11:09:19.039877,193374228,6,181,848,616,rcout
12464,2023-01-20 11:09:19.139916,193474244,7,177,1360,736,rcin
12499,2023-01-20 11:09:19.253203,193587465,8,58,2384,1432,io
12530,2023-01-20 11:09:19.355015,193689178,9,59,1360,792,storage
12566,2023-01-20 11:09:19.454987,193789190,10,60,656,296,UART3
12596,2023-01-20 11:09:19.555871,193890229,11,60,656,264,UART4
12630,2023-01-20 11:09:19.657323,193991728,12,60,656,264,UART5
12660,2023-01-20 11:09:19.757342,194091713,13,176,1360,856,I2C0
12696,2023-01-20 11:09:19.857383,194191745,14,59,1616,896,OSD
12728,2023-01-20 11:09:19.958425,194292798,15,59,1912,416,log_io
12765,2023-01-20 11:09:20.060240,194394610,16,181,1360,720,SPI1
12796,2023-01-20 11:09:20.161328,194495686,255,255,1536,1264,ISR
12854,2023-01-20 11:09:20.263041,194597400,0,182,7168,5360,ArduCopter
12888,2023-01-20 11:09:20.363064,194697433,1,1,352,144,idle
12920,2023-01-20 11:09:20.470387,194804776,2,60,1104,768,UART_RX
12953,2023-01-20 11:09:20.563034,194897444,3,60,656,400,OTG1
12986,2023-01-20 11:09:20.663019,194997424,4,183,1360,1016,monitor
13019,2023-01-20 11:09:20.773124,195107505,5,181,1872,1488,timer
13053,2023-01-20 11:09:20.865121,195199498,6,181,848,616,rcout
13084,2023-01-20 11:09:20.966164,195300543,7,177,1360,736,rcin
13117,2023-01-20 11:09:21.071216,195405595,8,58,2384,1432,io
13149,2023-01-20 11:09:21.173736,195508112,9,59,1360,792,storage
13182,2023-01-20 11:09:21.274854,195609230,10,60,656,296,UART3
13216,2023-01-20 11:09:21.375870,195710246,11,60,656,264,UART4
13248,2023-01-20 11:09:21.476097,195810508,12,60,656,264,UART5
13279,2023-01-20 11:09:21.577237,195911695,13,176,1360,856,I2C0
13312,2023-01-20 11:09:21.677260,196011689,14,59,1616,896,OSD
13345,2023-01-20 11:09:21.778408,196112786,15,59,1912,416,log_io
13380,2023-01-20 11:09:21.879962,196214332,16,181,1360,720,SPI1
13411,2023-01-20 11:09:21.980011,196314384,255,255,1536,1264,ISR
13444,2023-01-20 11:09:22.080991,196415382,0,182,7168,5360,ArduCopter
13475,2023-01-20 11:09:22.182528,196516940,1,1,352,144,idle
13509,2023-01-20 11:09:22.283421,196617821,2,60,1104,768,UART_RX
13542,2023-01-20 11:09:22.385424,196719804,3,60,656,400,OTG1
13575,2023-01-20 11:09:22.486353,196820751,4,183,1360,1016,monitor
13605,2023-01-20 11:09:22.586384,196920807,5,181,1872,1488,timer
13639,2023-01-20 11:09:22.687343,197021748,6,181,848,616,rcout
13671,2023-01-20 11:09:22.787562,197121943,7,177,1360,736,rcin
13706,2023-01-20 11:09:22.888436,197222811,8,58,2384,1432,io
13737,2023-01-20 11:09:22.989870,197324242,9,59,1360,792,storage
13770,2023-01-20 11:09:23.089843,197424212,10,60,656,296,UART3
13801,2023-01-20 11:09:23.191040,197525406,11,60,656,264,UART4
13835,2023-01-20 11:09:23.292348,197626722,12,60,656,264,UART5
13868,2023-01-20 11:09:23.392348,197726731,13,176,1360,856,I2C0
13901,2023-01-20 11:09:23.493351,197827747,14,59,1616,896,OSD
13931,2023-01-20 11:09:23.593419,197927828,15,59,1912,416,log_io
13965,2023-01-20 11:09:23.694833,198029221,16,181,1360,720,SPI1
13997,2023-01-20 11:09:23.794867,198129232,255,255,1536,1264,ISR
14032,2023-01-20 11:09:23.894850,198229220,0,182,7168,5360,ArduCopter
14063,2023-01-20 11:09:23.995972,198330349,1,1,352,144,idle
14096,2023-01-20 11:09:24.097806,198432202,2,60,1104,768,UART_RX
14128,2023-01-20 11:09:24.198822,198533238,3,60,656,400,OTG1
14161,2023-01-20 11:09:24.299919,198634308,4,183,1360,1016,monitor
14197,2023-01-20 11:09:24.401266,198735629,5,181,1872,1488,timer
14228,2023-01-20 11:09:24.502343,198836736,6,181,848,616,rcout
14261,2023-01-20 11:09:24.602356,198936777,7,177,1360,736,rcin
14292,2023-01-20 11:09:24.703400,199037815,8,58,2384,1432,io
14327,2023-01-20 11:09:24.803792,199138201,9,59,1360,792,storage
14359,2023-01-20 11:09:24.904802,199239192,10,60,656,296,UART3
14393,2023-01-20 11:09:25.004861,199339233,11,60,656,264,UART4
14423,2023-01-20 11:09:25.105873,199440244,12,60,656,264,UART5
14458,2023-01-20 11:09:25.207339,199541709,13,176,1360,856,I2C0
14489,2023-01-20 11:09:25.308355,199642716,14,59,1616,896,OSD
14524,2023-01-20 11:09:25.408745,199743100,15,59,1912,416,log_io
14555,2023-01-20 11:09:25.512356,199846749,16,181,1360,720,SPI1
14589,2023-01-20 11:09:25.613322,199947744,255,255,1536,1264,ISR
14620,2023-01-20 11:09:25.713370,200047766,0,182,7168,5360,ArduCopter
14655,2023-01-20 11:09:25.813422,200147794,1,1,352,144,idle
14687,2023-01-20 11:09:25.913814,200248181,2,60,1104,768,UART_RX
14721,2023-01-20 11:09:26.014887,200349253,3,60,656,400,OTG1
14751,2023-01-20 11:09:26.115959,200450351,4,183,1360,1016,monitor
14786,2023-01-20 11:09:26.217371,200551781,5,181,1872,1488,timer
14817,2023-01-20 11:09:26.318804,200653188,6,181,848,616,rcout
14852,2023-01-20 11:09:26.418399,200752767,7,177,1360,736,rcin
14883,2023-01-20 11:09:26.519916,200854315,8,58,2384,1432,io
14915,2023-01-20 11:09:26.619857,200954279,9,59,1360,792,storage
14947,2023-01-20 11:09:26.720932,201055351,10,60,656,296,UART3
14981,2023-01-20 11:09:26.823589,201157999,11,60,656,264,UART4
15014,2023-01-20 11:09:26.922728,201257107,12,60,656,264,UART5
15047,2023-01-20 11:09:27.025282,201359639,13,176,1360,856,I2C0
15078,2023-01-20 11:09:27.125317,201459684,14,59,1616,896,OSD
15112,2023-01-20 11:09:27.226271,201560648,15,59,1912,416,log_io
15144,2023-01-20 11:09:27.327346,201661734,16,181,1360,720,SPI1
15178,2023-01-20 11:09:27.427353,201761747,255,255,1536,1264,ISR
15209,2023-01-20 11:09:27.527398,201861783,0,182,7168,5360,ArduCopter
15241,2023-01-20 11:09:27.628439,201962816,1,1,352,144,idle
15273,2023-01-20 11:09:27.729855,202064226,2,60,1104,768,UART_RX
15307,2023-01-20 11:09:27.829878,202164245,3,60,656,400,OTG1
15340,2023-01-20 11:09:27.929858,202264225,4,183,1360,1016,monitor
15373,2023-01-20 11:09:28.030995,202365360,5,181,1872,1488,timer
15404,2023-01-20 11:09:28.132799,202467157,6,181,848,616,rcout
15438,2023-01-20 11:09:28.232380,202566736,7,177,1360,736,rcin
15470,2023-01-20 11:09:28.333438,202667800,8,58,2384,1432,io
15504,2023-01-20 11:09:28.431964,202769520,9,59,1360,792,storage
15535,2023-01-20 11:09:28.522927,202869559,10,60,656,296,UART3
15568,2023-01-20 11:09:28.616233,202970556,11,60,656,264,UART4
15599,2023-01-20 11:09:28.716260,203070581,12,60,656,264,UART5
15633,2023-01-20 11:09:28.816284,203170604,13,176,1360,856,I2C0
15666,2023-01-20 11:09:28.917463,203271785,14,59,1616,896,OSD
15699,2023-01-20 11:09:29.018468,203372790,15,59,1912,416,log_io
15730,2023-01-20 11:09:29.119931,203474247,16,181,1360,720,SPI1
15765,2023-01-20 11:09:29.219926,203574242,255,255,1536,1264,ISR
15796,2023-01-20 11:09:29.319876,203674217,0,182,7168,5360,ArduCopter
15831,2023-01-20 11:09:29.421006,203775370,1,1,352,144,idle
15861,2023-01-20 11:09:29.522376,203876755,2,60,1104,768,UART_RX
15896,2023-01-20 11:09:29.622375,203976741,3,60,656,400,OTG1
15926,2023-01-20 11:09:29.723637,204077891,4,183,1360,1016,monitor
15962,2023-01-20 11:09:29.825068,204179255,5,181,1872,1488,timer
15994,2023-01-20 11:09:29.925980,204280238,6,181,848,616,rcout
16028,2023-01-20 11:09:30.031254,204385578,7,177,1360,736,rcin
16058,2023-01-20 11:09:30.132396,204486765,8,58,2384,1432,io
16093,2023-01-20 11:09:30.233370,204587765,9,59,1360,792,storage
16124,2023-01-20 11:09:30.334825,204689204,10,60,656,296,UART3
16159,2023-01-20 11:09:30.434832,204789207,11,60,656,264,UART4
16191,2023-01-20 11:09:30.534777,204889171,12,60,656,264,UART5
16225,2023-01-20 11:09:30.635831,204990239,13,176,1360,856,I2C0
16255,2023-01-20 11:09:30.735806,205090219,14,59,1616,896,OSD
16290,2023-01-20 11:09:30.835930,205190334,15,59,1912,416,log_io
16323,2023-01-20 11:09:30.935956,205290326,16,181,1360,720,SPI1
16399,2023-01-20 11:09:31.037371,205391720,255,255,1536,1264,ISR
16429,2023-01-20 11:09:31.138409,205492765,0,182,7168,5360,ArduCopter
16467,2023-01-20 11:09:31.240253,205594616,1,1,352,144,idle
16499,2023-01-20 11:09:31.341285,205695655,2,60,1104,768,UART_RX
16557,2023-01-20 11:09:31.452692,205807076,3,60,656,400,OTG1
16588,2023-01-20 11:09:31.543018,205897417,4,183,1360,1016,monitor
16621,2023-01-20 11:09:31.645058,205999457,5,181,1872,1488,timer
16654,2023-01-20 11:09:31.753392,206107769,6,181,848,616,rcout
16688,2023-01-20 11:09:31.854825,206209192,7,177,1360,736,rcin
16720,2023-01-20 11:09:31.954822,206309185,8,58,2384,1432,io
16752,2023-01-20 11:09:32.054850,206409211,9,59,1360,792,storage
16783,2023-01-20 11:09:32.154840,206509200,10,60,656,296,UART3
16817,2023-01-20 11:09:32.255860,206610224,11,60,656,264,UART4
16851,2023-01-20 11:09:32.355974,206710344,12,60,656,264,UART5
16883,2023-01-20 11:09:32.457384,206811768,13,176,1360,856,I2C0
16914,2023-01-20 11:09:32.558346,206912751,14,59,1616,896,OSD
16948,2023-01-20 11:09:32.668714,207023129,15,59,1912,416,log_io
16980,2023-01-20 11:09:32.760895,207115312,16,181,1360,720,SPI1
17015,2023-01-20 11:09:32.860942,207215342,255,255,1536,1264,ISR
17046,2023-01-20 11:09:32.962389,207316759,0,182,7168,5360,ArduCopter
17079,2023-01-20 11:09:33.062398,207416756,1,1,352,144,idle
17109,2023-01-20 11:09:33.162365,207516722,2,60,1104,768,UART_RX
17145,2023-01-20 11:09:33.263629,207618007,3,60,656,400,OTG1
17177,2023-01-20 11:09:33.365335,207719746,4,183,1360,1016,monitor
17210,2023-01-20 11:09:33.465302,207819723,5,181,1872,1488,timer
17240,2023-01-20 11:09:33.566282,207920701,6,181,848,616,rcout
17274,2023-01-20 11:09:33.666319,208020722,7,177,1360,736,rcin
17306,2023-01-20 11:09:33.766380,208120761,8,58,2384,1432,io
17341,2023-01-20 11:09:33.866384,208220752,9,59,1360,792,storage
17372,2023-01-20 11:09:33.966421,208320782,10,60,656,296,UART3
17405,2023-01-20 11:09:34.067426,208421783,11,60,656,264,UART4
17435,2023-01-20 11:09:34.168449,208522804,12,60,656,264,UART5
17471,2023-01-20 11:09:34.269831,208624186,13,176,1360,856,I2C0
17503,2023-01-20 11:09:34.370870,208725226,14,59,1616,896,OSD
17536,2023-01-20 11:09:34.470863,208825237,15,59,1912,416,log_io
17566,2023-01-20 11:09:34.571226,208925624,16,181,1360,720,SPI1
17601,2023-01-20 11:09:34.673360,209027751,255,255,1536,1264,ISR
17633,2023-01-20 11:09:34.773813,209128185,0,182,7168,5360,ArduCopter
17668,2023-01-20 11:09:34.874884,209229248,1,1,352,144,idle
17699,2023-01-20 11:09:34.974870,209329229,2,60,1104,768,UART_RX
17732,2023-01-20 11:09:35.076034,209430393,3,60,656,400,OTG1
17762,2023-01-20 11:09:35.177892,209532252,4,183,1360,1016,monitor
17798,2023-01-20 11:09:35.277796,209632179,5,181,1872,1488,timer
17830,2023-01-20 11:09:35.378769,209733183,6,181,848,616,rcout
17863,2023-01-20 11:09:35.478801,209833207,7,177,1360,736,rcin
17895,2023-01-20 11:09:35.578971,209933360,8,58,2384,1432,io
17929,2023-01-20 11:09:35.679933,210034311,9,59,1360,792,storage
17962,2023-01-20 11:09:35.780942,210135312,10,60,656,296,UART3
17996,2023-01-20 11:09:35.881009,210235390,11,60,656,264,UART4
18028,2023-01-20 11:09:35.982420,210336816,12,60,656,264,UART5
18060,2023-01-20 11:09:36.083419,210437799,13,176,1360,856,I2C0
18092,2023-01-20 11:09:36.183457,210537814,14,59,1616,896,OSD
18126,2023-01-20 11:09:36.284826,210639179,15,59,1912,416,log_io
18159,2023-01-20 11:09:36.392752,210747105,16,181,1360,720,SPI1
18191,2023-01-20 11:09:36.485051,210847836,255,255,1536,1264,ISR
18223,2023-01-20 11:09:36.577305,210949237,0,182,7168,5360,ArduCopter
18255,2023-01-20 11:09:36.676051,211050230,1,1,352,144,idle
18288,2023-01-20 11:09:36.776210,211150386,2,60,1104,768,UART_RX
18322,2023-01-20 11:09:36.876326,211250490,3,60,656,400,OTG1
18354,2023-01-20 11:09:36.977634,211351784,4,183,1360,1016,monitor
18386,2023-01-20 11:09:37.078594,211452754,5,181,1872,1488,timer
18418,2023-01-20 11:09:37.178764,211552940,6,181,848,616,rcout
18453,2023-01-20 11:09:37.280152,211654358,7,177,1360,736,rcin
18485,2023-01-20 11:09:37.380250,211754488,8,58,2384,1432,io
18518,2023-01-20 11:09:37.490035,211855346,9,59,1360,792,storage
18551,2023-01-20 11:09:37.601151,211955666,10,60,656,296,UART3
18582,2023-01-20 11:09:37.693345,212057056,11,60,656,264,UART4
18614,2023-01-20 11:09:37.784356,212157146,12,60,656,264,UART5
18649,2023-01-20 11:09:37.883815,212258150,13,176,1360,856,I2C0
18680,2023-01-20 11:09:37.983873,212358190,14,59,1616,896,OSD
18713,2023-01-20 11:09:38.085680,212460004,15,59,1912,416,log_io
18744,2023-01-20 11:09:38.185339,212559674,16,181,1360,720,SPI1
18779,2023-01-20 11:09:38.286301,212660652,255,255,1536,1264,ISR
18811,2023-01-20 11:09:38.386315,212760683,0,182,7168,5360,ArduCopter
18844,2023-01-20 11:09:38.487356,212861740,1,1,352,144,idle
18875,2023-01-20 11:09:38.587400,212961799,2,60,1104,768,UART_RX
18908,2023-01-20 11:09:38.688394,213062784,3,60,656,400,OTG1
18940,2023-01-20 11:09:38.788459,213162836,4,183,1360,1016,monitor
18975,2023-01-20 11:09:38.889870,213264236,5,181,1872,1488,timer
19006,2023-01-20 11:09:38.991012,213365366,6,181,848,616,rcout
19039,2023-01-20 11:09:39.092438,213466795,7,177,1360,736,rcin
19070,2023-01-20 11:09:39.193405,213567767,8,58,2384,1432,io
19105,2023-01-20 11:09:39.295173,213669558,9,59,1360,792,storage
19137,2023-01-20 11:09:39.395114,213769523,10,60,656,296,UART3
19170,2023-01-20 11:09:39.495148,213869554,11,60,656,264,UART4
19201,2023-01-20 11:09:39.596176,213970578,12,60,656,264,UART5
19234,2023-01-20 11:09:39.696197,214070587,13,176,1360,856,I2C0
19270,2023-01-20 11:09:39.797341,214171718,14,59,1616,896,OSD
19305,2023-01-20 11:09:39.897380,214271746,15,59,1912,416,log_io
19336,2023-01-20 11:09:39.998461,214372815,16,181,1360,720,SPI1
19369,2023-01-20 11:09:40.098472,214472830,255,255,1536,1264,ISR
19404,2023-01-20 11:09:40.200260,214574622,0,182,7168,5360,ArduCopter
19435,2023-01-20 11:09:40.299867,214674231,1,1,352,144,idle
19470,2023-01-20 11:09:40.409982,214784351,2,60,1104,768,UART_RX
19502,2023-01-20 11:09:40.501192,214875580,3,60,656,400,OTG1
19536,2023-01-20 11:09:40.601280,214975688,4,183,1360,1016,monitor
19566,2023-01-20 11:09:40.702361,215076752,5,181,1872,1488,timer
19601,2023-01-20 11:09:40.802453,215176827,6,181,848,616,rcout
19633,2023-01-20 11:09:40.903452,215277814,7,177,1360,736,rcin
19667,2023-01-20 11:09:41.004853,215379204,8,58,2384,1432,io
19697,2023-01-20 11:09:41.104845,215479197,9,59,1360,792,storage
19732,2023-01-20 11:09:41.204834,215579190,10,60,656,296,UART3
19763,2023-01-20 11:09:41.305853,215680241,11,60,656,264,UART4
19798,2023-01-20 11:09:41.408551,215782968,12,60,656,264,UART5
19828,2023-01-20 11:09:41.507594,215882003,13,176,1360,856,I2C0
19862,2023-01-20 11:09:41.609798,215984199,14,59,1616,896,OSD
19892,2023-01-20 11:09:41.709862,216084255,15,59,1912,416,log_io
19927,2023-01-20 11:09:41.810920,216185307,16,181,1360,720,SPI1
19960,2023-01-20 11:09:41.912385,216286776,255,255,1536,1264,ISR
19993,2023-01-20 11:09:42.013349,216387741,0,182,7168,5360,ArduCopter
20023,2023-01-20 11:09:42.113377,216487752,1,1,352,144,idle
20058,2023-01-20 11:09:42.214834,216589195,2,60,1104,768,UART_RX
20089,2023-01-20 11:09:42.314804,216689174,3,60,656,400,OTG1
20124,2023-01-20 11:09:42.415130,216789509,4,183,1360,1016,monitor
20154,2023-01-20 11:09:42.515832,216890225,5,181,1872,1488,timer
20188,2023-01-20 11:09:42.615971,216990375,6,181,848,616,rcout
20218,2023-01-20 11:09:42.717360,217091755,7,177,1360,736,rcin
20253,2023-01-20 11:09:42.817327,217191711,8,58,2384,1432,io
20286,2023-01-20 11:09:42.918384,217292751,9,59,1360,792,storage
20322,2023-01-20 11:09:43.020243,217394596,10,60,656,296,UART3
20353,2023-01-20 11:09:43.120274,217494628,11,60,656,264,UART4
20387,2023-01-20 11:09:43.220267,217594625,12,60,656,264,UART5
20419,2023-01-20 11:09:43.321331,217695702,13,176,1360,856,I2C0
20477,2023-01-20 11:09:43.423322,217797706,14,59,1616,896,OSD
20508,2023-01-20 11:09:43.525071,217899466,15,59,1912,416,log_io
20541,2023-01-20 11:09:43.626125,218000524,16,181,1360,720,SPI1
20574,2023-01-20 11:09:43.727331,218101719,255,255,1536,1264,ISR
20608,2023-01-20 11:09:43.828372,218202755,0,182,7168,5360,ArduCopter
20640,2023-01-20 11:09:43.929821,218304215,1,1,352,144,idle
20672,2023-01-20 11:09:44.029821,218404215,2,60,1104,768,UART_RX
20703,2023-01-20 11:09:44.129003,218503375,3,60,656,400,OTG1
20737,2023-01-20 11:09:44.230952,218605311,4,183,1360,1016,monitor
20771,2023-01-20 11:09:44.332655,218707024,5,181,1872,1488,timer
20804,2023-01-20 11:09:44.447550,218821944,6,181,848,616,rcout
20834,2023-01-20 11:09:44.548376,218922808,7,177,1360,736,rcin
20868,2023-01-20 11:09:44.649879,219024311,8,58,2384,1432,io
20900,2023-01-20 11:09:44.749848,219124239,9,59,1360,792,storage
20936,2023-01-20 11:09:44.850870,219225235,10,60,656,296,UART3
20967,2023-01-20 11:09:44.950964,219325320,11,60,656,264,UART4
21000,2023-01-20 11:09:45.052359,219426709,12,60,656,264,UART5
21030,2023-01-20 11:09:45.152884,219527233,13,176,1360,856,I2C0
21066,2023-01-20 11:09:45.252376,219626732,14,59,1616,896,OSD
21098,2023-01-20 11:09:45.353429,219727798,15,59,1912,416,log_io
21131,2023-01-20 11:09:45.454976,219829346,16,181,1360,720,SPI1
21163,2023-01-20 11:09:45.555946,219930307,255,255,1536,1264,ISR
21197,2023-01-20 11:09:45.650879,220030336,0,182,7168,5360,ArduCopter
21229,2023-01-20 11:09:45.743455,220132193,1,1,352,144,idle
21264,2023-01-20 11:09:45.837768,220232188,2,60,1104,768,UART_RX
21295,2023-01-20 11:09:45.938761,220333220,3,60,656,400,OTG1
21328,2023-01-20 11:09:46.038768,220433237,4,183,1360,1016,monitor
21359,2023-01-20 11:09:46.139873,220534307,5,181,1872,1488,timer
21394,2023-01-20 11:09:46.239987,220634407,6,181,848,616,rcout
21427,2023-01-20 11:09:46.340954,220735388,7,177,1360,736,rcin
21459,2023-01-20 11:09:46.442306,220836752,8,58,2384,1432,io
21490,2023-01-20 11:09:46.542332,220936789,9,59,1360,792,storage
21523,2023-01-20 11:09:46.643313,221037773,10,60,656,296,UART3
21556,2023-01-20 11:09:46.743380,221137832,11,60,656,264,UART4
21590,2023-01-20 11:09:46.844743,221239200,12,60,656,264,UART5
21622,2023-01-20 11:09:46.944723,221339201,13,176,1360,856,I2C0
21654,2023-01-20 11:09:47.044710,221439203,14,59,1616,896,OSD
21685,2023-01-20 11:09:47.144811,221539310,15,59,1912,416,log_io
21720,2023-01-20 11:09:47.245720,221640234,16,181,1360,720,SPI1
21753,2023-01-20 11:09:47.347514,221742054,255,255,1536,1264,ISR
21785,2023-01-20 11:09:47.447124,221841696,0,182,7168,5360,ArduCopter
21816,2023-01-20 11:09:47.547094,221941703,1,1,352,144,idle
21898,2023-01-20 11:09:47.647092,222041712,2,60,1104,768,UART_RX
21931,2023-01-20 11:09:47.747121,222141722,3,60,656,400,OTG1
21965,2023-01-20 11:09:47.848521,222243096,4,183,1360,1016,monitor
21997,2023-01-20 11:09:47.952259,222346799,5,181,1872,1488,timer
22029,2023-01-20 11:09:48.053611,222448156,6,181,848,616,rcout
22060,2023-01-20 11:09:48.154737,222549323,7,177,1360,736,rcin
22095,2023-01-20 11:09:48.255632,222650240,8,58,2384,1432,io
22128,2023-01-20 11:09:48.355845,222750460,9,59,1360,792,storage
22160,2023-01-20 11:09:48.457078,222851716,10,60,656,296,UART3
22192,2023-01-20 11:09:48.557021,222951696,11,60,656,264,UART4
22224,2023-01-20 11:09:48.658113,223052779,12,60,656,264,UART5
22257,2023-01-20 11:09:48.759633,223154258,13,176,1360,856,I2C0
22292,2023-01-20 11:09:48.859734,223254341,14,59,1616,896,OSD
22323,2023-01-20 11:09:48.959632,223354238,15,59,1912,416,log_io
22356,2023-01-20 11:09:49.059764,223454369,16,181,1360,720,SPI1
22386,2023-01-20 11:09:49.160729,223555332,255,255,1536,1264,ISR
22422,2023-01-20 11:09:49.262445,223657052,0,182,7168,5360,ArduCopter
22454,2023-01-20 11:09:49.362477,223757091,1,1,352,144,idle
22487,2023-01-20 11:09:49.462432,223857058,2,60,1104,768,UART_RX
22518,2023-01-20 11:09:49.563450,223958092,3,60,656,400,OTG1
22551,2023-01-20 11:09:49.663481,224058119,4,183,1360,1016,monitor
22584,2023-01-20 11:09:49.763529,224158151,5,181,1872,1488,timer
22619,2023-01-20 11:09:49.863537,224258149,6,181,848,616,rcout
22651,2023-01-20 11:09:49.965032,224359635,7,177,1360,736,rcin
22684,2023-01-20 11:09:50.065041,224459643,8,58,2384,1432,io
22714,2023-01-20 11:09:50.166029,224560635,9,59,1360,792,storage
22750,2023-01-20 11:09:50.266037,224660652,10,60,656,296,UART3
22782,2023-01-20 11:09:50.366075,224760703,11,60,656,264,UART4
22815,2023-01-20 11:09:50.467081,224861739,12,60,656,264,UART5
22848,2023-01-20 11:09:50.567026,224961724,13,176,1360,856,I2C0
22881,2023-01-20 11:09:50.668142,225062822,14,59,1616,896,OSD
22913,2023-01-20 11:09:50.769696,225164331,15,59,1912,416,log_io
22948,2023-01-20 11:09:50.870720,225265337,16,181,1360,720,SPI1
22979,2023-01-20 11:09:50.972107,225366719,255,255,1536,1264,ISR
23012,2023-01-20 11:09:51.072105,225466726,0,182,7168,5360,ArduCopter
23042,2023-01-20 11:09:51.172095,225566731,1,1,352,144,idle
23078,2023-01-20 11:09:51.273135,225667774,2,60,1104,768,UART_RX
23110,2023-01-20 11:09:51.373161,225767798,3,60,656,400,OTG1
23143,2023-01-20 11:09:51.473198,225867835,4,183,1360,1016,monitor
23174,2023-01-20 11:09:51.574938,225969576,5,181,1872,1488,timer
23207,2023-01-20 11:09:51.675965,226070586,6,181,848,616,rcout
23239,2023-01-20 11:09:51.775999,226170598,7,177,1360,736,rcin
23274,2023-01-20 11:09:51.877369,226271971,8,58,2384,1432,io
23305,2023-01-20 11:09:51.978163,226372775,9,59,1360,792,storage
23338,2023-01-20 11:09:52.078206,226472819,10,60,656,296,UART3
23369,2023-01-20 11:09:52.179637,226574248,11,60,656,264,UART4
23404,2023-01-20 11:09:52.279598,226674220,12,60,656,264,UART5
23437,2023-01-20 11:09:52.379691,226774326,13,176,1360,856,I2C0
23469,2023-01-20 11:09:52.480685,226875332,14,59,1616,896,OSD
23501,2023-01-20 11:09:52.580693,226975350,15,59,1912,416,log_io
23533,2023-01-20 11:09:52.682102,227076731,16,181,1360,720,SPI1
23566,2023-01-20 11:09:52.782156,227176749,255,255,1536,1264,ISR
23600,2023-01-20 11:09:52.883183,227277785,0,182,7168,5360,ArduCopter
23632,2023-01-20 11:09:52.983192,227377813,1,1,352,144,idle
23664,2023-01-20 11:09:53.083197,227477825,2,60,1104,768,UART_RX
23695,2023-01-20 11:09:53.183203,227577835,3,60,656,400,OTG1
23730,2023-01-20 11:09:53.284629,227679252,4,183,1360,1016,monitor
23763,2023-01-20 11:09:53.384828,227779439,5,181,1872,1488,timer
23795,2023-01-20 11:09:53.485598,227880220,6,181,848,616,rcout
23827,2023-01-20 11:09:53.587353,227981991,7,177,1360,736,rcin
23859,2023-01-20 11:09:53.687374,228082018,8,58,2384,1432,io
23892,2023-01-20 11:09:53.787394,228182041,9,59,1360,792,storage
23927,2023-01-20 11:09:53.887413,228282041,10,60,656,296,UART3
23958,2023-01-20 11:09:53.988472,228383077,11,60,656,264,UART4
23990,2023-01-20 11:09:54.089653,228484251,12,60,656,264,UART5
24051,2023-01-20 11:09:54.205156,228599749,13,176,1360,856,I2C0
24086,2023-01-20 11:09:54.307108,228701712,14,59,1616,896,OSD
24118,2023-01-20 11:09:54.407110,228801725,15,59,1912,416,log_io
24149,2023-01-20 11:09:54.512391,228907018,16,181,1360,720,SPI1
24182,2023-01-20 11:09:54.614556,229009191,255,255,1536,1264,ISR
24215,2023-01-20 11:09:54.714849,229109460,0,182,7168,5360,ArduCopter
24249,2023-01-20 11:09:54.815714,229210305,1,1,352,144,idle
24281,2023-01-20 11:09:54.917125,229311717,2,60,1104,768,UART_RX
24314,2023-01-20 11:09:55.018153,229412751,3,60,656,400,OTG1
24345,2023-01-20 11:09:55.118121,229512751,4,183,1360,1016,monitor
24380,2023-01-20 11:09:55.218179,229612831,5,181,1872,1488,timer
24413,2023-01-20 11:09:55.319712,229714336,6,181,848,616,rcout
24446,2023-01-20 11:09:55.419741,229814348,7,177,1360,736,rcin
24478,2023-01-20 11:09:55.520921,229915556,8,58,2384,1432,io
24512,2023-01-20 11:09:55.622080,230016742,9,59,1360,792,storage
24544,2023-01-20 11:09:55.723076,230117761,10,60,656,296,UART3
24579,2023-01-20 11:09:55.821044,230217798,11,60,656,264,UART4
24610,2023-01-20 11:09:55.913898,230319704,12,60,656,264,UART5
24643,2023-01-20 11:09:56.006421,230420620,13,176,1360,856,I2C0
24673,2023-01-20 11:09:56.106603,230520774,14,59,1616,896,OSD
24709,2023-01-20 11:09:56.207589,230621736,15,59,1912,416,log_io
24741,2023-01-20 11:09:56.307577,230721747,16,181,1360,720,SPI1
24774,2023-01-20 11:09:56.408590,230822788,255,255,1536,1264,ISR
24804,2023-01-20 11:09:56.509916,230924187,0,182,7168,5360,ArduCopter
24838,2023-01-20 11:09:56.610906,231025235,1,1,352,144,idle
24870,2023-01-20 11:09:56.711052,231125321,2,60,1104,768,UART_RX
24905,2023-01-20 11:09:56.812509,231226727,3,60,656,400,OTG1
24936,2023-01-20 11:09:56.913519,231327750,4,183,1360,1016,monitor
24969,2023-01-20 11:09:57.013524,231427776,5,181,1872,1488,timer
24999,2023-01-20 11:09:57.113470,231527792,6,181,848,616,rcout
25035,2023-01-20 11:09:57.214941,231629324,7,177,1360,736,rcin
25067,2023-01-20 11:09:57.315960,231730342,8,58,2384,1432,io
25100,2023-01-20 11:09:57.417829,231832213,9,59,1360,792,storage
25130,2023-01-20 11:09:57.518945,231933338,10,60,656,296,UART3
25164,2023-01-20 11:09:57.619909,232034307,11,60,656,264,UART4
25197,2023-01-20 11:09:57.719948,232134331,12,60,656,264,UART5
25231,2023-01-20 11:09:57.819962,232234332,13,176,1360,856,I2C0
25263,2023-01-20 11:09:57.920027,232334391,14,59,1616,896,OSD
25295,2023-01-20 11:09:58.021013,232435374,15,59,1912,416,log_io
25326,2023-01-20 11:09:58.121010,232535374,16,181,1360,720,SPI1
25361,2023-01-20 11:09:58.220985,232635350,255,255,1536,1264,ISR
25394,2023-01-20 11:09:58.321044,232735402,0,182,7168,5360,ArduCopter
25426,2023-01-20 11:09:58.422384,232836744,1,1,352,144,idle
25457,2023-01-20 11:09:58.523421,232937818,2,60,1104,768,UART_RX
25490,2023-01-20 11:09:58.624779,233039198,3,60,656,400,OTG1
25523,2023-01-20 11:09:58.724845,233139238,4,183,1360,1016,monitor
25557,2023-01-20 11:09:58.825969,233240342,5,181,1872,1488,timer
25589,2023-01-20 11:09:58.927400,233341775,6,181,848,616,rcout
25621,2023-01-20 11:09:59.027585,233441966,7,177,1360,736,rcin
25652,2023-01-20 11:09:59.128347,233542748,8,58,2384,1432,io
25687,2023-01-20 11:09:59.228371,233642781,9,59,1360,792,storage
25720,2023-01-20 11:09:59.328713,233743104,10,60,656,296,UART3
25752,2023-01-20 11:09:59.432388,233846770,11,60,656,264,UART4
25784,2023-01-20 11:09:59.533486,233947884,12,60,656,264,UART5
25816,2023-01-20 11:09:59.634804,234049212,13,176,1360,856,I2C0
25850,2023-01-20 11:09:59.734817,234149226,14,59,1616,896,OSD
25884,2023-01-20 11:09:59.835112,234249516,15,59,1912,416,log_io
25916,2023-01-20 11:09:59.935992,234350381,16,181,1360,720,SPI1
25948,2023-01-20 11:10:00.037453,234451829,255,255,1536,1264,ISR
25980,2023-01-20 11:10:00.138417,234552782,0,182,7168,5360,ArduCopter
26016,2023-01-20 11:10:00.239966,234654330,1,1,352,144,idle
26048,2023-01-20 11:10:00.339938,234754314,2,60,1104,768,UART_RX
26081,2023-01-20 11:10:00.440980,234855370,3,60,656,400,OTG1
26114,2023-01-20 11:10:00.542641,234957044,4,183,1360,1016,monitor
26147,2023-01-20 11:10:00.642667,235057068,5,181,1872,1488,timer
26179,2023-01-20 11:10:00.742739,235157115,6,181,848,616,rcout
26214,2023-01-20 11:10:00.843859,235258222,7,177,1360,736,rcin
26244,2023-01-20 11:10:00.945466,235359831,8,58,2384,1432,io
26277,2023-01-20 11:10:01.045310,235459675,9,59,1360,792,storage
26307,2023-01-20 11:10:01.146297,235560661,10,60,656,288,UART3
26343,2023-01-20 11:10:01.246290,235660659,11,60,656,264,UART4
26375,2023-01-20 11:10:01.346345,235760724,12,60,656,264,UART5
26408,2023-01-20 11:10:01.447404,235861795,13,176,1360,856,I2C0
26438,2023-01-20 11:10:01.548409,235962815,14,59,1616,896,OSD
26471,2023-01-20 11:10:01.648383,236062793,15,59,1912,416,log_io
26503,2023-01-20 11:10:01.748481,236162884,16,181,1360,720,SPI1
26538,2023-01-20 11:10:01.849828,236264218,255,255,1536,1264,ISR
26568,2023-01-20 11:10:01.950857,236365227,0,182,7168,5360,ArduCopter
26601,2023-01-20 11:10:02.050962,236465326,1,1,352,144,idle
26631,2023-01-20 11:10:02.152391,236566762,2,60,1104,768,UART_RX
26667,2023-01-20 11:10:02.252352,236666738,3,60,656,400,OTG1
26699,2023-01-20 11:10:02.352645,236767056,4,183,1360,1016,monitor
26735,2023-01-20 11:10:02.452340,236866761,5,181,1872,1488,timer
26765,2023-01-20 11:10:02.553402,236967820,6,181,848,616,rcout
26798,2023-01-20 11:10:02.655196,237069597,7,177,1360,736,rcin
26830,2023-01-20 11:10:02.755155,237169528,8,58,2384,1432,io
26865,2023-01-20 11:10:02.856228,237270589,9,59,1360,792,storage
26895,2023-01-20 11:10:02.957366,237371730,10,60,656,248,UART3
26928,2023-01-20 11:10:03.057384,237471751,11,60,656,264,UART4
26958,2023-01-20 11:10:03.158423,237572794,12,60,656,264,UART5
26993,2023-01-20 11:10:03.259875,237674249,13,176,1360,856,I2C0
27026,2023-01-20 11:10:03.361017,237775394,14,59,1616,896,OSD
27058,2023-01-20 11:10:03.462363,237876750,15,59,1912,416,log_io
27089,2023-01-20 11:10:03.563448,237977848,16,181,1360,720,SPI1
27121,2023-01-20 11:10:03.664841,238079230,255,255,1536,1264,ISR
27154,2023-01-20 11:10:03.764848,238179213,0,182,7168,5360,ArduCopter
27189,2023-01-20 11:10:03.865896,238280255,1,1,352,144,idle
27220,2023-01-20 11:10:03.967651,238382014,2,60,1104,768,UART_RX
27252,2023-01-20 11:10:04.067699,238482066,3,60,656,400,OTG1
27283,2023-01-20 11:10:04.168706,238583077,4,183,1360,1016,monitor
27317,2023-01-20 11:10:04.268719,238683109,5,181,1872,1488,timer
27350,2023-01-20 11:10:04.368698,238783115,6,181,848,616,rcout
27382,2023-01-20 11:10:04.468714,238883131,7,177,1360,736,rcin
27413,2023-01-20 11:10:04.569839,238984244,8,58,2384,1432,io
27445,2023-01-20 11:10:04.669824,239084213,9,59,1360,792,storage
27478,2023-01-20 11:10:04.770854,239185226,10,60,656,248,UART3
27513,2023-01-20 11:10:04.872374,239286734,11,60,656,264,UART4
27544,2023-01-20 11:10:04.972363,239386715,12,60,656,264,UART5
27576,2023-01-20 11:10:05.065865,239486733,13,176,1360,856,I2C0
27607,2023-01-20 11:10:05.157791,239587757,14,59,1616,896,OSD
27642,2023-01-20 11:10:05.253662,239687801,15,59,1912,416,log_io
27675,2023-01-20 11:10:05.355191,239789319,16,181,1360,720,SPI1
27707,2023-01-20 11:10:05.462237,239890226,255,255,1536,1264,ISR
27740,2023-01-20 11:10:05.573306,239990346,0,182,7168,5360,ArduCopter
27772,2023-01-20 11:10:05.670361,240091713,1,1,352,144,idle
27805,2023-01-20 11:10:05.761378,240191711,2,60,1104,768,UART_RX
27840,2023-01-20 11:10:05.857603,240291750,3,60,656,400,OTG1
27871,2023-01-20 11:10:05.957570,240391723,4,183,1360,1016,monitor
27903,2023-01-20 11:10:06.065075,240492795,5,181,1872,1488,timer
27937,2023-01-20 11:10:06.178130,240594670,6,181,848,616,rcout
27977,2023-01-20 11:10:06.273075,240694682,7,177,1360,736,rcin
28009,2023-01-20 11:10:06.365014,240795717,8,58,2384,1432,io
28066,2023-01-20 11:10:06.471234,240905471,9,59,1360,792,storage
28096,2023-01-20 11:10:06.565137,240999468,10,60,656,248,UART3
28131,2023-01-20 11:10:06.665351,241099708,11,60,656,264,UART4
28163,2023-01-20 11:10:06.772744,241207086,12,60,656,264,UART5
28197,2023-01-20 11:10:06.873713,241308066,13,176,1360,856,I2C0
28227,2023-01-20 11:10:06.974810,241409185,14,59,1616,896,OSD
28260,2023-01-20 11:10:07.074840,241509219,15,59,1912,416,log_io
28290,2023-01-20 11:10:07.175869,241610247,16,181,1360,720,SPI1
28327,2023-01-20 11:10:07.275936,241710306,255,255,1536,1264,ISR
28357,2023-01-20 11:10:07.375972,241810332,0,182,7168,5360,ArduCopter
28390,2023-01-20 11:10:07.475995,241910382,1,1,352,144,idle
28421,2023-01-20 11:10:07.577313,242011739,2,60,1104,768,UART_RX
28456,2023-01-20 11:10:07.677315,242111751,3,60,656,400,OTG1
28488,2023-01-20 11:10:07.778314,242212752,4,183,1360,1016,monitor
28521,2023-01-20 11:10:07.878348,242312756,5,181,1872,1488,timer
28551,2023-01-20 11:10:07.978397,242412766,6,181,848,616,rcout
28584,2023-01-20 11:10:08.078397,242512766,7,177,1360,736,rcin
28615,2023-01-20 11:10:08.178424,242612803,8,58,2384,1432,io
28652,2023-01-20 11:10:08.279957,242714354,9,59,1360,792,storage
28683,2023-01-20 11:10:08.379896,242814313,10,60,656,248,UART3
28715,2023-01-20 11:10:08.480823,242915251,11,60,656,264,UART4
28746,2023-01-20 11:10:08.580925,243015362,12,60,656,264,UART5
28780,2023-01-20 11:10:08.680920,243115354,13,176,1360,856,I2C0
28813,2023-01-20 11:10:08.781015,243215445,14,59,1616,896,OSD
28846,2023-01-20 11:10:08.882383,243316788,15,59,1912,416,log_io
28877,2023-01-20 11:10:08.990115,243424488,16,181,1360,720,SPI1
28909,2023-01-20 11:10:09.092347,243526720,255,255,1536,1264,ISR
28942,2023-01-20 11:10:09.192353,243626730,0,182,7168,5360,ArduCopter
28977,2023-01-20 11:10:09.293391,243727766,1,1,352,144,idle
29008,2023-01-20 11:10:09.393452,243827825,2,60,1104,768,UART_RX
29091,2023-01-20 11:10:09.502917,243937320,3,60,656,400,OTG1
29123,2023-01-20 11:10:09.604753,244039183,4,183,1360,1016,monitor
29159,2023-01-20 11:10:09.704819,244139228,5,181,1872,1488,timer
29193,2023-01-20 11:10:09.804814,244239203,6,181,848,616,rcout
29225,2023-01-20 11:10:09.905963,244340345,7,177,1360,736,rcin
29257,2023-01-20 11:10:10.007435,244441810,8,58,2384,1432,io
29288,2023-01-20 11:10:10.108381,244542760,9,59,1360,792,storage
29322,2023-01-20 11:10:10.208372,244642756,10,60,656,248,UART3
29357,2023-01-20 11:10:10.308644,244743046,11,60,656,264,UART4
29389,2023-01-20 11:10:10.412375,244846795,12,60,656,264,UART5
29423,2023-01-20 11:10:10.513363,244947788,13,176,1360,856,I2C0
29455,2023-01-20 11:10:10.614745,245049172,14,59,1616,896,OSD
29488,2023-01-20 11:10:10.714848,245149251,15,59,1912,416,log_io
29522,2023-01-20 11:10:10.815033,245249419,16,181,1360,720,SPI1
29554,2023-01-20 11:10:10.915955,245350362,255,255,1536,1264,ISR
29586,2023-01-20 11:10:11.017352,245451772,0,182,7168,5360,ArduCopter
29617,2023-01-20 11:10:11.117323,245551712,1,1,352,144,idle
29651,2023-01-20 11:10:11.218402,245652767,2,60,1104,768,UART_RX
29685,2023-01-20 11:10:11.319888,245754257,3,60,656,400,OTG1
29718,2023-01-20 11:10:11.420981,245855359,4,183,1360,1016,monitor
29749,2023-01-20 11:10:11.522664,245957068,5,181,1872,1488,timer
29783,2023-01-20 11:10:11.623656,246058074,6,181,848,616,rcout
29815,2023-01-20 11:10:11.723717,246158108,7,177,1360,736,rcin
29851,2023-01-20 11:10:11.825323,246259692,8,58,2384,1432,io
29881,2023-01-20 11:10:11.925263,246359629,9,59,1360,792,storage
29914,2023-01-20 11:10:12.026367,246460733,10,60,656,248,UART3
29944,2023-01-20 11:10:12.127433,246561806,11,60,656,264,UART4
29980,2023-01-20 11:10:12.228403,246662783,12,60,656,264,UART5
30012,2023-01-20 11:10:12.328665,246763049,13,176,1360,856,I2C0
30045,2023-01-20 11:10:12.429839,246864232,14,59,1616,896,OSD
30076,2023-01-20 11:10:12.529790,246964208,15,59,1912,416,log_io
30109,2023-01-20 11:10:12.630902,247065329,16,181,1360,720,SPI1
30141,2023-01-20 11:10:12.732351,247166752,255,255,1536,1264,ISR
30177,2023-01-20 11:10:12.833438,247267827,0,182,7168,5360,ArduCopter
30207,2023-01-20 11:10:12.933435,247367841,1,1,352,144,idle
30240,2023-01-20 11:10:13.035232,247469642,2,60,1104,768,UART_RX
30270,2023-01-20 11:10:13.136211,247570598,3,60,656,400,OTG1
30306,2023-01-20 11:10:13.237374,247671750,4,183,1360,1016,monitor
30338,2023-01-20 11:10:13.337371,247771754,5,181,1872,1488,timer
30371,2023-01-20 11:10:13.437353,247871754,6,181,848,616,rcout
30402,2023-01-20 11:10:13.538343,247972780,7,177,1360,736,rcin
30435,2023-01-20 11:10:13.639788,248074231,8,58,2384,1432,io
30468,2023-01-20 11:10:13.740957,248175361,9,59,1360,792,storage
30504,2023-01-20 11:10:13.842373,248276752,10,60,656,248,UART3
30535,2023-01-20 11:10:13.942396,248376772,11,60,656,264,UART4
30567,2023-01-20 11:10:14.043451,248477821,12,60,656,264,UART5
30598,2023-01-20 11:10:14.143468,248577828,13,176,1360,856,I2C0
30633,2023-01-20 11:10:14.244839,248679193,14,59,1616,896,OSD
30666,2023-01-20 11:10:14.344856,248779210,15,59,1912,416,log_io
30698,2023-01-20 11:10:14.445877,248880243,16,181,1360,720,SPI1
30730,2023-01-20 11:10:14.545848,248980239,255,255,1536,1264,ISR
30762,2023-01-20 11:10:14.647660,249082056,0,182,7168,5360,ArduCopter
30795,2023-01-20 11:10:14.747654,249182030,1,1,352,144,idle
30830,2023-01-20 11:10:14.848791,249283168,2,60,1104,768,UART_RX
30861,2023-01-20 11:10:14.949853,249384254,3,60,656,400,OTG1
30893,2023-01-20 11:10:15.050851,249485249,4,183,1360,1016,monitor
30925,2023-01-20 11:10:15.152341,249586709,5,181,1872,1488,timer
30959,2023-01-20 11:10:15.252331,249686689,6,181,848,616,rcout
30992,2023-01-20 11:10:15.352337,249786703,7,177,1360,736,rcin
31025,2023-01-20 11:10:15.453349,249887741,8,58,2384,1432,io
31059,2023-01-20 11:10:15.554792,249989226,9,59,1360,792,storage
31091,2023-01-20 11:10:15.650091,250089483,10,60,656,248,UART3
31124,2023-01-20 11:10:15.741919,250190368,11,60,656,264,UART4
31159,2023-01-20 11:10:15.837588,250291778,12,60,656,264,UART5
31191,2023-01-20 11:10:15.937488,250391714,13,176,1360,856,I2C0
31223,2023-01-20 11:10:16.037481,250491716,14,59,1616,896,OSD
31255,2023-01-20 11:10:16.138971,250593172,15,59,1912,416,log_io
31293,2023-01-20 11:10:16.240448,250694657,16,181,1360,720,SPI1
31349,2023-01-20 11:10:16.343162,250797440,255,255,1536,1264,ISR
31382,2023-01-20 11:10:16.443392,250897678,0,182,7168,5360,ArduCopter
31413,2023-01-20 11:10:16.550030,251004241,1,1,352,144,idle
31448,2023-01-20 11:10:16.651034,251105248,2,60,1104,768,UART_RX
31480,2023-01-20 11:10:16.751016,251205305,3,60,656,400,OTG1
31514,2023-01-20 11:10:16.850412,251304758,4,183,1360,1016,monitor
31544,2023-01-20 11:10:16.952654,251407040,5,181,1872,1488,timer
31577,2023-01-20 11:10:17.055015,251509395,6,181,848,616,rcout
31608,2023-01-20 11:10:17.153758,251608095,7,177,1360,736,rcin
31645,2023-01-20 11:10:17.254971,251709305,8,58,2384,1432,io
31675,2023-01-20 11:10:17.354846,251809213,9,59,1360,792,storage
31708,2023-01-20 11:10:17.454980,251909369,10,60,656,248,UART3
31739,2023-01-20 11:10:17.555906,252010310,11,60,656,264,UART4
31774,2023-01-20 11:10:17.655930,252110330,12,60,656,264,UART5
31806,2023-01-20 11:10:17.757324,252211707,13,176,1360,856,I2C0
31840,2023-01-20 11:10:17.857346,252311724,14,59,1616,896,OSD
31870,2023-01-20 11:10:17.958411,252412796,15,59,1912,416,log_io
31904,2023-01-20 11:10:18.058414,252512795,16,181,1360,720,SPI1
31936,2023-01-20 11:10:18.159941,252614311,255,255,1536,1264,ISR
31972,2023-01-20 11:10:18.259866,252714236,0,182,7168,5360,ArduCopter
32003,2023-01-20 11:10:18.359941,252814319,1,1,352,144,idle
32036,2023-01-20 11:10:18.460924,252915313,2,60,1104,768,UART_RX
32067,2023-01-20 11:10:18.560945,253015347,3,60,656,400,OTG1
32101,2023-01-20 11:10:18.666110,253120510,4,183,1360,1016,monitor
32134,2023-01-20 11:10:18.767421,253221811,5,181,1872,1488,timer
32167,2023-01-20 11:10:18.867437,253321834,6,181,848,616,rcout
32198,2023-01-20 11:10:18.968708,253423119,7,177,1360,736,rcin
32230,2023-01-20 11:10:19.069856,253524252,8,58,2384,1432,io
32262,2023-01-20 11:10:19.170935,253625303,9,59,1360,792,storage
32298,2023-01-20 11:10:19.272373,253726741,10,60,656,248,UART3
32329,2023-01-20 11:10:19.373393,253827772,11,60,656,264,UART4
32362,2023-01-20 11:10:19.474799,253929209,12,60,656,264,UART5
32393,2023-01-20 11:10:19.574838,254029285,13,176,1360,856,I2C0
32428,2023-01-20 11:10:19.675898,254130317,14,59,1616,896,OSD
32461,2023-01-20 11:10:19.775983,254230353,15,59,1912,416,log_io
32494,2023-01-20 11:10:19.877839,254332204,16,181,1360,720,SPI1
32525,2023-01-20 11:10:19.977850,254432225,255,255,1536,1264,ISR
32558,2023-01-20 11:10:20.078993,254533367,0,182,7168,5360,ArduCopter
32589,2023-01-20 11:10:20.179992,254634362,1,1,352,144,idle
32627,2023-01-20 11:10:20.279973,254734345,2,60,1104,768,UART_RX
32657,2023-01-20 11:10:20.380977,254835353,3,60,656,400,OTG1
32692,2023-01-20 11:10:20.481041,254935431,4,183,1360,1016,monitor
32724,2023-01-20 11:10:20.582361,255036766,5,181,1872,1488,timer
32759,2023-01-20 11:10:20.682409,255136806,6,181,848,616,rcout
32791,2023-01-20 11:10:20.782384,255236767,7,177,1360,736,rcin
32825,2023-01-20 11:10:20.883468,255337849,8,58,2384,1432,io
32855,2023-01-20 11:10:20.983503,255437883,9,59,1360,792,storage
32888,2023-01-20 11:10:21.084836,255539209,10,60,656,248,UART3
32919,2023-01-20 11:10:21.185852,255640217,11,60,656,264,UART4
32956,2023-01-20 11:10:21.285859,255740230,12,60,656,264,UART5
32986,2023-01-20 11:10:21.385930,255840310,13,176,1360,856,I2C0
33020,2023-01-20 11:10:21.487321,255941733,14,59,1616,896,OSD
33050,2023-01-20 11:10:21.588353,256042802,15,59,1912,416,log_io
33085,2023-01-20 11:10:21.688426,256142841,16,181,1360,720,SPI1
33117,2023-01-20 11:10:21.788769,256243141,255,255,1536,1264,ISR
33151,2023-01-20 11:10:21.892364,256346734,0,182,7168,5360,ArduCopter
33181,2023-01-20 11:10:21.992715,256447089,1,1,352,144,idle
33214,2023-01-20 11:10:22.093369,256547759,2,60,1104,768,UART_RX
33245,2023-01-20 11:10:22.193639,256648046,3,60,656,400,OTG1
33282,2023-01-20 11:10:22.293725,256748115,4,183,1360,1016,monitor
33313,2023-01-20 11:10:22.393789,256848159,5,181,1872,1488,timer
33347,2023-01-20 11:10:22.494826,256949214,6,181,848,616,rcout
33377,2023-01-20 11:10:22.594969,257049378,7,177,1360,736,rcin
