LineNo,UTC_Approx,TimeUS,Status,Lat,Lng,Spacing,TerrH,CHeight,Pending,Loaded,ROfs
1820,2023-01-20 11:08:47.840617,162094557,2,39.8044391,32.3787891,100,739.3958,0.0245997,0,504,-3.475139
2335,2023-01-20 11:08:48.820473,163094565,2,39.8044374,32.3787903,100,739.3873,0.05006978,0,504,-3.475139
2761,2023-01-20 11:08:49.820462,164094558,2,39.8044355,32.3787913,100,739.3795,0.03749683,0,504,-3.475139
3163,2023-01-20 11:08:50.820428,165094564,2,39.8044344,32.3787919,100,739.3751,-0.005636245,0,504,-3.475139
3563,2023-01-20 11:08:51.820280,166094611,2,39.8044323,32.3787928,100,739.3672,-0.1788794,0,504,-3.475139
3907,2023-01-20 11:08:52.820301,167094613,2,39.8044319,32.3787932,100,739.3646,-0.3180434,0,504,-3.475139
4230,2023-01-20 11:08:53.820247,168094618,2,39.8044316,32.3787934,100,739.3632,-0.3944266,0,504,-3.475139
4555,2023-01-20 11:08:54.820199,169094617,2,39.8044314,32.3787922,100,739.368,-0.07469571,0,504,-3.475139
4880,2023-01-20 11:08:55.820226,170094613,2,39.8044295,32.3787917,100,739.3666,0.7947307,0,504,-3.475139
5203,2023-01-20 11:08:56.820235,171094616,2,39.8044291,32.3787942,100,739.3552,1.615014,0,504,-3.475139
5527,2023-01-20 11:08:57.820247,172094629,2,39.8044282,32.3787976,100,739.3387,2.497221,0,504,-3.475139
5852,2023-01-20 11:08:58.820193,173094579,2,39.8044262,32.3787979,100,739.3337,3.580062,0,504,-3.475139
6176,2023-01-20 11:08:59.800245,174094685,2,39.8044205,32.3787921,100,739.3484,4.422332,0,504,-3.475139
6503,2023-01-20 11:09:00.800253,175094841,2,39.8044066,32.3787914,100,739.3257,5.16326,0,504,-3.475139
6827,2023-01-20 11:09:01.800321,176094985,2,39.8043905,32.3787949,100,739.2805,6.077528,0,504,-3.475139
7150,2023-01-20 11:09:02.800300,177094933,2,39.8043833,32.3787962,100,739.2614,6.964339,0,504,-3.475139
7474,2023-01-20 11:09:03.800300,178094947,2,39.8043824,32.3787939,100,739.2698,8.060665,0,504,-3.475139
7798,2023-01-20 11:09:04.800305,179094930,2,39.8043774,32.3787881,100,739.2863,9.153881,0,504,-3.475139
8124,2023-01-20 11:09:05.800324,180094939,2,39.8043697,32.3787834,100,739.293,10.09859,0,504,-3.475139
8447,2023-01-20 11:09:06.800310,181094984,2,39.8043595,32.3787802,100,739.2887,10.23273,0,504,-3.475139
8771,2023-01-20 11:09:07.800319,182094943,2,39.8043532,32.3787853,100,739.2542,10.35343,0,504,-3.475139
9094,2023-01-20 11:09:08.800299,183094935,2,39.804351,32.3787916,100,739.2219,11.03632,0,504,-3.475139
9419,2023-01-20 11:09:09.780730,184094927,2,39.8043492,32.3788013,100,739.1752,12.06401,0,504,-3.475139
9745,2023-01-20 11:09:10.780388,185094740,2,39.804347,32.3788133,100,739.1171,13.44096,0,504,-3.475139
10068,2023-01-20 11:09:11.780227,186094610,2,39.8043454,32.3788232,100,739.0698,14.93454,0,504,-3.475139
10392,2023-01-20 11:09:12.780202,187094577,2,39.804346,32.378832,100,739.0313,16.40987,0,504,-3.475139
10715,2023-01-20 11:09:13.780229,188094616,2,39.8043468,32.3788404,100,738.9951,17.32084,0,504,-3.475139
11040,2023-01-20 11:09:14.780211,189094590,2,39.8043484,32.3788433,100,738.9852,17.40974,0,504,-3.475139
11368,2023-01-20 11:09:15.780211,190094581,2,39.8043483,32.3788433,100,738.985,17.3238,0,504,-3.475139
11691,2023-01-20 11:09:16.780239,191094613,2,39.8043513,32.3788457,100,738.9802,17.33607,0,504,-3.475139
12014,2023-01-20 11:09:17.780189,192094551,2,39.8043624,32.3788552,100,738.9595,17.49459,0,504,-3.475139
12339,2023-01-20 11:09:18.760311,193094560,2,39.8043855,32.3788808,100,738.8917,17.84058,0,504,-3.475139
12665,2023-01-20 11:09:19.760192,194094562,2,39.8044203,32.3789278,100,738.7578,18.87234,0,504,-3.475139
12993,2023-01-20 11:09:20.760166,195094550,2,39.8044532,32.3789963,100,738.5394,19.91488,0,504,-3.475139
13319,2023-01-20 11:09:21.760165,196094552,2,39.804487,32.3790683,100,738.5527,20.51108,0,504,-3.475139
13645,2023-01-20 11:09:22.760171,197094559,2,39.8045195,32.3791328,100,738.5696,21.16599,0,504,-3.475139
13971,2023-01-20 11:09:23.760190,198094563,2,39.8045542,32.3791945,100,738.5941,22.04334,0,504,-3.475139
14298,2023-01-20 11:09:24.760138,199094550,2,39.8045906,32.379257,100,738.6213,23.06009,0,504,-3.475139
14626,2023-01-20 11:09:25.760164,200094548,2,39.804631,32.3793208,100,738.6565,23.85389,0,504,-3.475139
14952,2023-01-20 11:09:26.760136,201094554,2,39.8046703,32.3793846,100,738.6892,24.53423,0,504,-3.475139
15278,2023-01-20 11:09:27.760190,202094559,2,39.8047089,32.3794485,100,738.7203,25.37411,0,504,-3.475139
15604,2023-01-20 11:09:28.740243,203094564,2,39.8047462,32.3795127,100,738.7482,26.2459,0,504,-3.475139
15931,2023-01-20 11:09:29.740370,204094606,2,39.8047839,32.3795776,100,738.7765,26.98242,0,504,-3.475139
16260,2023-01-20 11:09:30.740158,205094572,2,39.8048211,32.3796426,100,738.8035,27.75442,0,504,-3.475139
16628,2023-01-20 11:09:31.740231,206094611,2,39.8048578,32.3797073,100,738.8296,28.72935,0,504,-3.475139
16954,2023-01-20 11:09:32.740145,207094562,2,39.8048942,32.3797704,100,738.8563,29.649,0,504,-3.475139
17280,2023-01-20 11:09:33.740169,208094555,2,39.8049332,32.3798366,100,738.8323,30.66873,0,504,-3.475139
17607,2023-01-20 11:09:34.740201,209094579,2,39.8049739,32.3799038,100,738.8124,31.62012,0,504,-3.475139
17935,2023-01-20 11:09:35.740187,210094560,2,39.8050134,32.3799696,100,738.7977,32.47221,0,504,-3.475139
18261,2023-01-20 11:09:36.720402,211094580,2,39.8050505,32.380033,100,738.7872,33.2998,0,504,-3.475139
18587,2023-01-20 11:09:37.727454,212094568,2,39.8050865,32.3800974,100,738.7794,34.22769,0,504,-3.475139
18913,2023-01-20 11:09:38.720183,213094569,2,39.8051244,32.3801645,100,738.7752,35.21309,0,504,-3.475139
19239,2023-01-20 11:09:39.720171,214094558,2,39.8051634,32.3802307,100,738.7618,36.11634,0,504,-3.475139
19571,2023-01-20 11:09:40.720170,215094558,2,39.8052039,32.3802962,100,738.7506,37.03516,0,504,-3.475139
19897,2023-01-20 11:09:41.720170,216094563,2,39.8052417,32.380361,100,738.7371,37.96525,0,504,-3.475139
20223,2023-01-20 11:09:42.720174,217094568,2,39.805278,32.3804237,100,738.7236,38.93154,0,504,-3.475139
20548,2023-01-20 11:09:43.720163,218094552,2,39.805315,32.3804889,100,738.7088,39.83904,0,504,-3.475139
20874,2023-01-20 11:09:44.720190,219094593,2,39.8053532,32.3805537,100,738.6957,40.76385,0,504,-3.475139
21203,2023-01-20 11:09:45.709244,220094552,2,39.805392,32.3806179,100,738.6837,41.76186,0,504,-3.475139
21529,2023-01-20 11:09:46.700157,221094612,2,39.8054289,32.3806837,100,738.6683,42.61893,0,504,-3.475139
21904,2023-01-20 11:09:47.699945,222094555,2,39.8054672,32.3807502,100,738.6539,43.50477,0,504,-3.475139
22230,2023-01-20 11:09:48.699908,223094557,2,39.8055075,32.3808176,100,738.6408,44.37852,0,504,-3.475139
22556,2023-01-20 11:09:49.699929,224094561,2,39.8055442,32.3808825,100,738.626,45.09215,0,504,-3.475139
22886,2023-01-20 11:09:50.699899,225094565,2,39.8055795,32.3809447,100,738.6118,46.06047,0,504,-3.475139
23212,2023-01-20 11:09:51.699946,226094562,2,39.8056189,32.3810092,100,738.6003,47.12318,0,504,-3.475139
23538,2023-01-20 11:09:52.699937,227094560,2,39.8056583,32.3810751,100,738.5876,48.08205,0,504,-3.475139
23864,2023-01-20 11:09:53.699918,228094562,2,39.8056968,32.38114,100,738.5746,48.95872,0,504,-3.475139
24189,2023-01-20 11:09:54.699939,229094554,2,39.805737,32.3812055,100,738.5632,49.83129,0,504,-3.475139
24518,2023-01-20 11:09:55.699883,230094563,2,39.8057745,32.3812711,100,738.5486,50.65905,0,504,-3.475139
24844,2023-01-20 11:09:56.680272,231094559,2,39.8058121,32.3813351,100,738.4952,51.63197,0,504,-3.475139
25170,2023-01-20 11:09:57.680179,232094568,2,39.8058487,32.3814001,100,738.3393,52.79185,0,504,-3.475139
25496,2023-01-20 11:09:58.680171,233094575,2,39.8058872,32.3814668,100,738.1939,53.78511,0,504,-3.475139
25822,2023-01-20 11:09:59.680195,234094603,2,39.8059241,32.3815305,100,738.0688,54.71579,0,504,-3.475139
26152,2023-01-20 11:10:00.680179,235094570,2,39.8059585,32.3815873,100,737.9698,55.48238,0,504,-3.475139
26476,2023-01-20 11:10:01.680204,236094612,2,39.8059825,32.3816242,100,737.9129,56.02825,0,504,-3.475139
26803,2023-01-20 11:10:02.680177,237094571,2,39.8059851,32.3816301,100,737.9032,56.14763,0,504,-3.475139
27126,2023-01-20 11:10:03.680185,238094570,2,39.8059666,32.3816204,100,737.907,56.22154,0,504,-3.475139
27450,2023-01-20 11:10:04.680187,239094575,2,39.8059441,32.381605,100,737.9209,56.12036,0,504,-3.475139
27777,2023-01-20 11:10:05.672973,240094583,2,39.8059233,32.3815923,100,737.9319,56.10487,0,504,-3.475139
28105,2023-01-20 11:10:06.660224,241094582,2,39.8059019,32.3815786,100,737.9463,56.21256,0,504,-3.475139
28430,2023-01-20 11:10:07.660143,242094579,2,39.8058736,32.3815594,100,737.9707,56.3137,0,504,-3.475139
28754,2023-01-20 11:10:08.660151,243094586,2,39.8058334,32.3815284,100,738.0195,56.39872,0,504,-3.475139
29129,2023-01-20 11:10:09.660198,244094617,2,39.8057843,32.3814895,100,738.0831,56.45761,0,504,-3.475139
29461,2023-01-20 11:10:10.660190,245094606,2,39.805731,32.3814496,100,738.1139,56.51683,0,504,-3.475139
29788,2023-01-20 11:10:11.660185,246094593,2,39.805675,32.3814086,100,738.1528,56.4607,0,504,-3.475139
30114,2023-01-20 11:10:12.660167,247094586,2,39.8056211,32.3813668,100,738.2052,56.37037,0,504,-3.475139
30440,2023-01-20 11:10:13.660160,248094595,2,39.8055682,32.3813247,100,738.2682,56.25866,0,504,-3.475139
30767,2023-01-20 11:10:14.660247,249094640,2,39.805514,32.3812829,100,738.2479,56.20065,0,504,-3.475139
31096,2023-01-20 11:10:15.654752,250094604,2,39.8054587,32.3812427,100,738.2208,56.11943,0,504,-3.475139
31422,2023-01-20 11:10:16.640443,251094649,2,39.8054023,32.3812025,100,738.1924,56.05413,0,504,-3.475139
31748,2023-01-20 11:10:17.640189,252094592,2,39.8053483,32.3811616,100,738.1674,56.04294,0,504,-3.475139
32075,2023-01-20 11:10:18.640202,253094605,2,39.8052935,32.3811205,100,738.1417,56.0569,0,504,-3.475139
32401,2023-01-20 11:10:19.640162,254094598,2,39.8052383,32.3810795,100,738.1153,56.06451,0,504,-3.475139
32732,2023-01-20 11:10:20.640188,255094591,2,39.8051835,32.3810387,100,738.0892,56.12458,0,504,-3.475139
33058,2023-01-20 11:10:21.640188,256094624,2,39.8051284,32.380998,100,738.0628,56.15699,0,504,-3.475139
33385,2023-01-20 11:10:22.640190,257094594,2,39.8050736,32.3809563,100,738.0375,56.15038,0,504,-3.475139
33711,2023-01-20 11:10:23.640208,258094615,2,39.8050192,32.3809153,100,738.0121,56.11453,0,504,-3.475139
34038,2023-01-20 11:10:24.640214,259094617,2,39.8049659,32.3808754,100,737.987,56.12395,0,504,-3.475139
34366,2023-01-20 11:10:25.620268,260094609,2,39.8049137,32.3808343,100,737.9641,56.19022,0,504,-3.475139
34741,2023-01-20 11:10:26.620203,261094609,2,39.8048592,32.3807935,100,737.8766,56.29001,0,504,-3.475139
35068,2023-01-20 11:10:27.620199,262094605,2,39.8048033,32.3807531,100,737.7562,56.36911,0,504,-3.475139
35394,2023-01-20 11:10:28.620187,263094594,2,39.8047484,32.3807126,100,737.6431,56.43292,0,504,-3.475139
35721,2023-01-20 11:10:29.620232,264094658,2,39.8046946,32.3806714,100,737.5378,56.53729,0,504,-3.475139
36050,2023-01-20 11:10:30.620162,265094591,2,39.8046405,32.3806304,100,737.4359,56.6453,0,504,-3.475139
36378,2023-01-20 11:10:31.620218,266094639,2,39.8045853,32.3805895,100,737.3352,56.71977,0,504,-3.475139
36704,2023-01-20 11:10:32.620168,267094597,2,39.8045308,32.3805485,100,737.2407,56.75718,0,504,-3.475139
37031,2023-01-20 11:10:33.618412,268094680,2,39.8044748,32.3805068,100,737.1475,56.84797,0,504,-3.475139
37357,2023-01-20 11:10:34.600300,269094800,2,39.8044195,32.3804657,100,737.0596,56.89071,0,504,-3.475139
37686,2023-01-20 11:10:35.600328,270094936,2,39.8043656,32.3804243,100,736.9802,56.94342,0,504,-3.475139
38013,2023-01-20 11:10:36.600302,271095024,2,39.8043117,32.3803832,100,736.9045,56.99508,0,504,-3.475139
38340,2023-01-20 11:10:37.600322,272095006,2,39.8042577,32.3803427,100,736.832,57.1138,0,504,-3.475139
38665,2023-01-20 11:10:38.600310,273095000,2,39.8042051,32.3803016,100,736.7678,57.28922,0,504,-3.475139
38992,2023-01-20 11:10:39.600321,274094998,2,39.8041513,32.3802612,100,736.7038,57.4271,0,504,-3.475139
39321,2023-01-20 11:10:40.600314,275095001,2,39.8040965,32.380221,100,736.6414,57.49879,0,504,-3.475139
39650,2023-01-20 11:10:41.600317,276095013,2,39.8040419,32.3801799,100,736.5851,57.53588,0,504,-3.475139
39977,2023-01-20 11:10:42.600305,277095011,2,39.8039874,32.3801392,100,736.5078,57.62543,0,504,-3.475139
40350,2023-01-20 11:10:43.582545,278094985,2,39.8039336,32.3800984,100,736.37,57.81592,0,504,-3.475139
40677,2023-01-20 11:10:44.580639,279094880,2,39.8038788,32.3800579,100,736.2367,57.96594,0,504,-3.475139
41005,2023-01-20 11:10:45.580346,280094726,2,39.8038233,32.3800176,100,736.1096,58.11504,0,504,-3.475139
41333,2023-01-20 11:10:46.580302,281094709,2,39.8037698,32.3799752,100,735.9997,58.19208,0,504,-3.475139
41659,2023-01-20 11:10:47.580182,282094588,2,39.8037156,32.3799346,100,735.8941,58.2929,0,504,-3.475139
41986,2023-01-20 11:10:48.580161,283094607,2,39.8036628,32.3798936,100,735.8012,58.42397,0,504,-3.475139
42312,2023-01-20 11:10:49.580193,284094605,2,39.8036085,32.3798516,100,735.7144,58.54275,0,504,-3.475139
42641,2023-01-20 11:10:50.580161,285094602,2,39.8035534,32.3798109,100,735.6315,58.6254,0,504,-3.475139
42968,2023-01-20 11:10:51.580189,286094598,2,39.8034983,32.3797706,100,735.5566,58.65859,0,504,-3.475139
43295,2023-01-20 11:10:52.580220,287094604,2,39.8034425,32.3797299,100,735.4893,58.68268,0,504,-3.475139
43621,2023-01-20 11:10:53.580213,288094615,2,39.8033883,32.3796889,100,735.4351,58.70485,0,504,-3.475139
43947,2023-01-20 11:10:54.560185,289094608,2,39.8033338,32.3796479,100,735.3886,58.71897,0,504,-3.475139
44276,2023-01-20 11:10:55.560272,290094599,2,39.8032784,32.3796075,100,735.3474,58.76884,0,504,-3.475139
44603,2023-01-20 11:10:56.560144,291094595,2,39.803224,32.3795658,100,735.3199,58.81961,0,504,-3.475139
44930,2023-01-20 11:10:57.560215,292094642,2,39.8031705,32.3795239,100,735.3035,58.86965,0,504,-3.475139
45256,2023-01-20 11:10:58.560177,293094594,2,39.8031162,32.3794839,100,735.2891,58.87728,0,504,-3.475139
45632,2023-01-20 11:10:59.560193,294094619,2,39.8030608,32.3794436,100,735.3492,58.79549,0,504,-3.475139
45961,2023-01-20 11:11:00.560143,295094571,2,39.8030072,32.3794018,100,735.4576,58.71409,0,504,-3.475139
46289,2023-01-20 11:11:01.560215,296094632,2,39.8029536,32.3793604,100,735.5776,58.60115,0,504,-3.475139
46614,2023-01-20 11:11:02.560152,297094579,2,39.8028987,32.3793197,100,735.7083,58.45456,0,504,-3.475139
46941,2023-01-20 11:11:03.545734,298094581,2,39.8028433,32.379279,100,735.8519,58.28975,0,504,-3.475139
47267,2023-01-20 11:11:04.540226,299094580,2,39.8027877,32.3792383,100,736.0085,58.07777,0,504,-3.475139
47596,2023-01-20 11:11:05.540187,300094580,2,39.8027335,32.379197,100,736.1796,57.89431,0,504,-3.475139
47923,2023-01-20 11:11:06.540196,301094592,2,39.8026804,32.3791556,100,736.3631,57.77695,0,504,-3.475139
48250,2023-01-20 11:11:07.540207,302094599,2,39.8026258,32.3791155,100,736.5553,57.65213,0,504,-3.475139
48576,2023-01-20 11:11:08.540174,303094582,2,39.8025718,32.3790752,100,736.7601,57.48804,0,504,-3.475139
48902,2023-01-20 11:11:09.540180,304094578,2,39.8025177,32.3790335,100,736.9837,57.31,0,504,-3.475139
49232,2023-01-20 11:11:10.540172,305094581,2,39.8024633,32.3789917,100,737.2208,57.07821,0,504,-3.475139
49559,2023-01-20 11:11:11.540206,306094594,2,39.8024085,32.3789513,100,737.4702,56.833,0,504,-3.475139
49887,2023-01-20 11:11:12.520414,307094627,2,39.8023545,32.3789109,100,737.7112,56.57943,0,504,-3.475139
50213,2023-01-20 11:11:13.520269,308094593,2,39.8022995,32.3788702,100,737.9464,56.3624,0,504,-3.475139
50540,2023-01-20 11:11:14.520240,309094627,2,39.8022439,32.3788298,100,738.1722,56.09177,0,504,-3.475139
50868,2023-01-20 11:11:15.520180,310094591,2,39.8021898,32.3787884,100,738.3368,55.91111,0,504,-3.475139
51245,2023-01-20 11:11:16.520193,311094602,2,39.8021364,32.378747,100,738.2637,55.98566,0,504,-3.475139
51571,2023-01-20 11:11:17.520183,312094586,2,39.802082,32.3787059,100,738.1805,56.11686,0,504,-3.475139
51898,2023-01-20 11:11:18.520179,313094581,2,39.8020267,32.3786657,100,738.0848,56.27216,0,504,-3.475139
52224,2023-01-20 11:11:19.520164,314094588,2,39.801972,32.3786254,100,737.9882,56.32913,0,504,-3.475139
52554,2023-01-20 11:11:20.520426,315094814,2,39.8019176,32.3785843,100,737.8922,56.5042,0,504,-3.475139
52880,2023-01-20 11:11:21.520172,316094582,2,39.8018632,32.3785426,100,737.7942,56.60297,0,504,-3.475139
53207,2023-01-20 11:11:22.500046,317094574,2,39.8018092,32.3785018,100,737.6906,56.71151,0,504,-3.475139
53534,2023-01-20 11:11:23.499915,318094583,2,39.8017552,32.3784606,100,737.5839,56.84338,0,504,-3.475139
53860,2023-01-20 11:11:24.499938,319094568,2,39.8017007,32.3784197,100,737.4698,56.90419,0,504,-3.475139
54189,2023-01-20 11:11:25.500138,320094816,2,39.8016453,32.3783787,100,737.3466,56.96439,0,504,-3.475139
54514,2023-01-20 11:11:26.499934,321094584,2,39.8015904,32.3783369,100,737.2251,56.9488,0,504,-3.475139
54842,2023-01-20 11:11:27.499974,322094616,2,39.8015353,32.3782952,100,737.0978,57.12797,0,504,-3.475139
55168,2023-01-20 11:11:28.499922,323094570,2,39.8014803,32.3782533,100,736.9672,57.27738,0,504,-3.475139
55495,2023-01-20 11:11:29.499948,324094635,2,39.8014254,32.3782135,100,736.8254,57.46508,0,504,-3.475139
55822,2023-01-20 11:11:30.500082,325094710,2,39.8013704,32.3781729,100,736.6815,57.58058,0,504,-3.475139
56151,2023-01-20 11:11:31.480308,326094575,2,39.8013169,32.3781333,100,736.5381,57.70676,0,504,-3.475139
56478,2023-01-20 11:11:32.480222,327094588,2,39.801262,32.3780939,100,736.6281,57.71963,0,504,-3.475139
56854,2023-01-20 11:11:33.480181,328094579,2,39.8012065,32.3780515,100,736.8246,57.62362,0,504,-3.475139
57180,2023-01-20 11:11:34.480194,329094589,2,39.8011539,32.378009,100,737.0234,57.39899,0,504,-3.475139
57507,2023-01-20 11:11:35.480182,330094581,2,39.8010987,32.3779683,100,737.2225,57.13992,0,504,-3.475139
57835,2023-01-20 11:11:36.480192,331094583,2,39.801043,32.3779284,100,737.4235,56.822,0,504,-3.475139
58161,2023-01-20 11:11:37.480161,332094581,2,39.8009877,32.3778877,100,737.6312,56.48471,0,504,-3.475139
58488,2023-01-20 11:11:38.480205,333094611,2,39.800935,32.3778462,100,737.8433,56.30845,0,504,-3.475139
58814,2023-01-20 11:11:39.480175,334094604,2,39.800881,32.3778039,100,738.0801,56.11937,0,504,-3.475139
59142,2023-01-20 11:11:40.460459,335094595,2,39.8008277,32.3777634,100,738.3322,55.87554,0,504,-3.475139
59470,2023-01-20 11:11:41.460225,336094586,2,39.8007776,32.377725,100,738.5746,55.57327,0,504,-3.475139
59796,2023-01-20 11:11:42.472942,337094626,2,39.800738,32.3776944,100,738.77,55.29277,0,504,-3.475139
60123,2023-01-20 11:11:43.460170,338094594,2,39.8007107,32.3776739,100,738.9032,55.11432,0,504,-3.475139
60450,2023-01-20 11:11:44.460238,339094630,2,39.8006902,32.3776566,100,739.0131,55.06905,0,504,-3.475139
60774,2023-01-20 11:11:45.460151,340094584,2,39.8006702,32.3776431,100,739.1046,55.09681,0,504,-3.475139
61100,2023-01-20 11:11:46.460193,341094590,2,39.8006514,32.3776299,100,739.1936,55.13553,0,504,-3.475139
61428,2023-01-20 11:11:47.460177,342094564,2,39.800641,32.3776109,100,739.3004,55.16298,0,504,-3.475139
61753,2023-01-20 11:11:48.460159,343094566,2,39.8006456,32.377582,100,739.437,55.12622,0,504,-3.475139
62077,2023-01-20 11:11:49.460192,344094561,2,39.8006674,32.3775383,100,739.6226,55.01345,0,504,-3.475139
62402,2023-01-20 11:11:50.444820,345094560,2,39.800695,32.3774817,100,739.8609,54.85696,0,504,-3.475139
62731,2023-01-20 11:11:51.440340,346094575,2,39.8007275,32.3774236,100,740.0963,54.66957,0,504,-3.475139
63057,2023-01-20 11:11:52.440180,347094576,2,39.8007545,32.3773725,100,740.303,54.4392,0,504,-3.475139
63381,2023-01-20 11:11:53.440164,348094560,2,39.8007712,32.3773401,100,740.4332,54.24327,0,504,-3.475139
63708,2023-01-20 11:11:54.440153,349094546,2,39.8007859,32.3773312,100,740.453,54.18479,0,504,-3.475139
64032,2023-01-20 11:11:55.440199,350094570,2,39.8008024,32.3773405,100,740.3826,54.08505,0,504,-3.475139
64358,2023-01-20 11:11:56.440183,351094559,2,39.8008209,32.3773538,100,740.2904,54.14042,0,504,-3.475139
64684,2023-01-20 11:11:57.440225,352094602,2,39.8008415,32.3773671,100,740.1953,54.20893,0,504,-3.475139
65012,2023-01-20 11:11:58.440199,353094575,2,39.8008622,32.3773826,100,740.0904,54.21042,0,504,-3.475139
65336,2023-01-20 11:11:59.420468,354094593,2,39.8008904,32.3774023,100,739.9549,54.36734,0,504,-3.475139
65708,2023-01-20 11:12:00.422524,355094543,2,39.8009292,32.3774329,100,739.7542,54.65553,0,504,-3.475139
66036,2023-01-20 11:12:01.420188,356094547,2,39.8009832,32.3774708,100,739.5002,55.06684,0,504,-3.475139
66363,2023-01-20 11:12:02.420188,357094554,2,39.8010416,32.3775126,100,739.226,55.24241,0,504,-3.475139
66690,2023-01-20 11:12:03.420205,358094568,2,39.8010963,32.3775537,100,738.9645,55.33016,0,504,-3.475139
67016,2023-01-20 11:12:04.420192,359094563,2,39.8011475,32.3775951,100,738.7108,55.5379,0,504,-3.475139
67342,2023-01-20 11:12:05.420193,360094555,2,39.8012,32.3776355,100,738.4639,55.82124,0,504,-3.475139
67671,2023-01-20 11:12:06.420181,361094548,2,39.8012552,32.3776757,100,738.2184,56.10968,0,504,-3.475139
67998,2023-01-20 11:12:07.420211,362094569,2,39.8013108,32.3777155,100,738.0345,56.29696,0,504,-3.475139
68325,2023-01-20 11:12:08.420167,363094563,2,39.8013689,32.3777573,100,738.162,56.20097,0,504,-3.475139
68651,2023-01-20 11:12:09.418388,364094577,2,39.8014226,32.3778,100,738.2854,55.97833,0,504,-3.475139
68978,2023-01-20 11:12:10.400250,365094804,2,39.8014746,32.3778406,100,738.426,55.8173,0,504,-3.475139
69306,2023-01-20 11:12:11.400245,366094792,2,39.8015285,32.3778818,100,738.575,55.81575,0,504,-3.475139
69633,2023-01-20 11:12:12.400331,367094959,2,39.8015834,32.3779226,100,738.7267,55.74318,0,504,-3.475139
69962,2023-01-20 11:12:13.400245,368094841,2,39.8016381,32.3779633,100,738.8736,55.55752,0,504,-3.475139
70289,2023-01-20 11:12:14.400300,369094945,2,39.801692,32.3780046,100,739.0096,55.445,0,504,-3.475139
70615,2023-01-20 11:12:15.400329,370094939,2,39.8017463,32.3780452,100,739.1457,55.3349,0,504,-3.475139
70944,2023-01-20 11:12:16.400271,371094875,2,39.8018012,32.3780846,100,739.2861,55.17103,0,504,-3.475139
71319,2023-01-20 11:12:17.400275,372094877,2,39.8018537,32.378125,100,739.4054,55.07392,0,504,-3.475139
71646,2023-01-20 11:12:18.400246,373094850,2,39.8019054,32.3781657,100,739.5151,55.05898,0,504,-3.475139
71971,2023-01-20 11:12:19.380494,374094753,2,39.8019598,32.3782074,100,739.6314,54.96774,0,504,-3.475139
72298,2023-01-20 11:12:20.380467,375094724,2,39.8020208,32.3782486,100,739.779,54.90683,0,504,-3.475139
72626,2023-01-20 11:12:21.380562,376094762,2,39.8020793,32.3782908,100,739.9047,54.6844,0,504,-3.475139
72952,2023-01-20 11:12:22.380206,377094566,2,39.8021336,32.3783324,100,740.0073,54.42957,0,504,-3.475139
73280,2023-01-20 11:12:23.380189,378094551,2,39.8021863,32.3783742,100,740.0964,54.35961,0,504,-3.475139
73606,2023-01-20 11:12:24.380184,379094548,2,39.8022413,32.3784139,100,739.9959,54.53622,0,504,-3.475139
73933,2023-01-20 11:12:25.380195,380094556,2,39.8022944,32.3784533,100,739.8193,54.74052,0,504,-3.475139
74261,2023-01-20 11:12:26.380207,381094570,2,39.8023458,32.3784948,100,739.6253,54.98129,0,504,-3.475139
74588,2023-01-20 11:12:27.380221,382094590,2,39.8024002,32.3785345,100,739.4311,55.17785,0,504,-3.475139
74915,2023-01-20 11:12:28.360409,383094556,2,39.8024555,32.3785759,100,739.2199,55.30802,0,504,-3.475139
75242,2023-01-20 11:12:29.363853,384094588,2,39.8025103,32.3786176,100,738.999,55.43737,0,504,-3.475139
75569,2023-01-20 11:12:30.360153,385094535,2,39.802564,32.3786583,100,738.7748,55.67635,0,504,-3.475139
75898,2023-01-20 11:12:31.360179,386094550,2,39.8026195,32.3787004,100,738.5339,55.9354,0,504,-3.475139
76224,2023-01-20 11:12:32.360176,387094556,2,39.8026744,32.3787409,100,738.293,56.12815,0,504,-3.475139
76551,2023-01-20 11:12:33.360195,388094565,2,39.8027283,32.378783,100,738.0361,56.30305,0,504,-3.475139
76926,2023-01-20 11:12:34.360176,389094558,2,39.8027825,32.3788227,100,737.783,56.63117,0,504,-3.475139
77252,2023-01-20 11:12:35.360191,390094560,2,39.8028358,32.3788643,100,737.5119,56.81792,0,504,-3.475139
77581,2023-01-20 11:12:36.360180,391094558,2,39.8028903,32.3789049,100,737.2369,57.12845,0,504,-3.475139
77907,2023-01-20 11:12:37.360136,392094549,2,39.8029443,32.3789452,100,736.9557,57.44728,0,504,-3.475139
78235,2023-01-20 11:12:38.340356,393094566,2,39.8030003,32.3789877,100,736.6513,57.74603,0,504,-3.475139
78561,2023-01-20 11:12:39.340235,394094554,2,39.8030526,32.3790276,100,736.4761,57.7886,0,504,-3.475139
78889,2023-01-20 11:12:40.340203,395094561,2,39.8031036,32.3790675,100,736.3336,57.95076,0,504,-3.475139
79217,2023-01-20 11:12:41.340154,396094545,2,39.8031576,32.3791089,100,736.2998,58.0879,0,504,-3.475139
79544,2023-01-20 11:12:42.340237,397094597,2,39.8032139,32.3791495,100,736.2798,58.11342,0,504,-3.475139
79871,2023-01-20 11:12:43.340169,398094557,2,39.8032681,32.3791882,100,736.2695,58.08892,0,504,-3.475139
80200,2023-01-20 11:12:44.340247,399094601,2,39.8033224,32.3792303,100,736.2602,58.17467,0,504,-3.475139
80526,2023-01-20 11:12:45.340162,400094552,2,39.8033767,32.3792729,100,736.2586,58.19025,0,504,-3.475139
80853,2023-01-20 11:12:46.340180,401094546,2,39.8034304,32.3793146,100,736.2665,58.08289,0,504,-3.475139
81180,2023-01-20 11:12:47.340196,402094552,2,39.8034879,32.3793551,100,736.292,58.0769,0,504,-3.475139
81507,2023-01-20 11:12:48.320237,403094547,2,39.8035437,32.3793956,100,736.3232,58.03508,0,504,-3.475139
81834,2023-01-20 11:12:49.320202,404094558,2,39.8035989,32.3794367,100,736.3608,57.9445,0,504,-3.475139
82210,2023-01-20 11:12:50.320204,405094558,2,39.8036521,32.3794779,100,736.403,57.87909,0,504,-3.475139
82539,2023-01-20 11:12:51.320182,406094554,2,39.8037059,32.3795201,100,736.4532,57.82516,0,504,-3.475139
82865,2023-01-20 11:12:52.320181,407094541,2,39.8037595,32.379562,100,736.5121,57.71343,0,504,-3.475139
83193,2023-01-20 11:12:53.320200,408094566,2,39.8038161,32.3796012,100,736.5898,57.57275,0,504,-3.475139
83519,2023-01-20 11:12:54.320187,409094549,2,39.8038702,32.379641,100,736.6694,57.48221,0,504,-3.475139
83846,2023-01-20 11:12:55.320191,410094561,2,39.8039232,32.3796805,100,736.7548,57.50574,0,504,-3.475139
84174,2023-01-20 11:12:56.320218,411094558,2,39.8039773,32.3797199,100,736.851,57.462,0,504,-3.475139
84501,2023-01-20 11:12:57.300152,412094626,2,39.8040303,32.3797615,100,736.9387,57.33883,0,504,-3.475139
84827,2023-01-20 11:12:58.300056,413094551,2,39.804082,32.3798043,100,737.0171,57.26956,0,504,-3.475139
85154,2023-01-20 11:12:59.300013,414094613,2,39.804136,32.3798458,100,737.1017,57.37685,0,504,-3.475139
85481,2023-01-20 11:13:00.299948,415094544,2,39.8041923,32.3798865,100,737.1922,57.26623,0,504,-3.475139
85809,2023-01-20 11:13:01.299906,416094549,2,39.8042486,32.3799272,100,737.2827,57.07622,0,504,-3.475139
86136,2023-01-20 11:13:02.299948,417094549,2,39.8043029,32.3799674,100,737.3691,56.90135,0,504,-3.475139
86462,2023-01-20 11:13:03.299914,418094550,2,39.8043564,32.3800086,100,737.4529,56.76544,0,504,-3.475139
86789,2023-01-20 11:13:04.299983,419094570,2,39.8044096,32.3800508,100,737.5351,56.67712,0,504,-3.475139
87115,2023-01-20 11:13:05.299950,420094572,2,39.8044664,32.38009,100,737.6281,56.58932,0,504,-3.475139
87444,2023-01-20 11:13:06.299958,421094554,2,39.8045242,32.3801313,100,737.7213,56.50119,0,504,-3.475139
87819,2023-01-20 11:13:07.280371,422094553,2,39.8045794,32.3801745,100,737.8021,56.40861,0,504,-3.475139
88146,2023-01-20 11:13:08.280331,423094565,2,39.8046318,32.3802155,100,737.874,56.31352,0,504,-3.475139
88472,2023-01-20 11:13:09.280184,424094554,2,39.804685,32.3802563,100,737.9523,56.30426,0,504,-3.475139
88800,2023-01-20 11:13:10.280184,425094551,2,39.80474,32.3802974,100,738.0387,56.27464,0,504,-3.475139
89128,2023-01-20 11:13:11.280180,426094539,2,39.8047964,32.3803377,100,738.1335,56.24797,0,504,-3.475139
89455,2023-01-20 11:13:12.280216,427094596,2,39.8048515,32.3803799,100,738.2277,56.06804,0,504,-3.475139
89781,2023-01-20 11:13:13.280192,428094550,2,39.8049055,32.3804214,100,738.3101,55.95284,0,504,-3.475139
90108,2023-01-20 11:13:14.280214,429094593,2,39.8049621,32.3804597,100,738.3403,55.98973,0,504,-3.475139
90436,2023-01-20 11:13:15.280176,430094542,2,39.8050159,32.3805018,100,738.3641,55.98829,0,504,-3.475139
90764,2023-01-20 11:13:16.272974,431094535,2,39.8050685,32.3805434,100,738.3871,55.92925,0,504,-3.475139
91091,2023-01-20 11:13:17.260329,432094573,2,39.8051219,32.3805842,100,738.4115,55.92953,0,504,-3.475139
91417,2023-01-20 11:13:18.260183,433094574,2,39.8051762,32.3806236,100,738.4382,55.84516,0,504,-3.475139
91745,2023-01-20 11:13:19.260197,434094560,2,39.8052294,32.3806645,100,738.4623,55.82797,0,504,-3.475139
92071,2023-01-20 11:13:20.260165,435094554,2,39.8052849,32.3807039,100,738.4903,55.85666,0,504,-3.475139
92400,2023-01-20 11:13:21.260188,436094561,2,39.805339,32.3807451,100,738.5152,55.80258,0,504,-3.475139
92726,2023-01-20 11:13:22.260166,437094549,2,39.8053941,32.380786,100,738.5416,55.74489,0,504,-3.475139
93053,2023-01-20 11:13:23.260180,438094551,2,39.8054479,32.3808281,100,738.5653,55.66048,0,504,-3.475139
93429,2023-01-20 11:13:24.260165,439094546,2,39.8055028,32.3808695,100,738.5909,55.6359,0,504,-3.475139
93756,2023-01-20 11:13:25.260204,440094570,2,39.805557,32.3809122,100,738.6146,55.60183,0,504,-3.475139
94084,2023-01-20 11:13:26.260145,441094552,2,39.8056103,32.3809532,100,738.6389,55.53556,0,504,-3.475139
94411,2023-01-20 11:13:27.240417,442094600,2,39.8056663,32.3809933,100,738.6669,55.57785,0,504,-3.475139
94737,2023-01-20 11:13:28.240172,443094539,2,39.8057221,32.3810347,100,738.6934,55.46915,0,504,-3.475139
95064,2023-01-20 11:13:29.240237,444094601,2,39.8057753,32.3810744,100,738.7188,55.39245,0,504,-3.475139
95392,2023-01-20 11:13:30.240203,445094571,2,39.8058276,32.3811157,100,738.7171,55.40217,0,504,-3.475139
95720,2023-01-20 11:13:31.240194,446094569,2,39.8058843,32.3811566,100,738.6975,55.45514,0,504,-3.475139
96046,2023-01-20 11:13:32.240156,447094559,2,39.8059392,32.3811977,100,738.6684,55.48552,0,504,-3.475139
96371,2023-01-20 11:13:33.240191,448094559,2,39.8059881,32.3812329,100,738.637,55.37725,0,504,-3.475139
96698,2023-01-20 11:13:34.240154,449094558,2,39.8060217,32.3812573,100,738.6113,55.0854,0,504,-3.475139
97025,2023-01-20 11:13:35.240183,450094552,2,39.8060441,32.3812734,100,738.5927,55.18747,0,504,-3.475139
97351,2023-01-20 11:13:36.220371,451094556,2,39.8060645,32.3812882,100,738.5744,55.44738,0,504,-3.475139
97675,2023-01-20 11:13:37.220298,452094547,2,39.8060823,32.3813048,100,738.5521,55.55468,0,504,-3.475139
97999,2023-01-20 11:13:38.220169,453094560,2,39.806101,32.3813144,100,738.539,55.6101,0,504,-3.475139
98327,2023-01-20 11:13:39.220202,454094563,2,39.8061172,32.3813019,100,738.5579,55.5318,0,504,-3.475139
98652,2023-01-20 11:13:40.220166,455094574,2,39.8061311,32.3812634,100,738.6165,55.56654,0,504,-3.475139
98980,2023-01-20 11:13:41.220191,456094562,2,39.8061494,32.381211,100,738.6996,55.39473,0,504,-3.475139
99304,2023-01-20 11:13:42.220241,457094627,2,39.8061753,32.3811515,100,738.8,55.33582,0,504,-3.475139
99629,2023-01-20 11:13:43.220202,458094583,2,39.8062005,32.3810918,100,738.9063,55.31037,0,504,-3.475139
99955,2023-01-20 11:13:44.220245,459094603,2,39.8062186,32.3810429,100,738.9964,55.13652,0,504,-3.475139
100278,2023-01-20 11:13:45.218415,460094606,2,39.8062247,32.3810128,100,739.0504,55.0691,0,504,-3.475139
100609,2023-01-20 11:13:46.200245,461094722,2,39.8062097,32.3809884,100,739.0818,54.99612,0,504,-3.475139
100933,2023-01-20 11:13:47.200245,462094687,2,39.8061886,32.3809704,100,739.0972,55.01712,0,504,-3.475139
101257,2023-01-20 11:13:48.200308,463094932,2,39.8061696,32.3809584,100,739.1033,55.09899,0,504,-3.475139
101587,2023-01-20 11:13:49.200266,464094877,2,39.8061495,32.3809461,100,739.1081,55.19213,0,504,-3.475139
101913,2023-01-20 11:13:50.200309,465094925,2,39.8061221,32.3809282,100,739.1147,55.20823,0,504,-3.475139
102284,2023-01-20 11:13:51.200315,466094937,2,39.8060815,32.3808988,100,739.1253,55.20469,0,504,-3.475139
102611,2023-01-20 11:13:52.200271,467094878,2,39.8060337,32.3808614,100,739.1356,55.30304,0,504,-3.475139
102937,2023-01-20 11:13:53.200301,468094937,2,39.8059798,32.3808216,100,739.1361,55.42695,0,504,-3.475139
103263,2023-01-20 11:13:54.200318,469094928,2,39.8059273,32.3807801,100,739.1318,55.5381,0,504,-3.475139
103589,2023-01-20 11:13:55.182320,470094794,2,39.8058727,32.3807385,100,739.1168,55.54553,0,504,-3.475139
103917,2023-01-20 11:13:56.180696,471094841,2,39.8058184,32.3806968,100,739.0938,55.51123,0,504,-3.475139
104243,2023-01-20 11:13:57.180346,472094703,2,39.8057639,32.3806559,100,739.0659,55.4842,0,504,-3.475139
104569,2023-01-20 11:13:58.180208,473094570,2,39.8057103,32.3806153,100,739.0411,55.43691,0,504,-3.475139
104896,2023-01-20 11:13:59.180282,474094628,2,39.8056567,32.3805743,100,739.0165,55.45564,0,504,-3.475139
105224,2023-01-20 11:14:00.180211,475094572,2,39.8056016,32.380534,100,738.9897,55.40438,0,504,-3.475139
105553,2023-01-20 11:14:01.180214,476094573,2,39.8055477,32.3804923,100,738.9655,55.35886,0,504,-3.475139
105879,2023-01-20 11:14:02.180222,477094582,2,39.8054935,32.3804509,100,738.9406,55.31429,0,504,-3.475139
106206,2023-01-20 11:14:03.178025,478094593,2,39.8054395,32.3804102,100,738.9154,55.34723,0,504,-3.475139
106532,2023-01-20 11:14:04.180221,479094582,2,39.8053847,32.3803694,100,738.8893,55.34612,0,504,-3.475139
106860,2023-01-20 11:14:05.160401,480094585,2,39.8053284,32.3803293,100,738.8611,55.32564,0,504,-3.475139
107188,2023-01-20 11:14:06.160237,481094591,2,39.8052739,32.3802887,100,738.8352,55.33275,0,504,-3.475139
107513,2023-01-20 11:14:07.160186,482094596,2,39.8052209,32.380247,100,738.8119,55.32129,0,504,-3.475139
107889,2023-01-20 11:14:08.160182,483094557,2,39.8051674,32.3802054,100,738.788,55.33068,0,504,-3.475139
108215,2023-01-20 11:14:09.160154,484094570,2,39.8051118,32.3801651,100,738.7607,55.34645,0,504,-3.475139
108544,2023-01-20 11:14:10.160226,485094590,2,39.8050559,32.3801247,100,738.7278,55.37158,0,504,-3.475139
108872,2023-01-20 11:14:11.160164,486094570,2,39.8050017,32.3800843,100,738.6998,55.41555,0,504,-3.475139
109199,2023-01-20 11:14:12.160239,487094616,2,39.8049465,32.3800429,100,738.6757,55.44274,0,504,-3.475139
109525,2023-01-20 11:14:13.160199,488094584,2,39.8048931,32.3800017,100,738.655,55.45361,0,504,-3.475139
109852,2023-01-20 11:14:14.160241,489094607,2,39.8048392,32.3799607,100,738.5702,55.52742,0,504,-3.475139
110179,2023-01-20 11:14:15.140254,490094566,2,39.8047852,32.3799191,100,738.4855,55.6588,0,504,-3.475139
110508,2023-01-20 11:14:16.140203,491094558,2,39.8047304,32.3798786,100,738.3982,55.79232,0,504,-3.475139
110836,2023-01-20 11:14:17.140213,492094572,2,39.8046763,32.3798378,100,738.3127,55.96317,0,504,-3.475139
111163,2023-01-20 11:14:18.140223,493094584,2,39.8046213,32.3797973,100,738.2251,56.11318,0,504,-3.475139
111489,2023-01-20 11:14:19.140208,494094575,2,39.8045664,32.3797564,100,738.1379,56.22032,0,504,-3.475139
111817,2023-01-20 11:14:20.140210,495094578,2,39.8045134,32.3797149,100,738.0554,56.35651,0,504,-3.475139
112145,2023-01-20 11:14:21.140210,496094588,2,39.8044586,32.3796738,100,737.9688,56.45981,0,504,-3.475139
112471,2023-01-20 11:14:22.140219,497094569,2,39.8044079,32.3796334,100,737.8904,56.56947,0,504,-3.475139
112798,2023-01-20 11:14:23.140230,498094577,2,39.8043518,32.3795932,100,737.8,56.68793,0,504,-3.475139
113124,2023-01-20 11:14:24.120409,499094568,2,39.8042933,32.3795529,100,737.7042,56.80345,0,504,-3.475139
113501,2023-01-20 11:14:25.120280,500094583,2,39.8042377,32.3795117,100,737.6158,56.85922,0,504,-3.475139
113829,2023-01-20 11:14:26.120356,501094590,2,39.8041848,32.3794703,100,737.5334,56.91472,0,504,-3.475139
114156,2023-01-20 11:14:27.120234,502094619,2,39.8041308,32.3794288,100,737.4489,56.96515,0,504,-3.475139
114482,2023-01-20 11:14:28.120221,503094591,2,39.8040799,32.3793874,100,737.3708,57.07557,0,504,-3.475139
114809,2023-01-20 11:14:29.120227,504094607,2,39.8040237,32.3793468,100,737.2806,57.1649,0,504,-3.475139
115137,2023-01-20 11:14:30.120189,505094565,2,39.8039675,32.3793074,100,737.2043,57.21893,0,504,-3.475139
115465,2023-01-20 11:14:31.120195,506094570,2,39.8039124,32.3792664,100,737.1516,57.244,0,504,-3.475139
115791,2023-01-20 11:14:32.120202,507094576,2,39.8038567,32.3792254,100,737.1064,57.27089,0,504,-3.475139
116118,2023-01-20 11:14:33.100121,508094582,2,39.8038026,32.3791835,100,737.0736,57.29907,0,504,-3.475139
116444,2023-01-20 11:14:34.109239,509094581,2,39.8037491,32.3791417,100,737.0501,57.27939,0,504,-3.475139
116771,2023-01-20 11:14:35.100023,510094577,2,39.8036952,32.3791005,100,737.0337,57.2649,0,504,-3.475139
117100,2023-01-20 11:14:36.099975,511094578,2,39.8036405,32.3790606,100,737.0229,57.24508,0,504,-3.475139
117426,2023-01-20 11:14:37.099931,512094573,2,39.8035862,32.3790194,100,737.0229,57.2644,0,504,-3.475139
117753,2023-01-20 11:14:38.099929,513094573,2,39.8035323,32.3789781,100,737.0859,57.28148,0,504,-3.475139
118079,2023-01-20 11:14:39.099932,514094571,2,39.8034786,32.3789375,100,737.2557,57.11583,0,504,-3.475139
118408,2023-01-20 11:14:40.099924,515094570,2,39.8034228,32.3788974,100,737.4247,56.82629,0,504,-3.475139
118785,2023-01-20 11:14:41.099935,516094583,2,39.803368,32.3788558,100,737.6075,56.64885,0,504,-3.475139
119112,2023-01-20 11:14:42.099995,517094633,2,39.8033132,32.3788161,100,737.7838,56.48738,0,504,-3.475139
119438,2023-01-20 11:14:43.089120,518094576,2,39.8032583,32.3787749,100,737.9725,56.27349,0,504,-3.475139
119765,2023-01-20 11:14:44.080345,519094629,2,39.8032043,32.3787333,100,738.1693,56.06849,0,504,-3.475139
120090,2023-01-20 11:14:45.080211,520094572,2,39.8031496,32.3786919,100,738.368,55.86715,0,504,-3.475139
120420,2023-01-20 11:14:46.080208,521094577,2,39.8030956,32.3786503,100,738.5768,55.69065,0,504,-3.475139
120746,2023-01-20 11:14:47.080228,522094587,2,39.8030408,32.3786092,100,738.8441,55.40026,0,504,-3.475139
121075,2023-01-20 11:14:48.080225,523094594,2,39.8029877,32.378569,100,739.0972,55.0755,0,504,-3.475139
121401,2023-01-20 11:14:49.080208,524094566,2,39.8029318,32.378529,100,739.3416,54.78223,0,504,-3.475139
121728,2023-01-20 11:14:50.080216,525094582,2,39.8028761,32.3784884,100,739.5807,54.49767,0,504,-3.475139
122058,2023-01-20 11:14:51.080229,526094586,2,39.8028216,32.3784469,100,739.8159,54.18572,0,504,-3.475139
122384,2023-01-20 11:14:52.080197,527094573,2,39.802767,32.3784052,100,740.0436,53.94817,0,504,-3.475139
122711,2023-01-20 11:14:53.067070,528094570,2,39.8027124,32.378365,100,740.2549,53.78756,0,504,-3.475139
123037,2023-01-20 11:14:54.060357,529094573,2,39.8026575,32.3783247,100,740.4581,53.60337,0,504,-3.475139
123363,2023-01-20 11:14:55.060251,530094577,2,39.8026035,32.3782843,100,740.6538,53.45346,0,504,-3.475139
123692,2023-01-20 11:14:56.060174,531094584,2,39.8025495,32.3782423,100,740.8488,53.27327,0,504,-3.475139
124019,2023-01-20 11:14:57.060230,532094609,2,39.8024969,32.3782,100,741.0375,53.12076,0,504,-3.475139
124394,2023-01-20 11:14:58.060162,533094572,2,39.8024434,32.3781582,100,741.2147,52.95393,0,504,-3.475139
124721,2023-01-20 11:14:59.060236,534094612,2,39.8023879,32.3781177,100,741.3763,52.82854,0,504,-3.475139
125048,2023-01-20 11:15:00.054689,535094562,2,39.8023327,32.3780768,100,741.5311,52.65962,0,504,-3.475139
125378,2023-01-20 11:15:01.060203,536094580,2,39.8022784,32.3780361,100,741.6772,52.51458,0,504,-3.475139
125704,2023-01-20 11:15:02.060212,537094576,2,39.8022225,32.377995,100,741.8153,52.35401,0,504,-3.475139
126031,2023-01-20 11:15:03.040418,538094580,2,39.8021684,32.3779538,100,741.8014,52.33789,0,504,-3.475139
126357,2023-01-20 11:15:04.040224,539094577,2,39.8021144,32.3779129,100,741.6791,52.45031,0,504,-3.475139
126683,2023-01-20 11:15:05.040246,540094576,2,39.8020601,32.3778723,100,741.5502,52.57024,0,504,-3.475139
127013,2023-01-20 11:15:06.040215,541094577,2,39.8020053,32.3778319,100,741.4132,52.68559,0,504,-3.475139
127339,2023-01-20 11:15:07.040189,542094556,2,39.8019507,32.3777904,100,741.1777,52.9385,0,504,-3.475139
127666,2023-01-20 11:15:08.040209,543094584,2,39.8018974,32.3777495,100,740.9489,53.20754,0,504,-3.475139
127991,2023-01-20 11:15:09.040206,544094583,2,39.8018433,32.3777089,100,740.7368,53.42387,0,504,-3.475139
128319,2023-01-20 11:15:10.040232,545094588,2,39.8017878,32.3776686,100,740.5379,53.63556,0,504,-3.475139
128648,2023-01-20 11:15:11.040198,546094579,2,39.8017339,32.3776275,100,740.3696,53.80114,0,504,-3.475139
128975,2023-01-20 11:15:12.020486,547094617,2,39.8016801,32.377587,100,740.2213,53.93726,0,504,-3.475139
129301,2023-01-20 11:15:13.036560,548094576,2,39.8016252,32.3775458,100,740.0912,54.07334,0,504,-3.475139
129628,2023-01-20 11:15:14.020251,549094616,2,39.8015699,32.3775047,100,739.9808,54.12349,0,504,-3.475139
130003,2023-01-20 11:15:15.020197,550094569,2,39.8015152,32.3774636,100,739.8945,54.23296,0,504,-3.475139
130333,2023-01-20 11:15:16.020210,551094574,2,39.8014604,32.3774236,100,739.825,54.29245,0,504,-3.475139
130659,2023-01-20 11:15:17.020211,552094580,2,39.801407,32.3773825,100,739.7858,54.28659,0,504,-3.475139
130985,2023-01-20 11:15:18.020230,553094578,2,39.8013524,32.3773411,100,739.7646,54.31355,0,504,-3.475139
131314,2023-01-20 11:15:19.020205,554094576,2,39.8012973,32.3773002,100,739.783,54.32704,0,504,-3.475139
131640,2023-01-20 11:15:20.020218,555094599,2,39.8012432,32.3772596,100,740.0463,54.12243,0,504,-3.475139
131970,2023-01-20 11:15:21.020226,556094604,2,39.8011905,32.3772187,100,740.3131,53.83138,0,504,-3.475139
132296,2023-01-20 11:15:22.000254,557094692,2,39.8011357,32.3771778,100,740.5876,53.7281,0,504,-3.475139
132623,2023-01-20 11:15:23.000246,558094853,2,39.8010826,32.3771375,100,740.8606,53.52118,0,504,-3.475139
132948,2023-01-20 11:15:24.000335,559094938,2,39.8010374,32.3771045,100,741.0905,53.18324,0,504,-3.475139
133272,2023-01-20 11:15:25.000301,560094933,2,39.801007,32.3770825,100,741.2457,52.94674,0,504,-3.475139
133603,2023-01-20 11:15:26.000265,561094878,2,39.800986,32.3770651,100,741.3638,52.828,0,504,-3.475139
133927,2023-01-20 11:15:27.000305,562094997,2,39.8009657,32.377048,100,741.4797,52.87449,0,504,-3.475139
134250,2023-01-20 11:15:28.000245,563094851,2,39.8009458,32.3770332,100,741.585,52.84206,0,504,-3.475139
134574,2023-01-20 11:15:29.000331,564094985,2,39.8009304,32.377018,100,741.6844,52.76086,0,504,-3.475139
134899,2023-01-20 11:15:29.982395,565094836,2,39.8009332,32.3769938,100,741.7917,52.94768,0,504,-3.475139
135227,2023-01-20 11:15:30.980552,566094765,2,39.8009525,32.3769553,100,741.9337,52.87706,0,504,-3.475139
135551,2023-01-20 11:15:31.980346,567094710,2,39.8009787,32.3769018,100,742.1299,52.53717,0,504,-3.475139
135877,2023-01-20 11:15:32.980211,568094643,2,39.8010069,32.3768451,100,742.3339,52.31983,0,504,-3.475139
136201,2023-01-20 11:15:33.980195,569094581,2,39.8010323,32.3767904,100,742.5315,52.15868,0,504,-3.475139
136527,2023-01-20 11:15:34.980192,570094579,2,39.8010538,32.3767473,100,742.6821,51.95109,0,504,-3.475139
136856,2023-01-20 11:15:35.980565,571094948,2,39.8010695,32.3767278,100,742.7369,51.90027,0,504,-3.475139
137181,2023-01-20 11:15:36.980170,572094546,2,39.801087,32.3767331,100,742.6755,51.92829,0,504,-3.475139
137505,2023-01-20 11:15:37.980193,573094575,2,39.8011049,32.3767478,100,742.5711,51.82325,0,504,-3.475139
137829,2023-01-20 11:15:38.980175,574094555,2,39.8011282,32.3767627,100,742.4548,51.90369,0,504,-3.475139
138158,2023-01-20 11:15:39.963999,575094555,2,39.8011495,32.3767786,100,742.3391,51.92649,0,504,-3.475139
138484,2023-01-20 11:15:40.960261,576094557,2,39.8011743,32.3767982,100,742.2002,52.12039,0,504,-3.475139
138809,2023-01-20 11:15:41.960257,577094630,2,39.8012108,32.3768288,100,741.9898,52.57494,0,504,-3.475139
139181,2023-01-20 11:15:42.960223,578094569,2,39.8012616,32.3768677,100,741.7168,52.95516,0,504,-3.475139
139507,2023-01-20 11:15:43.960251,579094623,2,39.8013197,32.3769078,100,741.4843,53.14928,0,504,-3.475139
139833,2023-01-20 11:15:44.960196,580094582,2,39.8013753,32.3769484,100,741.3904,53.01785,0,504,-3.475139
140162,2023-01-20 11:15:45.960194,581094564,2,39.8014298,32.3769896,100,741.3138,52.94524,0,504,-3.475139
140489,2023-01-20 11:15:46.960194,582094579,2,39.8014824,32.377029,100,741.2617,53.06551,0,504,-3.475139
140816,2023-01-20 11:15:47.960198,583094570,2,39.8015367,32.377069,100,741.2305,53.07117,0,504,-3.475139
141142,2023-01-20 11:15:48.960192,584094573,2,39.8015896,32.3771099,100,741.2147,53.06422,0,504,-3.475139
141472,2023-01-20 11:15:49.960230,585094583,2,39.801643,32.3771511,100,741.2197,53.09319,0,504,-3.475139
141800,2023-01-20 11:15:50.940375,586094568,2,39.8016994,32.3771924,100,741.2531,53.07481,0,504,-3.475139
142128,2023-01-20 11:15:51.955766,587094569,2,39.8017544,32.3772344,100,741.3035,53.00385,0,504,-3.475139
142453,2023-01-20 11:15:52.940197,588094569,2,39.8018082,32.3772757,100,741.3736,52.88023,0,504,-3.475139
142780,2023-01-20 11:15:53.940212,589094575,2,39.8018626,32.3773166,100,741.4676,52.81121,0,504,-3.475139
143106,2023-01-20 11:15:54.940215,590094579,2,39.8019172,32.3773569,100,741.5842,52.75717,0,504,-3.475139
143435,2023-01-20 11:15:55.940158,591094560,2,39.8019721,32.3773969,100,741.7231,52.53999,0,504,-3.475139
143762,2023-01-20 11:15:56.940266,592094626,2,39.8020272,32.3774369,100,741.8838,52.41411,0,504,-3.475139
144089,2023-01-20 11:15:57.940173,593094561,2,39.8020806,32.377479,100,742.0576,52.1957,0,504,-3.475139
144464,2023-01-20 11:15:58.940251,594094613,2,39.8021334,32.3775213,100,742.2504,51.94256,0,504,-3.475139
144791,2023-01-20 11:15:59.927572,595094578,2,39.8021845,32.3775622,100,742.4572,51.78961,0,504,-3.475139
145120,2023-01-20 11:16:00.920224,596094565,2,39.8022382,32.3776009,100,742.5917,51.79949,0,504,-3.475139
145447,2023-01-20 11:16:01.920204,597094591,2,39.8022929,32.3776406,100,742.6774,51.84414,0,504,-3.475139
145774,2023-01-20 11:16:02.920206,598094561,2,39.8023478,32.3776834,100,742.7497,51.76173,0,504,-3.475139
146099,2023-01-20 11:16:03.920186,599094572,2,39.802404,32.3777258,100,742.8107,51.61935,0,504,-3.475139
146426,2023-01-20 11:16:04.920216,600094569,2,39.8024596,32.3777684,100,742.857,51.42307,0,504,-3.475139
146754,2023-01-20 11:16:05.920210,601094568,2,39.8025154,32.3778089,100,742.8918,51.26892,0,504,-3.475139
147082,2023-01-20 11:16:06.920200,602094562,2,39.80257,32.3778479,100,742.8312,51.41503,0,504,-3.475139
147408,2023-01-20 11:16:07.920210,603094575,2,39.8026231,32.3778878,100,742.6851,51.62098,0,504,-3.475139
147735,2023-01-20 11:16:08.900120,604094569,2,39.8026781,32.3779295,100,742.5232,51.77277,0,504,-3.475139
148062,2023-01-20 11:16:09.900060,605094562,2,39.8027324,32.3779702,100,742.3573,51.99285,0,504,-3.475139
148390,2023-01-20 11:16:10.899976,606094567,2,39.8027861,32.3780101,100,742.1868,52.26183,0,504,-3.475139
148717,2023-01-20 11:16:11.900018,607094613,2,39.8028402,32.3780519,100,741.9979,52.42159,0,504,-3.475139
149043,2023-01-20 11:16:12.899983,608094589,2,39.8028941,32.3780941,100,741.7979,52.5187,0,504,-3.475139
149370,2023-01-20 11:16:13.900003,609094612,2,39.8029479,32.3781338,100,741.6036,52.82168,0,504,-3.475139
149696,2023-01-20 11:16:14.899972,610094581,2,39.8030046,32.3781742,100,741.3986,53.15282,0,504,-3.475139
150074,2023-01-20 11:16:15.899947,611094565,2,39.8030633,32.3782156,100,741.1793,53.29087,0,504,-3.475139
150401,2023-01-20 11:16:16.899955,612094582,2,39.803116,32.3782581,100,740.9448,53.36604,0,504,-3.475139
150728,2023-01-20 11:16:17.899955,613094575,2,39.8031669,32.3782992,100,740.7215,53.58589,0,504,-3.475139
151053,2023-01-20 11:16:18.880368,614094563,2,39.8032216,32.3783394,100,740.5098,53.90636,0,504,-3.475139
151381,2023-01-20 11:16:19.880354,615094575,2,39.8032791,32.3783812,100,740.2944,54.20776,0,504,-3.475139
151711,2023-01-20 11:16:20.880224,616094581,2,39.8033366,32.378423,100,740.0834,54.34253,0,504,-3.475139
152039,2023-01-20 11:16:21.880183,617094564,2,39.8033925,32.3784624,100,739.8902,54.4985,0,504,-3.475139
152365,2023-01-20 11:16:22.880215,618094572,2,39.8034461,32.3785043,100,739.6851,54.6841,0,504,-3.475139
152692,2023-01-20 11:16:23.880185,619094568,2,39.8035011,32.3785445,100,739.4948,54.94016,0,504,-3.475139
153018,2023-01-20 11:16:24.880222,620094584,2,39.8035565,32.3785849,100,739.3082,55.12028,0,504,-3.475139
153347,2023-01-20 11:16:25.880229,621094579,2,39.8036108,32.3786269,100,739.1158,55.37121,0,504,-3.475139
153673,2023-01-20 11:16:26.880234,622094612,2,39.8036654,32.3786678,100,738.9342,55.58471,0,504,-3.475139
154000,2023-01-20 11:16:27.873022,623094577,2,39.8037189,32.3787099,100,738.7496,55.7715,0,504,-3.475139
154327,2023-01-20 11:16:28.860471,624094608,2,39.8037738,32.3787494,100,738.5843,55.98642,0,504,-3.475139
154653,2023-01-20 11:16:29.860222,625094567,2,39.8038289,32.3787892,100,738.4219,56.21309,0,504,-3.475139
154982,2023-01-20 11:16:30.860234,626094569,2,39.8038841,32.3788305,100,738.2557,56.46118,0,504,-3.475139
155308,2023-01-20 11:16:31.860178,627094553,2,39.8039382,32.3788733,100,738.0849,56.60441,0,504,-3.475139
155685,2023-01-20 11:16:32.860170,628094552,2,39.8039916,32.3789146,100,737.9257,56.76087,0,504,-3.475139
156011,2023-01-20 11:16:33.860186,629094552,2,39.8040447,32.3789553,100,737.8249,56.87638,0,504,-3.475139
156338,2023-01-20 11:16:34.860156,630094549,2,39.8040991,32.3789957,100,737.7507,56.98198,0,504,-3.475139
156666,2023-01-20 11:16:35.860205,631094565,2,39.8041527,32.3790356,100,737.8359,56.86956,0,504,-3.475139
156993,2023-01-20 11:16:36.860183,632094553,2,39.8042067,32.3790761,100,737.9213,56.8084,0,504,-3.475139
157320,2023-01-20 11:16:37.840435,633094596,2,39.8042618,32.379117,100,738.0089,56.68537,0,504,-3.475139
157646,2023-01-20 11:16:38.854700,634094555,2,39.8043174,32.3791575,100,738.0981,56.49074,0,504,-3.475139
157973,2023-01-20 11:16:39.840301,635094565,2,39.8043708,32.3791982,100,738.182,56.40605,0,504,-3.475139
158301,2023-01-20 11:16:40.840175,636094543,2,39.8044235,32.3792383,100,738.265,56.29922,0,504,-3.475139
158628,2023-01-20 11:16:41.840224,637094593,2,39.8044775,32.3792781,100,738.3512,56.19246,0,504,-3.475139
158955,2023-01-20 11:16:42.840163,638094537,2,39.8045317,32.3793205,100,738.4354,56.12277,0,504,-3.475139
159282,2023-01-20 11:16:43.840218,639094594,2,39.8045867,32.3793622,100,738.5223,56.04004,0,504,-3.475139
159608,2023-01-20 11:16:44.840172,640094541,2,39.8046422,32.3794026,100,738.6112,55.9954,0,504,-3.475139
159937,2023-01-20 11:16:45.840186,641094555,2,39.8046969,32.3794434,100,738.6979,55.86562,0,504,-3.475139
160263,2023-01-20 11:16:46.840150,642094548,2,39.8047531,32.3794844,100,738.788,55.67609,0,504,-3.475139
160591,2023-01-20 11:16:47.820373,643094554,2,39.8048072,32.379527,100,738.8719,55.4898,0,504,-3.475139
160966,2023-01-20 11:16:48.820308,644094562,2,39.804861,32.3795682,100,738.9563,55.36609,0,504,-3.475139
161294,2023-01-20 11:16:49.820196,645094557,2,39.8049155,32.3796086,100,739.0097,55.30464,0,504,-3.475139
161621,2023-01-20 11:16:50.820122,646094538,2,39.8049712,32.3796486,100,739.011,55.34133,0,504,-3.475139
161950,2023-01-20 11:16:51.820170,647094539,2,39.8050261,32.3796894,100,739.0154,55.32701,0,504,-3.475139
162277,2023-01-20 11:16:52.820145,648094555,2,39.8050816,32.3797307,100,739.0242,55.37719,0,504,-3.475139
162604,2023-01-20 11:16:53.820183,649094547,2,39.8051382,32.3797729,100,739.0376,55.27551,0,504,-3.475139
162930,2023-01-20 11:16:54.820185,650094556,2,39.8051916,32.3798151,100,739.0531,55.14125,0,504,-3.475139
163258,2023-01-20 11:16:55.820161,651094547,2,39.8052446,32.3798557,100,739.0734,55.14767,0,504,-3.475139
163585,2023-01-20 11:16:56.820247,652094622,2,39.8052963,32.3798952,100,739.0972,55.16191,0,504,-3.475139
163912,2023-01-20 11:16:57.800261,653094775,2,39.8053495,32.3799351,100,739.126,55.22221,0,504,-3.475139
164239,2023-01-20 11:16:58.800300,654094945,2,39.8054052,32.3799759,100,739.1609,55.24006,0,504,-3.475139
164566,2023-01-20 11:16:59.800245,655094831,2,39.8054593,32.3800175,100,739.1984,55.15825,0,504,-3.475139
164895,2023-01-20 11:17:00.800293,656094879,2,39.8055151,32.3800584,100,739.242,55.10593,0,504,-3.475139
165221,2023-01-20 11:17:01.800241,657094835,2,39.8055698,32.3801004,100,739.2886,55.03481,0,504,-3.475139
165548,2023-01-20 11:17:02.800260,658094845,2,39.8056262,32.380142,100,739.3415,54.94913,0,504,-3.475139
165874,2023-01-20 11:17:03.800311,659094920,2,39.8056805,32.3801828,100,739.3799,54.83045,0,504,-3.475139
166201,2023-01-20 11:17:04.800261,660094843,2,39.8057348,32.3802232,100,739.4057,54.87439,0,504,-3.475139
166578,2023-01-20 11:17:05.800271,661094873,2,39.8057895,32.3802644,100,739.4312,54.87897,0,504,-3.475139
166903,2023-01-20 11:17:06.782350,662094799,2,39.8058427,32.3803066,100,739.4953,54.79197,0,504,-3.475139
167230,2023-01-20 11:17:07.780344,663094658,2,39.8058963,32.3803464,100,739.5579,54.78979,0,504,-3.475139
167556,2023-01-20 11:17:08.780371,664094701,2,39.805949,32.380388,100,739.6085,54.77887,0,504,-3.475139
167884,2023-01-20 11:17:09.780191,665094548,2,39.8060026,32.3804287,100,739.6534,54.82137,0,504,-3.475139
168212,2023-01-20 11:17:10.780174,666094552,2,39.8060583,32.3804684,100,739.6948,54.75698,0,504,-3.475139
168539,2023-01-20 11:17:11.780231,667094611,2,39.8061124,32.3805095,100,739.7231,54.69981,0,504,-3.475139
168866,2023-01-20 11:17:12.780172,668094547,2,39.8061672,32.3805509,100,739.7438,54.64411,0,504,-3.475139
169193,2023-01-20 11:17:13.780225,669094604,2,39.806218,32.3805884,100,739.7565,54.42765,0,504,-3.475139
169517,2023-01-20 11:17:14.780175,670094547,2,39.8062541,32.3806164,100,739.7587,54.19263,0,504,-3.475139
169845,2023-01-20 11:17:15.763975,671094558,2,39.8062754,32.3806353,100,739.754,54.23898,0,504,-3.475139
170169,2023-01-20 11:17:16.763993,672094555,2,39.8062962,32.3806506,100,739.7537,54.48549,0,504,-3.475139
170494,2023-01-20 11:17:17.777974,673094564,2,39.8063175,32.3806653,100,739.7539,54.57716,0,504,-3.475139
170819,2023-01-20 11:17:18.760157,674094555,2,39.8063371,32.3806778,100,739.7551,54.52596,0,504,-3.475139
171147,2023-01-20 11:17:19.760172,675094561,2,39.8063531,32.3806738,100,739.7826,54.3815,0,504,-3.475139
171473,2023-01-20 11:17:20.760179,676094558,2,39.8063655,32.3806414,100,739.8616,54.19667,0,504,-3.475139
171798,2023-01-20 11:17:21.760145,677094565,2,39.8063835,32.3805917,100,739.9841,54.01425,0,504,-3.475139
172126,2023-01-20 11:17:22.760198,678094591,2,39.806412,32.3805344,100,740.1415,54.09303,0,504,-3.475139
172453,2023-01-20 11:17:23.760148,679094581,2,39.80644,32.3804738,100,740.311,53.98318,0,504,-3.475139
172777,2023-01-20 11:17:24.760206,680094592,2,39.8064627,32.3804195,100,740.4647,53.79634,0,504,-3.475139
173104,2023-01-20 11:17:25.745771,681094563,2,39.806473,32.3803823,100,740.5629,53.69811,0,504,-3.475139
173431,2023-01-20 11:17:26.745833,682094624,2,39.8064627,32.3803603,100,740.5914,53.4386,0,504,-3.475139
173755,2023-01-20 11:17:27.740160,683094574,2,39.8064392,32.3803433,100,740.5834,53.6191,0,504,-3.475139
174080,2023-01-20 11:17:28.740250,684094631,2,39.8064185,32.380327,100,740.5779,53.69188,0,504,-3.475139
174410,2023-01-20 11:17:29.740192,685094605,2,39.8063974,32.3803121,100,740.5676,53.70137,0,504,-3.475139
174736,2023-01-20 11:17:30.740184,686094568,2,39.8063719,32.3802968,100,740.5481,53.58416,0,504,-3.475139
175060,2023-01-20 11:17:31.740214,687094596,2,39.8063361,32.3802718,100,740.525,53.55912,0,504,-3.475139
175430,2023-01-20 11:17:32.740200,688094578,2,39.8062889,32.3802363,100,740.4937,53.73635,0,504,-3.475139
175758,2023-01-20 11:17:33.740222,689094591,2,39.8062348,32.3801962,100,740.449,53.73283,0,504,-3.475139
176084,2023-01-20 11:17:34.740242,690094601,2,39.8061804,32.3801556,100,740.3931,53.75,0,504,-3.475139
176413,2023-01-20 11:17:35.727563,691094584,2,39.8061254,32.3801135,100,740.3097,53.78973,0,504,-3.475139
176739,2023-01-20 11:17:36.720221,692094571,2,39.8060721,32.3800726,100,740.2163,53.85379,0,504,-3.475139
177066,2023-01-20 11:17:37.720210,693094592,2,39.8060195,32.380032,100,740.1119,53.88324,0,504,-3.475139
177392,2023-01-20 11:17:38.720205,694094568,2,39.8059652,32.3799918,100,739.9907,53.88522,0,504,-3.475139
177720,2023-01-20 11:17:39.720198,695094583,2,39.8059101,32.3799528,100,739.8543,53.87764,0,504,-3.475139
178048,2023-01-20 11:17:40.720188,696094575,2,39.8058562,32.3799119,100,739.7094,54.06526,0,504,-3.475139
178375,2023-01-20 11:17:41.720229,697094635,2,39.805804,32.3798689,100,739.5571,54.30002,0,504,-3.475139
178701,2023-01-20 11:17:42.720178,698094565,2,39.8057493,32.3798267,100,739.4897,54.39277,0,504,-3.475139
179028,2023-01-20 11:17:43.720208,699094611,2,39.8056954,32.3797863,100,739.4508,54.50684,0,504,-3.475139
179355,2023-01-20 11:17:44.720210,700094590,2,39.805642,32.3797452,100,739.4164,54.59212,0,504,-3.475139
179683,2023-01-20 11:17:45.700039,701094593,2,39.8055877,32.3797053,100,739.3854,54.63894,0,504,-3.475139
180010,2023-01-20 11:17:46.699952,702094581,2,39.8055335,32.3796652,100,739.3586,54.65909,0,504,-3.475139
180336,2023-01-20 11:17:47.699926,703094574,2,39.8054771,32.3796237,100,739.3351,54.67753,0,504,-3.475139
180663,2023-01-20 11:17:48.699909,704094581,2,39.8054233,32.3795818,100,739.3176,54.72292,0,504,-3.475139
181039,2023-01-20 11:17:49.699919,705094573,2,39.8053687,32.3795407,100,739.3037,54.75034,0,504,-3.475139
181368,2023-01-20 11:17:50.699911,706094580,2,39.8053134,32.3794999,100,739.2936,54.71868,0,504,-3.475139
181694,2023-01-20 11:17:51.699925,707094574,2,39.8052583,32.3794583,100,739.2883,54.74937,0,504,-3.475139
182021,2023-01-20 11:17:52.699873,708094591,2,39.8052037,32.3794169,100,739.2875,54.71637,0,504,-3.475139
182350,2023-01-20 11:17:53.699920,709094576,2,39.8051499,32.3793766,100,739.2906,54.6675,0,504,-3.475139
182677,2023-01-20 11:17:54.699907,710094582,2,39.8050957,32.3793363,100,739.2977,54.67079,0,504,-3.475139
183005,2023-01-20 11:17:55.680256,711094570,2,39.8050415,32.3792947,100,739.3099,54.66103,0,504,-3.475139
183332,2023-01-20 11:17:56.680290,712094618,2,39.8049871,32.3792528,100,739.3265,54.65229,0,504,-3.475139
183658,2023-01-20 11:17:57.680167,713094581,2,39.8049314,32.3792123,100,739.3462,54.6678,0,504,-3.475139
183985,2023-01-20 11:17:58.680203,714094606,2,39.8048771,32.3791721,100,739.3329,54.78194,0,504,-3.475139
184312,2023-01-20 11:17:59.680199,715094587,2,39.8048219,32.3791318,100,739.2444,54.8414,0,504,-3.475139
184640,2023-01-20 11:18:00.680192,716094574,2,39.8047683,32.3790899,100,739.1611,54.91998,0,504,-3.475139
184967,2023-01-20 11:18:01.680196,717094585,2,39.8047134,32.3790487,100,739.0742,54.99246,0,504,-3.475139
185293,2023-01-20 11:18:02.680187,718094578,2,39.80466,32.3790076,100,738.9905,55.08748,0,504,-3.475139
185621,2023-01-20 11:18:03.680198,719094580,2,39.8046052,32.3789662,100,738.9942,55.12801,0,504,-3.475139
185947,2023-01-20 11:18:04.672957,720094585,2,39.8045507,32.378926,100,739.0401,55.10912,0,504,-3.475139
186276,2023-01-20 11:18:05.660359,721094579,2,39.8044964,32.3788858,100,739.0948,55.03247,0,504,-3.475139
186651,2023-01-20 11:18:06.660167,722094581,2,39.804441,32.3788457,100,739.1553,54.95942,0,504,-3.475139
186978,2023-01-20 11:18:07.660188,723094600,2,39.8043869,32.3788049,100,739.2296,54.87229,0,504,-3.475139
187304,2023-01-20 11:18:08.660152,724094574,2,39.8043331,32.3787623,100,739.321,54.74429,0,504,-3.475139
187633,2023-01-20 11:18:09.660174,725094583,2,39.8042781,32.3787214,100,739.4115,54.62535,0,504,-3.475139
187961,2023-01-20 11:18:10.660122,726094569,2,39.8042252,32.3786813,100,739.5101,54.60358,0,504,-3.475139
188286,2023-01-20 11:18:11.660226,727094627,2,39.804172,32.3786407,100,739.6188,54.6108,0,504,-3.475139
188613,2023-01-20 11:18:12.660148,728094589,2,39.8041167,32.3786003,100,739.7314,54.51252,0,504,-3.475139
188939,2023-01-20 11:18:13.660217,729094614,2,39.8040602,32.3785601,100,739.85,54.33323,0,504,-3.475139
189267,2023-01-20 11:18:14.654738,730094585,2,39.8040063,32.3785189,100,739.9861,54.20441,0,504,-3.475139
189595,2023-01-20 11:18:15.640208,731094580,2,39.8039531,32.3784769,100,740.1625,54.05152,0,504,-3.475139
