LineNo,UTC_Approx,TimeUS,IMU,VibeX,VibeY,VibeZ,Clip
695,2023-01-20 11:08:47.422218,161676973,0,0.02123802,0.0251342,0.02861002,0
1046,2023-01-20 11:08:47.517205,161776960,0,0.02269421,0.02262924,0.03466193,0
1162,2023-01-20 11:08:47.631762,161894244,0,0.02002071,0.02194424,0.03449396,0
1425,2023-01-20 11:08:47.739732,161996668,0,0.0212375,0.02046109,0.02958062,0
1844,2023-01-20 11:08:47.843249,162097195,0,0.02019917,0.02280253,0.03289285,0
1891,2023-01-20 11:08:47.943038,162197226,0,0.02313774,0.02283916,0.03034187,0
1936,2023-01-20 11:08:48.042861,162297185,0,0.02397838,0.02176009,0.03162575,0
1982,2023-01-20 11:08:48.142855,162397175,0,0.02218983,0.02330816,0.03257207,0
2035,2023-01-20 11:08:48.242874,162497177,0,0.02342345,0.02248896,0.0303317,0
2076,2023-01-20 11:08:48.342937,162597207,0,0.02418872,0.01998385,0.0296999,0
2134,2023-01-20 11:08:48.439081,162697217,0,0.01938907,0.02005878,0.03159137,0
2193,2023-01-20 11:08:48.530016,162797191,0,0.02161556,0.02063723,0.02783809,0
2253,2023-01-20 11:08:48.623092,162897219,0,0.023493,0.02016374,0.0284292,0
2307,2023-01-20 11:08:48.723052,162997159,0,0.0210495,0.02057415,0.02983037,0
2363,2023-01-20 11:08:48.823093,163097185,0,0.0205,0.02127048,0.03147945,0
2418,2023-01-20 11:08:48.923134,163197225,0,0.01803742,0.02372725,0.02877647,0
2458,2023-01-20 11:08:49.023077,163297171,0,0.02151403,0.02450664,0.02737555,0
2502,2023-01-20 11:08:49.123074,163397184,0,0.02088125,0.02352512,0.02735351,0
2544,2023-01-20 11:08:49.225612,163497189,0,0.02214759,0.02332165,0.02980443,0
2584,2023-01-20 11:08:49.336644,163597186,0,0.02048839,0.02152242,0.03396031,0
2627,2023-01-20 11:08:49.442950,163697223,0,0.02329983,0.02460682,0.03772637,0
2665,2023-01-20 11:08:49.542895,163797233,0,0.150112,0.1986467,0.1615178,0
2705,2023-01-20 11:08:49.638961,163897177,0,0.2360284,0.2281305,0.2350897,0
2743,2023-01-20 11:08:49.730015,163997207,0,0.2180923,0.212986,0.1875998,0
2786,2023-01-20 11:08:49.823081,164097177,0,0.2700187,0.2295341,0.1856103,0
2826,2023-01-20 11:08:49.923104,164197224,0,0.3511677,0.2668742,0.2363237,0
2866,2023-01-20 11:08:50.023048,164297177,0,0.2821968,0.2940176,0.2374739,0
2905,2023-01-20 11:08:50.123087,164397179,0,0.2793376,0.3176604,0.2646802,0
2948,2023-01-20 11:08:50.223141,164497213,0,0.2651598,0.3890769,0.2858623,0
2986,2023-01-20 11:08:50.323064,164597177,0,0.2099651,0.3752654,0.3007201,0
3028,2023-01-20 11:08:50.423060,164697215,0,0.2187523,0.3237082,0.2298303,0
3068,2023-01-20 11:08:50.522969,164797172,0,0.2616448,0.3297585,0.2804468,0
3108,2023-01-20 11:08:50.622942,164897168,0,0.2914795,0.2972572,0.2443864,0
3146,2023-01-20 11:08:50.723006,164997174,0,0.4701073,0.7515903,0.3642593,0
3187,2023-01-20 11:08:50.823028,165097166,0,0.9423443,1.126177,0.5822079,0
3227,2023-01-20 11:08:50.923117,165197319,0,1.039622,1.197106,0.7010169,0
3267,2023-01-20 11:08:51.022930,165297179,0,0.9723644,1.073055,0.6542435,0
3305,2023-01-20 11:08:51.122939,165397173,0,0.9811394,1.107937,0.6881315,0
3348,2023-01-20 11:08:51.222979,165497212,0,1.354393,1.283782,0.9703999,0
3386,2023-01-20 11:08:51.322902,165597179,0,1.245295,1.239542,0.8680223,0
3428,2023-01-20 11:08:51.422909,165697224,0,1.066516,1.030644,0.6263402,0
3466,2023-01-20 11:08:51.522841,165797172,0,1.010685,0.8892509,0.7632146,0
3507,2023-01-20 11:08:51.622833,165897176,0,1.123614,1.027681,0.8394868,0
3544,2023-01-20 11:08:51.722834,165997169,0,1.188935,1.404462,1.223238,0
3587,2023-01-20 11:08:51.822846,166097177,0,1.155313,1.489528,1.175193,0
3627,2023-01-20 11:08:51.922917,166197251,0,1.061383,1.144322,0.9270155,0
3667,2023-01-20 11:08:52.022844,166297178,0,1.033735,0.9246957,1.065616,0
3703,2023-01-20 11:08:52.122846,166397173,0,1.125514,1.29742,1.044699,0
3738,2023-01-20 11:08:52.222916,166497239,0,1.123046,1.551682,1.132463,0
3768,2023-01-20 11:08:52.322848,166597173,0,0.9232336,1.42881,0.9457731,0
3803,2023-01-20 11:08:52.422911,166697244,0,0.9770586,1.041732,0.7983265,0
3833,2023-01-20 11:08:52.522882,166797240,0,1.015201,0.898329,0.9099073,0
3866,2023-01-20 11:08:52.622804,166897175,0,1.062597,1.186068,0.8982026,0
3896,2023-01-20 11:08:52.722831,166997168,0,0.9270315,1.3866,0.9159346,0
3931,2023-01-20 11:08:52.822862,167097174,0,0.8564912,1.355567,1.355423,0
3963,2023-01-20 11:08:52.922911,167197221,0,0.9890122,1.140313,1.307691,0
3996,2023-01-20 11:08:53.022878,167297194,0,1.108997,1.109024,1.096537,0
4026,2023-01-20 11:08:53.122834,167397181,0,1.067477,1.091856,0.9794762,0
4061,2023-01-20 11:08:53.222860,167497229,0,1.063186,0.9130877,0.9101501,0
4091,2023-01-20 11:08:53.322866,167597225,0,1.322954,0.9914139,1.23569,0
4126,2023-01-20 11:08:53.422892,167697252,0,1.443309,0.9480208,1.249434,0
4156,2023-01-20 11:08:53.522834,167797235,0,1.965278,1.299441,1.567777,0
4189,2023-01-20 11:08:53.622815,167897240,0,3.027475,5.178645,2.735788,0
4219,2023-01-20 11:08:53.722830,167997223,0,3.634436,6.455204,3.607975,0
4254,2023-01-20 11:08:53.822858,168097230,0,4.213985,6.929313,3.943622,0
4287,2023-01-20 11:08:53.922977,168197365,0,5.962273,6.4916,3.309701,0
4320,2023-01-20 11:08:54.022946,168297350,0,11.48576,6.196779,5.653306,0
4351,2023-01-20 11:08:54.122821,168397238,0,12.71782,4.637105,5.666375,0
4386,2023-01-20 11:08:54.222801,168497222,0,10.96605,9.895554,6.130856,0
4416,2023-01-20 11:08:54.322925,168597322,0,9.726912,9.773053,5.227328,0
4451,2023-01-20 11:08:54.422872,168697258,0,7.628705,7.399223,4.467246,0
4481,2023-01-20 11:08:54.522828,168797252,0,10.74213,7.202682,3.615832,0
4514,2023-01-20 11:08:54.622876,168897325,0,11.70618,6.649428,4.243358,0
4544,2023-01-20 11:08:54.722794,168997227,0,10.37882,10.69952,5.845297,0
4579,2023-01-20 11:08:54.822815,169097233,0,7.767203,11.04021,6.983719,0
4611,2023-01-20 11:08:54.922967,169197374,0,6.007321,8.911485,6.327249,0
4644,2023-01-20 11:08:55.022845,169297241,0,10.41958,6.557697,6.658056,0
4674,2023-01-20 11:08:55.122855,169397241,0,7.824687,6.668855,6.871723,0
4709,2023-01-20 11:08:55.222851,169497230,0,8.468731,7.269669,8.21163,0
4739,2023-01-20 11:08:55.322841,169597226,0,10.39504,6.984642,7.10198,0
4774,2023-01-20 11:08:55.422922,169697317,0,8.435113,10.11403,8.992226,0
4806,2023-01-20 11:08:55.522817,169797240,0,6.08752,9.72156,6.327309,0
4839,2023-01-20 11:08:55.622802,169897239,0,5.944397,8.225979,5.675322,0
4869,2023-01-20 11:08:55.722937,169997345,0,6.156421,7.439828,6.923481,0
4904,2023-01-20 11:08:55.822835,170097222,0,10.53748,6.609231,5.842866,0
4936,2023-01-20 11:08:55.922956,170197346,0,8.293241,8.500218,6.84641,0
4969,2023-01-20 11:08:56.022916,170297306,0,6.886079,9.00479,5.610919,0
4999,2023-01-20 11:08:56.122841,170397225,0,7.570634,7.181976,4.29493,0
5034,2023-01-20 11:08:56.222853,170497232,0,10.10361,7.037377,5.955319,0
5064,2023-01-20 11:08:56.322871,170597252,0,9.280344,6.40851,5.313856,0
5099,2023-01-20 11:08:56.422941,170697331,0,10.36959,7.719993,5.891056,0
5129,2023-01-20 11:08:56.522940,170797362,0,8.324471,10.46121,7.684953,0
5162,2023-01-20 11:08:56.622814,170897253,0,7.476444,11.61626,5.880377,0
5192,2023-01-20 11:08:56.722843,170997248,0,10.7539,7.956575,5.112831,0
5227,2023-01-20 11:08:56.822882,171097263,0,6.854817,6.818607,5.777137,0
5259,2023-01-20 11:08:56.922961,171197350,0,7.627788,9.707728,5.227027,0
5292,2023-01-20 11:08:57.022845,171297238,0,8.331962,10.11477,6.049815,0
5323,2023-01-20 11:08:57.122841,171397226,0,7.595295,8.835433,5.731486,0
5358,2023-01-20 11:08:57.222848,171497227,0,6.590964,10.43376,6.526993,0
5388,2023-01-20 11:08:57.322946,171597322,0,6.931311,7.762286,5.17285,0
5423,2023-01-20 11:08:57.422924,171697307,0,9.511292,8.331077,6.123994,0
5453,2023-01-20 11:08:57.522809,171797228,0,9.196987,9.252845,8.521219,0
5486,2023-01-20 11:08:57.622798,171897238,0,11.55158,9.646729,6.993124,0
5516,2023-01-20 11:08:57.722831,171997237,0,8.4267,7.659858,5.969207,0
5551,2023-01-20 11:08:57.822949,172097331,0,8.660464,9.277571,6.385436,0
5583,2023-01-20 11:08:57.922943,172197330,0,7.985675,8.074898,5.7572,0
5618,2023-01-20 11:08:58.022921,172297311,0,5.866155,9.922832,7.399253,0
5648,2023-01-20 11:08:58.122953,172397340,0,6.251871,7.6193,5.54555,0
5683,2023-01-20 11:08:58.223142,172497527,0,6.141269,9.406803,5.415171,0
5713,2023-01-20 11:08:58.322873,172597259,0,5.070712,10.08324,4.692529,0
5748,2023-01-20 11:08:58.422934,172697328,0,5.285328,8.775203,5.018499,0
5778,2023-01-20 11:08:58.522824,172797253,0,5.769179,6.743509,4.013998,0
5811,2023-01-20 11:08:58.622866,172897314,0,6.860002,7.2281,4.707107,0
5841,2023-01-20 11:08:58.722835,172997246,0,8.599751,6.456819,3.949482,0
5876,2023-01-20 11:08:58.822863,173097250,0,10.13875,7.18594,5.90229,0
5908,2023-01-20 11:08:58.922948,173197351,0,8.750978,7.083338,5.122365,0
5942,2023-01-20 11:08:59.020826,173297327,0,6.389305,9.616381,4.985441,0
5973,2023-01-20 11:08:59.111739,173397344,0,10.00985,10.1323,5.112875,0
6008,2023-01-20 11:08:59.203078,173497522,0,10.14184,6.214912,3.851365,0
6038,2023-01-20 11:08:59.302804,173597245,0,8.652494,5.289681,4.006654,0
6073,2023-01-20 11:08:59.403260,173697372,0,10.31963,5.053314,3.186108,0
6102,2023-01-20 11:08:59.514231,173797240,0,9.122983,5.871825,5.417727,0
6135,2023-01-20 11:08:59.620748,173897252,0,8.106997,5.512258,4.546835,0
6165,2023-01-20 11:08:59.711632,173997230,0,10.98285,5.525041,5.73896,0
6201,2023-01-20 11:08:59.802811,174097252,0,10.7734,5.200781,4.41365,0
6233,2023-01-20 11:08:59.902853,174197324,0,7.844916,6.44487,4.310695,0
6266,2023-01-20 11:09:00.002752,174297254,0,5.341829,5.623073,3.948427,0
6296,2023-01-20 11:09:00.102767,174397342,0,5.345863,5.78144,3.759329,0
6331,2023-01-20 11:09:00.202883,174497528,0,5.173871,4.662857,4.085986,0
6361,2023-01-20 11:09:00.302634,174597228,0,6.045018,6.477829,3.316029,0
6396,2023-01-20 11:09:00.402786,174697332,0,7.960363,5.755228,3.506495,0
6428,2023-01-20 11:09:00.502625,174797225,0,7.414855,4.975648,4.219595,0
6461,2023-01-20 11:09:00.602594,174897246,0,7.366228,8.407302,7.055027,0
6491,2023-01-20 11:09:00.702634,174997254,0,7.764843,8.781013,8.027566,0
6527,2023-01-20 11:09:00.802716,175097305,0,7.220081,8.101857,6.946962,0
6559,2023-01-20 11:09:00.902783,175197396,0,7.208592,8.273217,5.0941,0
6592,2023-01-20 11:09:01.002676,175297310,0,7.229941,8.996627,6.446903,0
6622,2023-01-20 11:09:01.102749,175397307,0,6.787254,8.341568,6.932734,0
6657,2023-01-20 11:09:01.203078,175497565,0,6.428878,7.392317,4.74979,0
6687,2023-01-20 11:09:01.302686,175597241,0,6.147728,7.107046,4.350527,0
6722,2023-01-20 11:09:01.402712,175697334,0,6.977231,6.177975,4.244077,0
6752,2023-01-20 11:09:01.502579,175797228,0,8.814797,5.805982,3.537951,0
6785,2023-01-20 11:09:01.602661,175897336,0,9.489773,5.187724,3.726398,0
6816,2023-01-20 11:09:01.702646,175997315,0,8.849498,4.97688,3.698582,0
6851,2023-01-20 11:09:01.802576,176097240,0,9.860592,5.452591,6.763576,0
6883,2023-01-20 11:09:01.902677,176197337,0,11.23247,9.006488,8.777143,0
6916,2023-01-20 11:09:02.002596,176297252,0,11.17552,10.95277,9.234764,0
6946,2023-01-20 11:09:02.102674,176397318,0,9.85428,9.807261,7.774469,0
6981,2023-01-20 11:09:02.202963,176497595,0,9.146638,7.52388,4.882858,0
7011,2023-01-20 11:09:02.302613,176597241,0,7.855576,8.466259,6.965076,0
7046,2023-01-20 11:09:02.402712,176697338,0,7.191374,9.012254,6.272314,0
7076,2023-01-20 11:09:02.502564,176797239,0,8.214623,11.24028,6.388851,0
7109,2023-01-20 11:09:02.602517,176897239,0,6.418616,8.300634,5.19033,0
7139,2023-01-20 11:09:02.702572,176997249,0,6.290144,10.30195,6.34874,0
7174,2023-01-20 11:09:02.802681,177097314,0,9.437115,11.77496,5.893617,0
7206,2023-01-20 11:09:02.902767,177197405,0,10.76948,9.388956,4.708661,0
7239,2023-01-20 11:09:03.002680,177297322,0,8.504441,9.762871,5.500236,0
7269,2023-01-20 11:09:03.102600,177397254,0,7.996988,9.255992,5.697076,0
7304,2023-01-20 11:09:03.202782,177497447,0,8.815663,9.731778,4.157388,0
7334,2023-01-20 11:09:03.302570,177597240,0,7.991023,6.514673,5.009832,0
7369,2023-01-20 11:09:03.402652,177697326,0,8.226363,4.642722,3.985176,0
7399,2023-01-20 11:09:03.502589,177797262,0,6.219721,4.672885,3.842527,0
7432,2023-01-20 11:09:03.602561,177897233,0,5.532561,7.338478,4.563629,0
7463,2023-01-20 11:09:03.702591,177997250,0,7.120852,6.392203,5.826624,0
7498,2023-01-20 11:09:03.802593,178097240,0,7.812102,5.449221,5.795986,0
7530,2023-01-20 11:09:03.902676,178197336,0,6.303392,6.735947,4.539799,0
7563,2023-01-20 11:09:04.002582,178297254,0,7.545499,6.159157,4.827994,0
7594,2023-01-20 11:09:04.102562,178397243,0,8.714665,6.488251,5.55804,0
7629,2023-01-20 11:09:04.202778,178497466,0,8.600606,7.722705,7.788363,0
7659,2023-01-20 11:09:04.302574,178597239,0,6.256549,7.925082,6.733925,0
7694,2023-01-20 11:09:04.402684,178697326,0,6.022097,7.547184,4.906702,0
7724,2023-01-20 11:09:04.502687,178797346,0,9.733074,7.068013,3.476215,0
7757,2023-01-20 11:09:04.602571,178897244,0,8.651769,5.29443,6.434426,0
7787,2023-01-20 11:09:04.702591,178997240,0,5.72801,6.592083,5.324455,0
7822,2023-01-20 11:09:04.802632,179097258,0,5.934334,5.882763,3.726467,0
7854,2023-01-20 11:09:04.902683,179197346,0,7.081009,7.646641,3.429085,0
7887,2023-01-20 11:09:05.002624,179297321,0,11.00559,7.22608,4.616028,0
7917,2023-01-20 11:09:05.102559,179397233,0,11.5193,6.918521,4.306229,0
7952,2023-01-20 11:09:05.202698,179497349,0,9.753717,6.033259,4.247206,0
7982,2023-01-20 11:09:05.302610,179597248,0,7.143592,5.357568,3.67054,0
8018,2023-01-20 11:09:05.402717,179697342,0,5.956578,5.922706,3.928301,0
8050,2023-01-20 11:09:05.502568,179797249,0,5.214212,5.278513,3.599257,0
8083,2023-01-20 11:09:05.602587,179897321,0,6.252978,5.020882,3.642256,0
8113,2023-01-20 11:09:05.702680,179997354,0,6.26498,4.499195,2.937944,0
8148,2023-01-20 11:09:05.802630,180097246,0,6.923441,5.261162,3.777463,0
8180,2023-01-20 11:09:05.902673,180197329,0,4.743375,6.913581,4.864593,0
8213,2023-01-20 11:09:06.002555,180297250,0,5.258663,7.461626,3.722365,0
8243,2023-01-20 11:09:06.102646,180397332,0,6.844089,6.537324,3.266311,0
8278,2023-01-20 11:09:06.202646,180497323,0,7.550533,5.414914,3.844291,0
8308,2023-01-20 11:09:06.302566,180597245,0,7.971856,5.330456,3.94638,0
8343,2023-01-20 11:09:06.402640,180697322,0,7.394681,4.672096,4.003397,0
8373,2023-01-20 11:09:06.502571,180797245,0,8.407599,5.892448,3.360029,0
8406,2023-01-20 11:09:06.602585,180897251,0,6.596841,6.237604,3.460261,0
8436,2023-01-20 11:09:06.702563,180997233,0,7.321632,6.652948,3.585883,0
8471,2023-01-20 11:09:06.802652,181097326,0,6.241977,6.251583,3.78036,0
8503,2023-01-20 11:09:06.902697,181197358,0,7.685639,5.891292,3.648901,0
8536,2023-01-20 11:09:07.002598,181297247,0,8.356663,4.926547,4.002814,0
8566,2023-01-20 11:09:07.102605,181397251,0,8.874173,7.237148,6.63305,0
8601,2023-01-20 11:09:07.202763,181497407,0,11.68038,5.600931,6.58685,0
8631,2023-01-20 11:09:07.302612,181597254,0,13.50784,5.201074,3.959371,0
8667,2023-01-20 11:09:07.402698,181697339,0,11.63467,8.479966,5.842792,0
8697,2023-01-20 11:09:07.502697,181797350,0,11.66935,11.19538,8.730156,0
8730,2023-01-20 11:09:07.602583,181897248,0,12.5676,9.653583,8.618052,0
8760,2023-01-20 11:09:07.702601,181997245,0,10.89553,7.587798,7.943336,0
8795,2023-01-20 11:09:07.802722,182097346,0,10.20018,8.413218,8.720227,0
8827,2023-01-20 11:09:07.902702,182197338,0,10.8373,8.461411,8.044086,0
8860,2023-01-20 11:09:08.002604,182297253,0,9.211448,8.691514,6.991767,0
8890,2023-01-20 11:09:08.102661,182397327,0,8.765891,10.97718,5.927631,0
8925,2023-01-20 11:09:08.202632,182497315,0,7.224637,8.40465,5.215476,0
8955,2023-01-20 11:09:08.302586,182597246,0,8.644472,9.515711,5.494493,0
8990,2023-01-20 11:09:08.402729,182697368,0,8.812865,10.06246,8.735328,0
9020,2023-01-20 11:09:08.502569,182797239,0,10.79669,10.54903,7.776554,0
9053,2023-01-20 11:09:08.602542,182897242,0,10.37962,10.42605,8.181804,0
9083,2023-01-20 11:09:08.702574,182997242,0,10.64846,9.444218,7.756026,0
9118,2023-01-20 11:09:08.802606,183097242,0,11.33294,9.327774,7.699566,0
9152,2023-01-20 11:09:08.902704,183197353,0,12.04101,7.547197,7.385302,0
9185,2023-01-20 11:09:09.002410,183297308,0,11.81392,6.054354,8.411523,0
9215,2023-01-20 11:09:09.093413,183397207,0,11.66768,6.546841,7.374376,0
9248,2023-01-20 11:09:09.184619,183497330,0,14.53388,7.869394,7.337653,0
9281,2023-01-20 11:09:09.283025,183597251,0,12.56188,9.721555,7.814734,0
9314,2023-01-20 11:09:09.383107,183697346,0,10.87027,9.223208,7.635642,0
9346,2023-01-20 11:09:09.483075,183797312,0,10.61833,9.75874,8.24392,0
9377,2023-01-20 11:09:09.583014,183897247,0,11.05851,9.04309,8.916647,0
9410,2023-01-20 11:09:09.683016,183997232,0,12.96896,8.444061,9.079946,0
9444,2023-01-20 11:09:09.783052,184097248,0,11.52462,7.914225,8.614616,0
9478,2023-01-20 11:09:09.883126,184197338,0,11.90288,8.690862,9.013272,0
9509,2023-01-20 11:09:09.983089,184297325,0,11.16,7.65797,8.61303,0
9541,2023-01-20 11:09:10.083090,184397334,0,10.14393,8.416252,7.858799,0
9573,2023-01-20 11:09:10.183068,184497316,0,9.612988,11.05725,8.35721,0
9606,2023-01-20 11:09:10.283000,184597249,0,11.17443,10.49683,8.723869,0
9639,2023-01-20 11:09:10.383106,184697356,0,11.8397,7.671981,8.944647,0
9671,2023-01-20 11:09:10.482988,184797330,0,12.52728,7.388728,8.226224,0
9704,2023-01-20 11:09:10.583003,184897456,0,11.93041,9.194474,9.020268,0
9736,2023-01-20 11:09:10.682820,184997237,0,11.15788,10.19472,9.151003,0
9769,2023-01-20 11:09:10.783061,185097411,0,11.22662,9.619976,9.19486,0
9803,2023-01-20 11:09:10.883035,185197393,0,10.37641,9.12348,8.178019,0
9834,2023-01-20 11:09:10.983045,185297425,0,9.894638,9.418957,7.893313,0
9867,2023-01-20 11:09:11.082861,185397251,0,10.50286,9.596455,8.31809,0
9899,2023-01-20 11:09:11.183044,185497442,0,10.52593,9.12687,8.025106,0
9932,2023-01-20 11:09:11.282834,185597244,0,13.05037,6.731582,8.41044,0
9965,2023-01-20 11:09:11.383055,185697480,0,12.32348,6.566393,8.207462,0
9996,2023-01-20 11:09:11.482810,185797234,0,11.87344,8.42393,9.722409,0
10027,2023-01-20 11:09:11.582997,185897417,0,10.85156,8.929255,7.909046,0
10059,2023-01-20 11:09:11.682924,185997326,0,11.46792,6.808332,7.807114,0
10092,2023-01-20 11:09:11.783019,186097401,0,12.98799,6.322631,8.465995,0
10126,2023-01-20 11:09:11.882957,186197341,0,11.59278,7.718527,8.224788,0
10157,2023-01-20 11:09:11.983018,186297407,0,11.6842,9.651019,8.903732,0
10189,2023-01-20 11:09:12.082821,186397236,0,12.13112,8.462494,7.946027,0
10221,2023-01-20 11:09:12.183039,186497484,0,10.65281,10.60644,8.341457,0
10254,2023-01-20 11:09:12.282804,186597227,0,9.884097,9.533673,8.069279,0
10288,2023-01-20 11:09:12.383075,186697465,0,10.1691,10.05391,9.001143,0
10320,2023-01-20 11:09:12.482955,186797359,0,9.833187,9.108217,7.707441,0
10351,2023-01-20 11:09:12.582976,186897403,0,9.732937,10.01886,7.908512,0
10383,2023-01-20 11:09:12.682837,186997243,0,10.02689,8.894671,7.695697,0
10416,2023-01-20 11:09:12.783025,187097399,0,10.28678,9.967008,7.511768,0
10450,2023-01-20 11:09:12.882960,187197334,0,10.10981,7.457609,7.673564,0
10481,2023-01-20 11:09:12.982862,187297243,0,9.39647,8.555888,5.938943,0
10513,2023-01-20 11:09:13.082851,187397239,0,7.806938,8.735517,4.505401,0
10545,2023-01-20 11:09:13.182939,187497334,0,6.448668,7.286137,3.26283,0
10578,2023-01-20 11:09:13.282837,187597223,0,7.526521,7.548227,2.650255,0
10611,2023-01-20 11:09:13.383000,187697374,0,6.997251,6.367086,3.326228,0
10643,2023-01-20 11:09:13.482837,187797233,0,5.228361,5.812756,3.373573,0
10674,2023-01-20 11:09:13.582810,187897235,0,5.093568,5.508037,4.094441,0
10706,2023-01-20 11:09:13.682921,187997331,0,5.626414,5.859607,3.603953,0
10739,2023-01-20 11:09:13.782844,188097230,0,6.76848,6.607455,4.177368,0
10773,2023-01-20 11:09:13.882968,188197346,0,7.278114,7.786887,3.991235,0
10804,2023-01-20 11:09:13.982872,188297246,0,9.545769,6.970357,5.002628,0
10836,2023-01-20 11:09:14.082852,188397234,0,10.89977,6.598731,4.992189,0
10868,2023-01-20 11:09:14.182970,188497362,0,10.19515,6.97252,6.733208,0
10902,2023-01-20 11:09:14.282864,188597250,0,11.86595,6.728449,7.048713,0
10936,2023-01-20 11:09:14.382945,188697322,0,10.80499,7.951147,6.951773,0
10968,2023-01-20 11:09:14.482831,188797231,0,9.948456,10.20589,7.340969,0
10999,2023-01-20 11:09:14.582812,188897241,0,9.698143,10.12632,5.815491,0
11031,2023-01-20 11:09:14.682912,188997321,0,9.488997,10.26412,5.639019,0
11064,2023-01-20 11:09:14.782847,189097225,0,8.894608,10.6628,7.813579,0
11098,2023-01-20 11:09:14.882945,189197335,0,9.496217,9.16546,6.871622,0
11129,2023-01-20 11:09:14.982923,189297333,0,10.00022,9.154523,6.453125,0
11161,2023-01-20 11:09:15.082822,189397227,0,14.01108,8.370666,6.754384,0
11193,2023-01-20 11:09:15.182912,189497307,0,13.07717,8.200143,8.360209,0
11226,2023-01-20 11:09:15.282847,189597225,0,10.0703,9.339515,6.414821,0
11262,2023-01-20 11:09:15.382891,189697250,0,8.970109,10.68361,8.42448,0
11294,2023-01-20 11:09:15.482858,189797253,0,10.01147,8.630202,7.586945,0
11327,2023-01-20 11:09:15.582873,189897315,0,13.1518,6.861573,6.469513,0
11359,2023-01-20 11:09:15.682797,189997210,0,10.8134,7.072707,7.21544,0
11392,2023-01-20 11:09:15.782843,190097212,0,12.95077,8.588155,7.535769,0
11426,2023-01-20 11:09:15.882881,190197242,0,11.1424,8.907022,7.147522,0
11457,2023-01-20 11:09:15.982884,190297245,0,11.77627,8.659229,7.549259,0
11489,2023-01-20 11:09:16.082859,190397223,0,12.4274,8.808867,8.02673,0
11521,2023-01-20 11:09:16.182973,190497340,0,10.24816,10.05266,8.627789,0
11554,2023-01-20 11:09:16.282849,190597216,0,11.89719,8.856127,7.718944,0
11587,2023-01-20 11:09:16.382951,190697316,0,13.05423,8.654042,8.334306,0
11619,2023-01-20 11:09:16.482857,190797236,0,12.50532,8.176294,8.990376,0
11650,2023-01-20 11:09:16.582829,190897226,0,10.82647,8.211382,9.409399,0
11682,2023-01-20 11:09:16.682847,190997235,0,9.752961,8.671003,8.489249,0
11715,2023-01-20 11:09:16.782834,191097207,0,8.749699,9.726369,7.795084,0
11749,2023-01-20 11:09:16.882980,191197347,0,8.265514,9.415671,7.526706,0
11780,2023-01-20 11:09:16.982876,191297238,0,9.312008,8.754525,7.858976,0
11812,2023-01-20 11:09:17.082841,191397205,0,9.460917,8.650368,7.826258,0
11844,2023-01-20 11:09:17.182865,191497232,0,11.10463,8.301303,8.578991,0
11877,2023-01-20 11:09:17.282848,191597211,0,10.57221,10.62546,9.281689,0
11910,2023-01-20 11:09:17.382886,191697242,0,10.98544,11.22725,9.165694,0
11942,2023-01-20 11:09:17.482944,191797327,0,11.43621,10.01104,9.981604,0
11973,2023-01-20 11:09:17.582891,191897307,0,10.31622,8.533725,10.39493,0
12005,2023-01-20 11:09:17.682815,191997209,0,9.948029,9.064937,9.204988,0
12038,2023-01-20 11:09:17.782848,192097209,0,10.26065,9.551269,9.312403,0
12072,2023-01-20 11:09:17.882880,192197238,0,10.03883,9.249637,9.749119,0
12103,2023-01-20 11:09:17.982879,192297241,0,9.019929,9.777454,8.25241,0
12136,2023-01-20 11:09:18.082850,192397229,0,7.194825,9.711279,7.440721,0
12168,2023-01-20 11:09:18.182955,192497354,0,7.308958,8.963346,7.614142,0
12201,2023-01-20 11:09:18.275383,192597213,0,12.55547,9.085958,8.278378,0
12234,2023-01-20 11:09:18.366460,192697264,0,10.93815,9.170878,10.3651,0
12266,2023-01-20 11:09:18.463099,192797252,0,10.10581,8.111788,10.22694,0
12297,2023-01-20 11:09:18.563002,192897226,0,9.644051,8.85291,9.693476,0
12330,2023-01-20 11:09:18.662964,192997214,0,9.005224,11.82502,8.787484,0
12363,2023-01-20 11:09:18.763065,193097314,0,8.966159,12.60903,7.935318,0
12397,2023-01-20 11:09:18.863075,193197359,0,8.133289,11.50899,8.005268,0
12428,2023-01-20 11:09:18.962901,193297240,0,7.122607,11.78773,7.822758,0
12460,2023-01-20 11:09:19.062855,193397201,0,7.960289,11.29938,8.170078,0
12492,2023-01-20 11:09:19.162910,193497233,0,7.731242,12.07335,7.704311,0
12525,2023-01-20 11:09:19.262954,193597207,0,8.419165,12.17492,7.607847,0
12560,2023-01-20 11:09:19.363167,193697322,0,8.295131,11.84536,8.8909,0
12592,2023-01-20 11:09:19.463122,193797338,0,9.64734,12.5237,8.083874,0
12623,2023-01-20 11:09:19.562875,193897243,0,9.185472,11.81517,10.12061,0
12656,2023-01-20 11:09:19.662799,193997202,0,9.263283,10.55065,9.994592,0
12690,2023-01-20 11:09:19.762839,194097208,0,10.42916,11.41867,11.26296,0
12724,2023-01-20 11:09:19.862871,194197234,0,11.41428,11.66744,11.56333,0
12755,2023-01-20 11:09:19.962870,194297243,0,11.87171,12.07743,11.2638,0
12788,2023-01-20 11:09:20.062886,194397255,0,11.01147,12.01551,10.64728,0
12820,2023-01-20 11:09:20.162983,194497340,0,10.88475,12.25234,12.40286,0
12852,2023-01-20 11:09:20.262849,194597208,0,13.11705,11.77521,12.79297,0
12886,2023-01-20 11:09:20.362873,194697242,0,11.61749,12.08072,12.08455,0
12918,2023-01-20 11:09:20.462840,194797227,0,10.83888,12.42807,10.67372,0
12951,2023-01-20 11:09:20.562804,194897214,0,11.64616,12.74983,12.5049,0
12984,2023-01-20 11:09:20.662819,194997224,0,12.45203,11.27907,12.3341,0
13017,2023-01-20 11:09:20.762867,195097250,0,13.30595,16.09141,11.06608,0
13051,2023-01-20 11:09:20.862875,195197251,0,13.24228,17.11688,10.0438,0
13082,2023-01-20 11:09:20.962869,195297248,0,12.2606,14.60721,12.3061,0
13115,2023-01-20 11:09:21.062842,195397221,0,10.03538,15.41782,12.67629,0
13146,2023-01-20 11:09:21.162876,195497253,0,10.13821,17.6441,12.22375,0
13180,2023-01-20 11:09:21.262856,195597232,0,12.30828,18.30359,12.68714,0
13214,2023-01-20 11:09:21.362865,195697241,0,15.01329,14.97844,12.45344,0
13246,2023-01-20 11:09:21.462956,195797361,0,15.1187,15.3871,11.71947,0
13277,2023-01-20 11:09:21.562860,195897311,0,14.82887,15.99019,11.68227,0
13310,2023-01-20 11:09:21.662770,195997206,0,12.35538,18.22574,11.50854,0
13343,2023-01-20 11:09:21.762817,196097203,0,10.46457,17.85177,12.23796,0
13377,2023-01-20 11:09:21.862875,196197244,0,9.841545,17.12397,12.73546,0
13408,2023-01-20 11:09:21.962862,196297235,0,11.18018,13.90668,13.02928,0
13441,2023-01-20 11:09:22.062937,196397324,0,12.37314,12.04062,13.26509,0
13472,2023-01-20 11:09:22.162835,196497243,0,12.04002,15.57359,11.71166,0
13506,2023-01-20 11:09:22.262797,196597201,0,13.30533,14.28751,11.60733,0
13540,2023-01-20 11:09:22.362849,196697233,0,13.68261,12.52205,13.53917,0
13572,2023-01-20 11:09:22.462842,196797234,0,11.85761,13.81623,10.95126,0
13603,2023-01-20 11:09:22.562821,196897238,0,10.29251,13.87002,10.60765,0
13636,2023-01-20 11:09:22.662787,196997198,0,10.0728,11.36815,10.88064,0
13669,2023-01-20 11:09:22.762922,197097309,0,11.28466,9.532074,11.54793,0
13703,2023-01-20 11:09:22.862861,197197237,0,11.48631,11.42756,11.60104,0
13734,2023-01-20 11:09:22.962848,197297221,0,11.52665,12.24212,12.03249,0
13767,2023-01-20 11:09:23.062865,197397235,0,11.2838,12.00287,12.7826,0
13798,2023-01-20 11:09:23.162880,197497247,0,11.6894,10.89814,12.09682,0
13832,2023-01-20 11:09:23.262855,197597227,0,9.357928,12.55959,10.26314,0
13866,2023-01-20 11:09:23.362978,197697359,0,9.108247,10.12375,9.121092,0
13898,2023-01-20 11:09:23.462906,197797298,0,10.92083,10.84573,9.345084,0
13929,2023-01-20 11:09:23.562822,197897227,0,9.608256,15.14247,9.47019,0
13962,2023-01-20 11:09:23.662796,197997192,0,11.14097,11.54279,11.10513,0
13995,2023-01-20 11:09:23.762841,198097214,0,10.21987,12.70626,11.62952,0
14029,2023-01-20 11:09:23.862872,198197240,0,10.65906,13.50548,10.54597,0
14060,2023-01-20 11:09:23.962862,198297237,0,12.45731,11.22056,12.08361,0
14093,2023-01-20 11:09:24.062920,198397309,0,10.72696,12.2512,11.87039,0
14124,2023-01-20 11:09:24.162841,198497250,0,10.99622,13.3892,11.25649,0
14158,2023-01-20 11:09:24.262803,198597202,0,11.22636,14.95452,11.80626,0
14192,2023-01-20 11:09:24.362863,198697236,0,11.8422,11.84989,11.7614,0
14225,2023-01-20 11:09:24.462867,198797248,0,10.95289,13.98975,10.3558,0
14256,2023-01-20 11:09:24.562809,198897219,0,14.06523,9.969085,13.36519,0
14289,2023-01-20 11:09:24.662833,198997251,0,13.13521,13.23386,12.38236,0
14322,2023-01-20 11:09:24.762830,199097242,0,10.57811,16.47202,11.93141,0
14356,2023-01-20 11:09:24.862847,199197245,0,10.68273,13.6301,12.0732,0
14387,2023-01-20 11:09:24.962861,199297240,0,11.73099,14.05495,11.2008,0
14420,2023-01-20 11:09:25.062843,199397215,0,14.15297,13.32234,12.32623,0
14451,2023-01-20 11:09:25.162922,199497293,0,13.56592,15.57273,11.88277,0
14485,2023-01-20 11:09:25.262838,199597203,0,12.25531,16.41458,11.89256,0
14519,2023-01-20 11:09:25.363000,199697355,0,13.52173,15.30804,11.22462,0
14551,2023-01-20 11:09:25.462851,199797226,0,12.84074,13.69334,10.81361,0
14584,2023-01-20 11:09:25.562792,199897203,0,12.08467,14.09019,12.56003,0
14617,2023-01-20 11:09:25.662802,199997211,0,12.26893,13.90193,10.93522,0
14650,2023-01-20 11:09:25.762821,200097204,0,12.84922,12.07992,11.64162,0
14684,2023-01-20 11:09:25.862868,200197238,0,12.16553,12.07785,12.73518,0
14715,2023-01-20 11:09:25.962970,200297334,0,12.81499,14.84237,11.5841,0
14748,2023-01-20 11:09:26.062830,200397208,0,15.85467,11.36476,13.98251,0
14779,2023-01-20 11:09:26.162824,200497228,0,14.78013,14.64371,12.10852,0
14813,2023-01-20 11:09:26.262813,200597211,0,15.37298,12.86294,12.42066,0
14847,2023-01-20 11:09:26.362869,200697241,0,16.11304,9.48294,14.69173,0
14879,2023-01-20 11:09:26.462844,200797226,0,14.52072,13.74384,13.31053,0
14910,2023-01-20 11:09:26.562802,200897214,0,12.40594,14.23782,11.708,0
14943,2023-01-20 11:09:26.662833,200997254,0,10.40968,15.93117,10.35873,0
14976,2023-01-20 11:09:26.762792,201097210,0,12.10845,12.26784,11.76981,0
15010,2023-01-20 11:09:26.862839,201197236,0,11.98989,13.39803,11.24007,0
15041,2023-01-20 11:09:26.962861,201297227,0,9.559008,14.40037,11.01305,0
15074,2023-01-20 11:09:27.062844,201397205,0,9.535763,11.008,10.22612,0
15105,2023-01-20 11:09:27.162920,201497290,0,8.421146,12.40294,8.801814,0
15139,2023-01-20 11:09:27.262870,201597251,0,11.00969,11.53731,9.575139,0
15173,2023-01-20 11:09:27.362847,201697239,0,12.14677,11.7328,11.21262,0
15205,2023-01-20 11:09:27.462861,201797252,0,11.75921,15.20852,10.8637,0
15236,2023-01-20 11:09:27.562828,201897210,0,12.48724,16.35793,11.38247,0
15269,2023-01-20 11:09:27.662835,201997210,0,13.34283,16.48789,10.65124,0
15302,2023-01-20 11:09:27.762864,202097233,0,14.87544,12.98032,13.59787,0
15336,2023-01-20 11:09:27.862885,202197252,0,12.62102,14.86501,12.66162,0
15368,2023-01-20 11:09:27.963003,202297370,0,12.40882,15.39223,12.02862,0
15400,2023-01-20 11:09:28.062859,202397222,0,15.22055,11.62998,13.52006,0
15431,2023-01-20 11:09:28.162874,202497230,0,12.6884,14.42195,12.58407,0
15465,2023-01-20 11:09:28.262842,202597200,0,11.29437,13.38319,12.8338,0
15499,2023-01-20 11:09:28.362883,202697247,0,11.97888,9.761125,12.16977,0
15531,2023-01-20 11:09:28.457171,202797242,0,12.63999,13.23368,11.34167,0
15562,2023-01-20 11:09:28.548159,202897309,0,13.47474,13.82272,10.20843,0
15595,2023-01-20 11:09:28.642895,202997217,0,11.48704,14.88614,10.98999,0
15628,2023-01-20 11:09:28.742894,203097215,0,14.52609,14.75718,10.34369,0
15662,2023-01-20 11:09:28.842917,203197238,0,13.29608,14.62055,9.336277,0
15694,2023-01-20 11:09:28.942906,203297228,0,12.28956,15.08536,12.42163,0
15726,2023-01-20 11:09:29.042888,203397208,0,10.75117,18.11007,12.43065,0
15757,2023-01-20 11:09:29.142933,203497247,0,11.67096,18.70098,11.43285,0
15791,2023-01-20 11:09:29.242925,203597247,0,11.83534,18.54477,12.26128,0
15825,2023-01-20 11:09:29.342892,203697239,0,10.30792,18.20739,12.64503,0
15857,2023-01-20 11:09:29.442863,203797230,0,11.53226,13.53863,13.13473,0
15889,2023-01-20 11:09:29.542838,203897220,0,12.44305,11.36107,12.44466,0
15922,2023-01-20 11:09:29.642895,203997239,0,11.35939,13.20413,12.09622,0
15956,2023-01-20 11:09:29.743005,204097238,0,11.93561,13.26228,11.73724,0
15990,2023-01-20 11:09:29.843146,204197346,0,12.48759,11.35251,11.80071,0
16022,2023-01-20 11:09:29.942965,204297235,0,11.77056,12.3269,11.24,0
16054,2023-01-20 11:09:30.042891,204397220,0,9.942828,14.12408,10.38256,0
16085,2023-01-20 11:09:30.142861,204497235,0,11.60112,13.22547,10.06793,0
16119,2023-01-20 11:09:30.242813,204597206,0,13.53878,10.68002,12.05068,0
16153,2023-01-20 11:09:30.342873,204697251,0,10.81891,14.191,11.85623,0
16185,2023-01-20 11:09:30.442847,204797224,0,10.60775,13.32931,11.72458,0
16218,2023-01-20 11:09:30.542856,204897252,0,12.85234,11.56257,12.39984,0
16251,2023-01-20 11:09:30.642810,204997218,0,12.85652,13.49069,11.68093,0
16284,2023-01-20 11:09:30.742800,205097214,0,9.450909,15.30253,12.19052,0
16318,2023-01-20 11:09:30.842831,205197233,0,11.12644,12.90252,10.91017,0
16393,2023-01-20 11:09:30.942876,205297243,0,10.93854,11.25371,10.08936,0
16425,2023-01-20 11:09:31.042852,205397202,0,9.713605,14.47016,10.34831,0
16456,2023-01-20 11:09:31.143001,205497357,0,10.86861,12.57283,10.42969,0
16490,2023-01-20 11:09:31.242869,205597232,0,10.63059,12.88311,9.797986,0
16524,2023-01-20 11:09:31.342946,205697317,0,12.95185,9.805893,12.40444,0
16555,2023-01-20 11:09:31.443098,205797480,0,12.14945,13.16919,11.18504,0
16586,2023-01-20 11:09:31.542816,205897215,0,12.65475,15.87575,10.44255,0
16619,2023-01-20 11:09:31.642807,205997206,0,14.13823,14.08485,11.1409,0
16652,2023-01-20 11:09:31.742824,206097203,0,14.8573,12.37176,11.99193,0
16686,2023-01-20 11:09:31.842964,206197331,0,13.25482,12.31498,10.81412,0
16718,2023-01-20 11:09:31.942873,206297237,0,13.24026,10.17719,11.67827,0
16750,2023-01-20 11:09:32.042841,206397203,0,11.9278,13.56163,11.43121,0
16781,2023-01-20 11:09:32.142878,206497238,0,12.6694,12.27739,12.45178,0
16815,2023-01-20 11:09:32.242859,206597222,0,12.51237,10.55965,12.39728,0
16849,2023-01-20 11:09:32.342865,206697234,0,12.69096,11.16581,11.86805,0
16881,2023-01-20 11:09:32.443170,206797552,0,11.09801,11.70886,10.94507,0
16912,2023-01-20 11:09:32.542811,206897213,0,9.458193,13.8243,9.873367,0
16945,2023-01-20 11:09:32.642787,206997201,0,10.85258,10.72941,10.39752,0
16978,2023-01-20 11:09:32.742801,207097218,0,11.49831,12.56594,10.7113,0
17012,2023-01-20 11:09:32.842844,207197249,0,11.02612,13.44356,11.82064,0
17044,2023-01-20 11:09:32.942859,207297235,0,10.72871,14.5087,11.05214,0
17076,2023-01-20 11:09:33.042856,207397214,0,12.62156,11.74782,11.54501,0
17107,2023-01-20 11:09:33.142967,207497325,0,12.27501,14.46728,12.54262,0
17141,2023-01-20 11:09:33.242840,207597211,0,10.72697,13.54749,11.117,0
17175,2023-01-20 11:09:33.342843,207697246,0,11.93458,13.16945,11.07425,0
17207,2023-01-20 11:09:33.443099,207797520,0,10.42779,12.97232,10.81432,0
17238,2023-01-20 11:09:33.542783,207897202,0,11.62648,12.0712,10.67493,0
17271,2023-01-20 11:09:33.642807,207997215,0,10.25929,15.16358,10.58823,0
17304,2023-01-20 11:09:33.742936,208097322,0,10.30136,12.92794,10.17172,0
17338,2023-01-20 11:09:33.842977,208197347,0,12.22106,12.50155,10.99797,0
17370,2023-01-20 11:09:33.942888,208297251,0,14.10222,9.860232,13.8452,0
17402,2023-01-20 11:09:34.042876,208397234,0,11.4673,15.30251,12.4126,0
17433,2023-01-20 11:09:34.142879,208497234,0,11.64151,11.28469,12.5062,0
17467,2023-01-20 11:09:34.242913,208597268,0,11.47707,13.86717,10.75793,0
17501,2023-01-20 11:09:34.342890,208697246,0,10.38294,14.12546,10.57885,0
17533,2023-01-20 11:09:34.443157,208797524,0,13.97215,10.18078,13.01753,0
17564,2023-01-20 11:09:34.542826,208897217,0,12.03665,14.95875,12.03378,0
17598,2023-01-20 11:09:34.642831,208997228,0,12.17041,13.23958,13.01445,0
17631,2023-01-20 11:09:34.742823,209097201,0,11.43017,12.41131,12.46827,0
17665,2023-01-20 11:09:34.842877,209197242,0,12.06406,13.34889,10.91186,0
17697,2023-01-20 11:09:34.942863,209297223,0,13.16555,10.79967,12.70981,0
17729,2023-01-20 11:09:35.042895,209397253,0,11.51483,13.61308,12.17649,0
17760,2023-01-20 11:09:35.142998,209497357,0,11.99267,11.81282,11.8865,0
17794,2023-01-20 11:09:35.242834,209597207,0,11.1706,14.18692,11.70826,0
17828,2023-01-20 11:09:35.342929,209697332,0,11.225,15.12137,11.77536,0
17860,2023-01-20 11:09:35.443084,209797497,0,10.82298,14.59226,11.1373,0
17893,2023-01-20 11:09:35.542840,209897235,0,11.39614,12.65758,10.29017,0
17926,2023-01-20 11:09:35.642856,209997237,0,12.4285,9.813093,11.95639,0
17959,2023-01-20 11:09:35.742946,210097319,0,11.3901,14.5921,11.02225,0
17993,2023-01-20 11:09:35.842871,210197246,0,11.24352,12.4144,11.49683,0
18025,2023-01-20 11:09:35.942836,210297226,0,10.64156,13.53631,10.77968,0
18057,2023-01-20 11:09:36.042811,210397200,0,11.35089,12.89243,10.05188,0
18088,2023-01-20 11:09:36.142866,210497232,0,12.55334,8.831232,13.01789,0
18122,2023-01-20 11:09:36.242858,210597211,0,12.75845,10.29066,12.13721,0
18156,2023-01-20 11:09:36.343000,210697353,0,10.55887,14.93512,10.2291,0
18188,2023-01-20 11:09:36.439100,210797329,0,9.635656,16.03462,9.956972,0
18219,2023-01-20 11:09:36.529986,210897226,0,9.848294,13.93856,10.48691,0
18252,2023-01-20 11:09:36.623023,210997204,0,10.64261,10.73414,10.45159,0
18285,2023-01-20 11:09:36.723032,211097210,0,9.245325,12.62962,9.080628,0
18319,2023-01-20 11:09:36.823138,211197310,0,10.1239,10.87964,9.174156,0
18351,2023-01-20 11:09:36.923090,211297248,0,9.524249,12.58759,9.556473,0
18383,2023-01-20 11:09:37.023100,211397251,0,9.424858,13.52739,8.45185,0
18414,2023-01-20 11:09:37.123084,211497251,0,9.763103,13.57628,9.711973,0
18448,2023-01-20 11:09:37.223011,211597198,0,10.34806,13.47614,9.337873,0
18482,2023-01-20 11:09:37.323033,211697253,0,10.74098,11.37138,9.751652,0
18514,2023-01-20 11:09:37.425631,211797333,0,10.97894,13.94034,10.46489,0
18545,2023-01-20 11:09:37.536521,211897220,0,10.92513,11.7625,10.92552,0
18578,2023-01-20 11:09:37.638922,211997205,0,10.37237,13.89057,10.37759,0
18611,2023-01-20 11:09:37.729962,212097326,0,12.0108,10.7035,11.34774,0
18645,2023-01-20 11:09:37.822968,212197314,0,12.4786,11.46201,11.63736,0
18677,2023-01-20 11:09:37.922898,212297226,0,10.718,13.21039,11.55019,0
18709,2023-01-20 11:09:38.022891,212397208,0,10.58157,13.33779,10.50268,0
18740,2023-01-20 11:09:38.122922,212497250,0,12.33198,11.05348,11.41741,0
18774,2023-01-20 11:09:38.222874,212597215,0,10.25197,13.37774,11.46341,0
18808,2023-01-20 11:09:38.322992,212697349,0,10.91071,13.5804,10.01555,0
18840,2023-01-20 11:09:38.422853,212797227,0,11.44129,12.51076,10.75091,0
18871,2023-01-20 11:09:38.522815,212897204,0,10.6907,13.04784,10.91078,0
18904,2023-01-20 11:09:38.622812,212997210,0,12.11735,11.19716,11.20424,0
18937,2023-01-20 11:09:38.722831,213097217,0,11.15781,12.91576,11.71884,0
18971,2023-01-20 11:09:38.822859,213197232,0,12.1926,12.98939,11.17845,0
19003,2023-01-20 11:09:38.922884,213297246,0,12.07789,15.07913,12.53266,0
19035,2023-01-20 11:09:39.022893,213397247,0,11.61806,12.05544,12.34297,0
19066,2023-01-20 11:09:39.122863,213497221,0,11.31194,14.38721,11.73472,0
19100,2023-01-20 11:09:39.222844,213597211,0,14.05466,10.7114,13.39936,0
19134,2023-01-20 11:09:39.322857,213697248,0,14.10099,9.73621,13.90509,0
19166,2023-01-20 11:09:39.422830,213797239,0,13.81161,13.36611,12.58893,0
19197,2023-01-20 11:09:39.522822,213897227,0,10.90096,17.32018,12.5114,0
19230,2023-01-20 11:09:39.622849,213997248,0,9.904502,14.78834,13.36581,0
19265,2023-01-20 11:09:39.722827,214097214,0,12.01151,10.21229,13.75356,0
19301,2023-01-20 11:09:39.822865,214197239,0,12.3218,11.49319,11.58357,0
19333,2023-01-20 11:09:39.922945,214297308,0,11.73256,14.50144,12.00058,0
19365,2023-01-20 11:09:40.022879,214397234,0,11.4643,15.67199,11.66161,0
19396,2023-01-20 11:09:40.122960,214497319,0,11.68562,15.58476,11.49024,0
19430,2023-01-20 11:09:40.222864,214597227,0,13.07821,13.75093,11.02107,0
19464,2023-01-20 11:09:40.322985,214697350,0,15.52749,9.999825,13.20718,0
19496,2023-01-20 11:09:40.422939,214797311,0,15.09641,12.59236,12.03035,0
19529,2023-01-20 11:09:40.522839,214897231,0,12.00196,12.14786,11.94718,0
19562,2023-01-20 11:09:40.622837,214997241,0,12.76787,13.39415,11.49297,0
19595,2023-01-20 11:09:40.722829,215097216,0,13.79562,13.02398,12.3592,0
19629,2023-01-20 11:09:40.822880,215197251,0,11.74779,11.86255,11.33825,0
19661,2023-01-20 11:09:40.922991,215297351,0,14.20914,12.67742,12.30604,0
19693,2023-01-20 11:09:41.022879,215397230,0,13.98149,13.50524,11.82151,0
19724,2023-01-20 11:09:41.122897,215497250,0,12.27404,12.41762,12.12584,0
19758,2023-01-20 11:09:41.222851,215597212,0,12.51104,14.03593,11.05147,0
19792,2023-01-20 11:09:41.322848,215697241,0,14.31715,13.23849,10.91408,0
19824,2023-01-20 11:09:41.422825,215797241,0,15.41978,10.32539,13.71083,0
19855,2023-01-20 11:09:41.522812,215897220,0,13.93015,15.63956,12.52684,0
19888,2023-01-20 11:09:41.622895,215997295,0,11.74954,13.95897,12.62663,0
19921,2023-01-20 11:09:41.722822,216097214,0,12.1525,12.42015,11.85114,0
19955,2023-01-20 11:09:41.822854,216197241,0,11.85381,14.31601,11.64338,0
19987,2023-01-20 11:09:41.922852,216297243,0,14.43846,10.95547,13.04035,0
20019,2023-01-20 11:09:42.022810,216397200,0,14.33035,12.40582,12.01938,0
20050,2023-01-20 11:09:42.122876,216497249,0,11.90996,13.20086,12.66032,0
20084,2023-01-20 11:09:42.222887,216597249,0,11.80076,12.80808,11.59343,0
20118,2023-01-20 11:09:42.322872,216697242,0,14.07783,11.57716,12.40373,0
20150,2023-01-20 11:09:42.422860,216797240,0,11.44164,11.9397,11.88608,0
20181,2023-01-20 11:09:42.522815,216897209,0,13.72503,11.09033,11.95752,0
20214,2023-01-20 11:09:42.622804,216997207,0,11.13783,12.31932,12.08368,0
20247,2023-01-20 11:09:42.722844,217097238,0,13.50629,12.67701,12.10052,0
20281,2023-01-20 11:09:42.822856,217197239,0,12.3559,13.22517,12.06529,0
20313,2023-01-20 11:09:42.922997,217297363,0,12.14434,13.47613,12.1911,0
20345,2023-01-20 11:09:43.022875,217397228,0,12.81563,13.20102,11.03661,0
20376,2023-01-20 11:09:43.122896,217497250,0,12.94452,14.35419,11.39283,0
20410,2023-01-20 11:09:43.222856,217597214,0,11.18632,12.77346,11.6329,0
20444,2023-01-20 11:09:43.322955,217697327,0,14.3627,10.79259,12.62392,0
20475,2023-01-20 11:09:43.422869,217797253,0,12.19689,11.86576,12.48443,0
20506,2023-01-20 11:09:43.522912,217897306,0,12.47233,11.23768,11.26427,0
20539,2023-01-20 11:09:43.622814,217997214,0,11.06572,12.83047,11.31522,0
20572,2023-01-20 11:09:43.722826,218097215,0,10.60886,11.45635,9.814629,0
20606,2023-01-20 11:09:43.822849,218197231,0,10.22638,13.15275,10.02891,0
20638,2023-01-20 11:09:43.922859,218297252,0,10.17333,11.40306,9.26319,0
20670,2023-01-20 11:09:44.022812,218397208,0,10.60835,12.71029,9.996125,0
20701,2023-01-20 11:09:44.122859,218497232,0,10.76472,12.36804,9.631109,0
20735,2023-01-20 11:09:44.222896,218597254,0,10.72869,14.28697,10.91166,0
20769,2023-01-20 11:09:44.322874,218697242,0,11.08611,11.84624,11.03869,0
20801,2023-01-20 11:09:44.422848,218797232,0,9.801487,12.68893,9.493101,0
20832,2023-01-20 11:09:44.522787,218897210,0,11.28052,10.80179,10.23058,0
20865,2023-01-20 11:09:44.622763,218997206,0,10.90029,12.3037,10.41865,0
20898,2023-01-20 11:09:44.722830,219097232,0,10.96951,13.43972,10.80315,0
20933,2023-01-20 11:09:44.822986,219197354,0,10.72956,11.87354,10.34287,0
20965,2023-01-20 11:09:44.922882,219297240,0,11.73404,11.43105,10.63048,0
20997,2023-01-20 11:09:45.022871,219397222,0,11.86121,13.96022,11.29067,0
21028,2023-01-20 11:09:45.122884,219497234,0,11.33459,11.8287,11.57043,0
21062,2023-01-20 11:09:45.222854,219597206,0,11.11356,13.3919,10.43285,0
21096,2023-01-20 11:09:45.322882,219697247,0,12.54514,10.42228,12.1645,0
21128,2023-01-20 11:09:45.422878,219797251,0,11.35141,14.80825,11.8884,0
21161,2023-01-20 11:09:45.522950,219897314,0,11.36218,11.60794,11.93471,0
21194,2023-01-20 11:09:45.620774,219997213,0,11.54977,12.89122,10.70947,0
21227,2023-01-20 11:09:45.711655,220097205,0,13.09286,10.48914,12.30523,0
21261,2023-01-20 11:09:45.802836,220197243,0,10.50194,13.96515,11.68535,0
21293,2023-01-20 11:09:45.902795,220297240,0,11.51407,13.02681,11.22313,0
21325,2023-01-20 11:09:46.002754,220397235,0,12.83854,11.40103,11.64509,0
21356,2023-01-20 11:09:46.102877,220497324,0,11.3852,14.1851,11.88422,0
21390,2023-01-20 11:09:46.202806,220597220,0,11.29754,12.25333,11.57853,0
21424,2023-01-20 11:09:46.302810,220697238,0,12.28085,11.81998,10.94186,0
21456,2023-01-20 11:09:46.402792,220797234,0,11.94539,14.86161,11.73271,0
21487,2023-01-20 11:09:46.502771,220897224,0,11.412,11.61838,12.46428,0
21520,2023-01-20 11:09:46.602768,220997231,0,11.06193,12.88503,11.80896,0
21553,2023-01-20 11:09:46.702842,221097297,0,10.64624,14.57891,11.41366,0
21587,2023-01-20 11:09:46.802911,221197359,0,12.47523,13.27288,10.83386,0
21619,2023-01-20 11:09:46.902782,221297251,0,13.45583,9.709648,13.09457,0
21651,2023-01-20 11:09:47.002794,221397284,0,11.99598,14.96426,11.9633,0
21682,2023-01-20 11:09:47.102792,221497288,0,10.54872,13.82698,12.91552,0
21716,2023-01-20 11:09:47.202720,221597223,0,11.4352,11.03798,12.0347,0
21750,2023-01-20 11:09:47.302713,221697242,0,10.58695,14.22344,11.63737,0
21782,2023-01-20 11:09:47.402784,221797339,0,12.6947,13.14017,11.37546,0
21813,2023-01-20 11:09:47.502610,221897203,0,15.43013,9.634549,14.08208,0
21895,2023-01-20 11:09:47.602583,221997212,0,14.99448,10.99831,13.281,0
21928,2023-01-20 11:09:47.702601,222097211,0,11.75578,14.73691,12.75157,0
21962,2023-01-20 11:09:47.802652,222197242,0,12.32681,10.96404,12.55336,0
21994,2023-01-20 11:09:47.902666,222297223,0,11.50869,14.37546,12.04505,0
22026,2023-01-20 11:09:48.002696,222397221,0,15.1859,11.78688,12.67739,0
22057,2023-01-20 11:09:48.102744,222497309,0,13.0078,13.49336,12.27707,0
22091,2023-01-20 11:09:48.202609,222597213,0,11.74062,12.01591,11.04084,0
22125,2023-01-20 11:09:48.302632,222697243,0,15.37195,11.22311,11.23713,0
22157,2023-01-20 11:09:48.402618,222797237,0,12.92971,13.11674,11.7002,0
22188,2023-01-20 11:09:48.502559,222897214,0,11.6717,11.10492,10.60077,0
22221,2023-01-20 11:09:48.602535,222997224,0,12.40633,13.91066,10.30472,0
22254,2023-01-20 11:09:48.702609,223097257,0,15.79825,11.41266,12.07285,0
22288,2023-01-20 11:09:48.802627,223197235,0,13.20147,13.46658,11.99615,0
22320,2023-01-20 11:09:48.902631,223297238,0,12.31464,13.95549,11.28062,0
22352,2023-01-20 11:09:49.002604,223397210,0,14.73181,13.35706,12.11314,0
22383,2023-01-20 11:09:49.102604,223497208,0,12.01169,11.97433,11.32613,0
22416,2023-01-20 11:09:49.202625,223597227,0,13.88952,13.59419,11.29465,0
22451,2023-01-20 11:09:49.302641,223697251,0,16.36319,9.831867,12.46695,0
22483,2023-01-20 11:09:49.402732,223797349,0,15.50014,10.93723,12.8342,0
22514,2023-01-20 11:09:49.502598,223897230,0,12.10197,14.98763,12.60037,0
22547,2023-01-20 11:09:49.602587,223997234,0,11.0711,12.57248,11.13391,0
22581,2023-01-20 11:09:49.702581,224097213,0,13.46953,11.18794,12.24466,0
22615,2023-01-20 11:09:49.802638,224197255,0,11.92707,12.15464,11.67228,0
22648,2023-01-20 11:09:49.902644,224297252,0,13.46515,12.08458,11.62169,0
22680,2023-01-20 11:09:50.002714,224397314,0,11.69778,12.42959,11.61501,0
22711,2023-01-20 11:09:50.102720,224497324,0,12.40716,12.60043,11.04127,0
22744,2023-01-20 11:09:50.202611,224597218,0,10.78278,13.5987,10.2865,0
22779,2023-01-20 11:09:50.302622,224697242,0,11.71039,12.51938,11.4846,0
22811,2023-01-20 11:09:50.402600,224797233,0,13.4511,12.27628,11.21531,0
22844,2023-01-20 11:09:50.502536,224897208,0,11.27502,13.06221,10.44578,0
22877,2023-01-20 11:09:50.602594,224997304,0,12.55608,13.44851,11.21717,0
22910,2023-01-20 11:09:50.702573,225097238,0,10.93696,13.24412,11.11886,0
22944,2023-01-20 11:09:50.802631,225197252,0,12.8881,13.0265,11.7286,0
22976,2023-01-20 11:09:50.902624,225297239,0,11.91729,11.73858,12.24259,0
23008,2023-01-20 11:09:51.002598,225397208,0,12.12444,12.46982,11.30912,0
23039,2023-01-20 11:09:51.102600,225497225,0,12.4193,13.24017,11.6252,0
23072,2023-01-20 11:09:51.202575,225597215,0,11.25629,12.68436,11.53765,0
23107,2023-01-20 11:09:51.302701,225697339,0,13.36907,11.86383,12.02234,0
23139,2023-01-20 11:09:51.402672,225797309,0,11.85891,12.33592,12.62339,0
23170,2023-01-20 11:09:51.502599,225897237,0,11.73784,13.54708,11.1136,0
23203,2023-01-20 11:09:51.602592,225997229,0,14.3577,11.95198,12.63275,0
23236,2023-01-20 11:09:51.702579,226097195,0,12.11739,12.82678,13.10028,0
23270,2023-01-20 11:09:51.802664,226197258,0,11.7661,14.4575,11.59413,0
23302,2023-01-20 11:09:51.902641,226297245,0,14.03428,11.96416,12.19013,0
23334,2023-01-20 11:09:52.002707,226397321,0,12.3737,12.52786,12.02168,0
23365,2023-01-20 11:09:52.102613,226497226,0,12.69246,12.88208,11.20632,0
23398,2023-01-20 11:09:52.202602,226597213,0,12.97409,14.28708,11.79951,0
23433,2023-01-20 11:09:52.302609,226697234,0,11.66329,13.13307,11.84068,0
23465,2023-01-20 11:09:52.402615,226797253,0,13.39575,12.77264,12.04114,0
23496,2023-01-20 11:09:52.502560,226897209,0,11.23519,12.47854,11.50931,0
23529,2023-01-20 11:09:52.602657,226997315,0,12.98831,12.04917,11.84201,0
23562,2023-01-20 11:09:52.702634,227097256,0,12.10985,12.56394,11.72225,0
23596,2023-01-20 11:09:52.802670,227197256,0,13.48102,12.27656,12.0475,0
23628,2023-01-20 11:09:52.902619,227297225,0,12.17352,12.58446,12.22159,0
23660,2023-01-20 11:09:53.002590,227397214,0,11.7494,13.46763,11.76424,0
23691,2023-01-20 11:09:53.102576,227497205,0,12.07125,14.12029,11.90762,0
23724,2023-01-20 11:09:53.202650,227597283,0,10.96476,13.5567,11.41852,0
23759,2023-01-20 11:09:53.302713,227697334,0,13.15996,13.64254,11.32403,0
23791,2023-01-20 11:09:53.402631,227797240,0,11.92824,12.38505,12.03319,0
23822,2023-01-20 11:09:53.502583,227897208,0,13.74759,11.31402,11.5043,0
23855,2023-01-20 11:09:53.602581,227997221,0,11.47975,13.88246,12.10054,0
23888,2023-01-20 11:09:53.702567,228097211,0,11.84566,12.62066,11.49258,0
23922,2023-01-20 11:09:53.802659,228197306,0,14.5208,12.50239,12.20133,0
23954,2023-01-20 11:09:53.902632,228297257,0,13.33263,14.50262,12.25901,0
23986,2023-01-20 11:09:54.002622,228397225,0,11.73043,12.71579,12.65588,0
24017,2023-01-20 11:09:54.102630,228497228,0,15.08342,11.75579,12.70905,0
24049,2023-01-20 11:09:54.202649,228597242,0,12.75837,12.22973,12.05103,0
24084,2023-01-20 11:09:54.302630,228697234,0,14.23849,13.11203,11.36716,0
24116,2023-01-20 11:09:54.402634,228797248,0,15.14509,12.23173,10.78007,0
24147,2023-01-20 11:09:54.502589,228897215,0,12.46533,11.51773,11.51955,0
24180,2023-01-20 11:09:54.602678,228997315,0,12.15948,9.929558,10.64229,0
24213,2023-01-20 11:09:54.702613,229097227,0,11.02768,12.33867,10.36495,0
24247,2023-01-20 11:09:54.802660,229197251,0,11.63286,11.98144,10.22282,0
24279,2023-01-20 11:09:54.902629,229297221,0,11.62672,11.68445,10.8217,0
24312,2023-01-20 11:09:55.002635,229397228,0,10.46879,13.09764,10.90026,0
24343,2023-01-20 11:09:55.102588,229497213,0,11.21272,14.73067,11.56478,0
24376,2023-01-20 11:09:55.202567,229597223,0,14.80552,13.66069,11.43202,0
24411,2023-01-20 11:09:55.302706,229697335,0,15.4792,10.73358,11.83556,0
24443,2023-01-20 11:09:55.402628,229797231,0,13.31609,14.74224,12.13033,0
24474,2023-01-20 11:09:55.502732,229897362,0,11.77817,11.19586,11.17653,0
24509,2023-01-20 11:09:55.602556,229997214,0,12.38557,14.39017,11.43152,0
24542,2023-01-20 11:09:55.702539,230097219,0,16.21472,11.54644,11.63225,0
24576,2023-01-20 11:09:55.802312,230197240,0,15.50297,11.14038,11.88171,0
24608,2023-01-20 11:09:55.893509,230297328,0,11.98722,13.66664,12.1601,0
24638,2023-01-20 11:09:55.984513,230397204,0,11.45464,13.16377,11.99773,0
24671,2023-01-20 11:09:56.083033,230497211,0,14.60573,11.83676,12.15629,0
24702,2023-01-20 11:09:56.183076,230597226,0,12.48691,15.26464,11.83719,0
24739,2023-01-20 11:09:56.283072,230697236,0,11.58722,11.12684,12.01351,0
24769,2023-01-20 11:09:56.383040,230797228,0,11.89632,11.66436,11.62626,0
24802,2023-01-20 11:09:56.482968,230897219,0,10.82805,14.15686,11.06283,0
24833,2023-01-20 11:09:56.583090,230997413,0,14.24532,12.84853,11.16111,0
24868,2023-01-20 11:09:56.682932,231097218,0,14.46326,12.7182,12.19701,0
24900,2023-01-20 11:09:56.783010,231197236,0,11.49138,13.77033,12.66853,0
24934,2023-01-20 11:09:56.883009,231297236,0,12.07275,10.5042,12.04758,0
24964,2023-01-20 11:09:56.983110,231397351,0,12.44724,11.27717,11.50937,0
24997,2023-01-20 11:09:57.082946,231497247,0,11.64512,13.10555,11.82373,0
25028,2023-01-20 11:09:57.183075,231597446,0,12.81977,12.57371,11.08883,0
25065,2023-01-20 11:09:57.282868,231697251,0,12.27703,12.89931,12.39844,0
25095,2023-01-20 11:09:57.383032,231797414,0,13.54426,12.10992,11.08741,0
25128,2023-01-20 11:09:57.482832,231897222,0,12.22762,13.27573,12.11913,0
25159,2023-01-20 11:09:57.582989,231997388,0,11.86136,13.57652,10.9217,0
25194,2023-01-20 11:09:57.682839,232097228,0,15.05584,11.65798,10.94482,0
25226,2023-01-20 11:09:57.783028,232197402,0,16.54761,10.90709,11.5776,0
25260,2023-01-20 11:09:57.882976,232297342,0,15.19427,12.57187,9.797988,0
25290,2023-01-20 11:09:57.983042,232397403,0,13.8377,12.98454,9.050193,0
25323,2023-01-20 11:09:58.082858,232497221,0,13.76824,13.54073,9.268341,0
25354,2023-01-20 11:09:58.183013,232597379,0,11.95833,11.65021,10.07298,0
25391,2023-01-20 11:09:58.282938,232697299,0,14.97222,11.34666,11.6798,0
25421,2023-01-20 11:09:58.383044,232797397,0,12.70855,11.93309,11.77812,0
25454,2023-01-20 11:09:58.482939,232897321,0,14.56316,11.66538,11.49368,0
25485,2023-01-20 11:09:58.582970,232997389,0,12.53119,11.74701,11.51567,0
25520,2023-01-20 11:09:58.682819,233097223,0,14.67088,12.31135,12.25779,0
25552,2023-01-20 11:09:58.783062,233197439,0,14.10587,13.75402,11.72218,0
25586,2023-01-20 11:09:58.882873,233297247,0,11.94991,11.51648,11.75113,0
25616,2023-01-20 11:09:58.982984,233397360,0,11.95654,10.67222,11.53662,0
25649,2023-01-20 11:09:59.082841,233497233,0,12.17356,11.86643,10.68601,0
25680,2023-01-20 11:09:59.183013,233597425,0,12.00559,14.2366,9.781021,0
25717,2023-01-20 11:09:59.282924,233697323,0,13.998,15.29423,8.649594,0
25747,2023-01-20 11:09:59.382880,233797260,0,17.44473,12.24288,9.900151,0
25780,2023-01-20 11:09:59.482833,233897223,0,16.02281,12.38247,10.36991,0
25811,2023-01-20 11:09:59.582875,233997280,0,12.88409,12.49833,10.48581,0
25847,2023-01-20 11:09:59.682827,234097235,0,12.1797,11.50826,8.678534,0
25879,2023-01-20 11:09:59.782931,234197340,0,13.78974,10.90862,8.321413,0
25913,2023-01-20 11:09:59.882846,234297243,0,12.24095,11.73945,8.973381,0
25943,2023-01-20 11:09:59.982836,234397219,0,12.13561,12.03882,8.612794,0
25977,2023-01-20 11:10:00.082857,234497228,0,15.67974,10.84923,10.65531,0
26007,2023-01-20 11:10:00.182862,234597223,0,12.73713,13.47213,9.436899,0
26045,2023-01-20 11:10:00.282947,234697316,0,9.35767,12.95681,7.828166,0
26075,2023-01-20 11:10:00.382862,234797244,0,8.080113,12.56243,7.800474,0
26108,2023-01-20 11:10:00.482932,234897327,0,10.72167,10.69552,7.768838,0
26141,2023-01-20 11:10:00.582907,234997316,0,12.41221,10.96146,7.709857,0
26176,2023-01-20 11:10:00.682823,235097214,0,10.62783,10.47685,7.028657,0
26208,2023-01-20 11:10:00.782948,235197314,0,9.838333,9.990274,6.526613,0
26241,2023-01-20 11:10:00.882953,235297317,0,9.235183,11.61168,6.72784,0
26271,2023-01-20 11:10:00.982861,235397227,0,9.87934,10.49653,7.665721,0
26304,2023-01-20 11:10:01.082964,235497329,0,9.257385,8.816906,7.485335,0
26334,2023-01-20 11:10:01.182878,235597242,0,8.956082,7.801004,5.897981,0
26372,2023-01-20 11:10:01.282950,235697322,0,9.846324,7.645937,6.492466,0
26402,2023-01-20 11:10:01.382933,235797315,0,9.409973,7.465626,6.036098,0
26435,2023-01-20 11:10:01.482840,235897236,0,11.30546,7.013194,6.665122,0
26465,2023-01-20 11:10:01.582819,235997231,0,11.52248,10.66207,8.028469,0
26500,2023-01-20 11:10:01.682822,236097230,0,12.25476,9.070519,9.257899,0
26532,2023-01-20 11:10:01.782961,236197361,0,11.9946,12.44637,8.859099,0
26565,2023-01-20 11:10:01.882862,236297245,0,13.28529,12.29499,9.200852,0
26595,2023-01-20 11:10:01.982850,236397214,0,12.61129,11.09679,8.916303,0
26628,2023-01-20 11:10:02.082850,236497216,0,12.61327,11.50216,8.618698,0
26658,2023-01-20 11:10:02.182850,236597223,0,11.78604,11.49511,9.391849,0
26696,2023-01-20 11:10:02.282911,236697305,0,11.02308,11.21141,9.318609,0
26726,2023-01-20 11:10:02.382915,236797333,0,10.33918,11.14143,8.304175,0
26762,2023-01-20 11:10:02.482797,236897217,0,9.429174,11.45922,8.944199,0
26792,2023-01-20 11:10:02.582808,236997225,0,10.76954,9.184674,8.694581,0
26827,2023-01-20 11:10:02.682817,237097211,0,10.91568,10.01423,9.993271,0
26859,2023-01-20 11:10:02.782861,237197226,0,12.74371,9.863165,9.27316,0
26892,2023-01-20 11:10:02.882882,237297244,0,12.64766,8.533734,9.360814,0
26922,2023-01-20 11:10:02.982844,237397209,0,14.09284,7.778859,8.294299,0
26955,2023-01-20 11:10:03.082943,237497311,0,12.4691,6.197278,7.78714,0
26985,2023-01-20 11:10:03.182854,237597225,0,10.60135,11.34353,7.162838,0
27022,2023-01-20 11:10:03.282869,237697244,0,8.990452,9.965213,4.97096,0
27052,2023-01-20 11:10:03.382857,237797235,0,9.662066,8.997181,5.289755,0
27085,2023-01-20 11:10:03.482841,237897230,0,11.8689,7.156652,8.697734,0
27115,2023-01-20 11:10:03.582809,237997211,0,10.46443,6.014804,8.000865,0
27150,2023-01-20 11:10:03.682868,238097253,0,8.932198,8.110464,7.082097,0
27182,2023-01-20 11:10:03.782882,238197243,0,6.940365,11.33241,5.604124,0
27216,2023-01-20 11:10:03.882873,238297233,0,8.269156,8.960516,3.797476,0
27246,2023-01-20 11:10:03.982858,238397221,0,8.675567,9.771023,4.872844,0
27279,2023-01-20 11:10:04.082877,238497244,0,7.498304,11.67799,4.250607,0
27309,2023-01-20 11:10:04.182866,238597237,0,6.517046,10.08576,5.415655,0
27346,2023-01-20 11:10:04.282857,238697251,0,5.856125,8.497239,4.706498,0
27376,2023-01-20 11:10:04.382939,238797359,0,8.161104,8.04134,5.330471,0
27409,2023-01-20 11:10:04.482813,238897228,0,7.786382,10.20902,4.850364,0
27439,2023-01-20 11:10:04.582920,238997323,0,5.868367,8.211257,6.126354,0
27474,2023-01-20 11:10:04.683064,239097451,0,9.091551,7.700442,5.272316,0
27506,2023-01-20 11:10:04.782932,239197302,0,7.208289,8.574082,5.771823,0
27540,2023-01-20 11:10:04.882895,239297255,0,9.162686,7.353744,5.698558,0
27570,2023-01-20 11:10:04.982966,239397317,0,8.839411,8.424185,4.871641,0
27603,2023-01-20 11:10:05.075411,239497224,0,6.820305,8.70461,5.031469,0
27634,2023-01-20 11:10:05.166426,239597247,0,5.92441,11.4696,6.263385,0
27671,2023-01-20 11:10:05.263113,239697251,0,5.787115,10.13028,5.416444,0
27701,2023-01-20 11:10:05.363114,239797242,0,5.800681,8.467773,4.955562,0
27734,2023-01-20 11:10:05.470007,239897230,0,6.093648,8.352939,4.447359,0
27766,2023-01-20 11:10:05.581034,239997313,0,7.087977,7.881058,3.95383,0
27801,2023-01-20 11:10:05.675644,240097517,0,7.492987,7.414236,4.373291,0
27833,2023-01-20 11:10:05.766419,240197249,0,6.812261,8.586458,5.501496,0
27867,2023-01-20 11:10:05.863106,240297254,0,6.81956,7.907758,4.52047,0
27897,2023-01-20 11:10:05.963066,240397219,0,8.086129,6.537698,4.317881,0
27930,2023-01-20 11:10:06.070014,240497245,0,7.995323,8.111032,5.386537,0
27960,2023-01-20 11:10:06.180991,240597248,0,6.149317,9.293392,5.689672,0
28002,2023-01-20 11:10:06.275503,240697350,0,9.310044,6.850517,5.057087,0
28032,2023-01-20 11:10:06.366515,240797367,0,10.64639,10.94466,4.86893,0
28064,2023-01-20 11:10:06.463015,240897243,0,7.942559,10.6109,4.138576,0
28094,2023-01-20 11:10:06.562886,240997215,0,6.60966,8.723265,3.627913,0
28129,2023-01-20 11:10:06.663182,241097539,0,8.236392,8.468179,4.961802,0
28161,2023-01-20 11:10:06.762975,241197318,0,7.216864,10.98661,4.666178,0
28195,2023-01-20 11:10:06.862960,241297311,0,5.038611,10.77432,4.325543,0
28225,2023-01-20 11:10:06.962967,241397339,0,6.623959,8.54178,4.455942,0
28258,2023-01-20 11:10:07.062904,241497283,0,5.983055,8.613761,4.833995,0
28288,2023-01-20 11:10:07.162866,241597244,0,8.158422,8.573146,4.229374,0
28325,2023-01-20 11:10:07.262877,241697249,0,8.984289,9.199871,4.4788,0
28355,2023-01-20 11:10:07.362947,241797309,0,5.926308,10.21212,4.106442,0
28388,2023-01-20 11:10:07.462851,241897233,0,5.839385,9.75873,5.588717,0
28419,2023-01-20 11:10:07.562905,241997326,0,8.632626,9.979291,3.672399,0
28454,2023-01-20 11:10:07.663093,242097529,0,8.143181,8.562707,4.05207,0
28486,2023-01-20 11:10:07.762872,242197310,0,6.103274,11.35901,5.577129,0
28519,2023-01-20 11:10:07.862901,242297315,0,6.178875,9.552989,3.560554,0
28549,2023-01-20 11:10:07.962880,242397255,0,7.466165,8.612414,3.707852,0
28582,2023-01-20 11:10:08.062927,242497294,0,9.055501,9.302583,4.415948,0
28613,2023-01-20 11:10:08.162871,242597248,0,8.526489,8.49189,3.96801,0
28650,2023-01-20 11:10:08.262971,242697365,0,7.852639,8.459864,4.881784,0
28680,2023-01-20 11:10:08.362906,242797319,0,10.38944,8.628093,4.825109,0
28713,2023-01-20 11:10:08.462803,242897229,0,11.56497,9.438176,3.651532,0
28743,2023-01-20 11:10:08.562788,242997223,0,11.17691,9.506863,3.515424,0
