LineNo,UTC_Approx,TimeUS,C,Roll,Pitch,Yaw,VN,VE,VD,dPD,PN,PE,PD,GX,GY,GZ,OH
678,2023-01-20 11:08:47.421095,161675791,0,-2.08,0.43,173.64,-0.03303371,0.01410822,-0.001749448,-0.06388918,6.639023,-0.8010379,-0.4925525,-0.02,-0.04,0.01,738.85
1031,2023-01-20 11:08:47.516079,161775775,0,-2.08,0.43,173.64,-0.03527148,0.0147458,-0.001791719,-0.03876775,6.624416,-0.7959775,-0.4961751,-0.02,-0.04,0.01,738.85
1147,2023-01-20 11:08:47.630187,161892750,0,-2.08,0.43,173.64,-0.03843127,0.01699939,-0.003123848,-0.01790264,6.606935,-0.7857193,-0.4985459,-0.02,-0.04,0.01,738.85
1410,2023-01-20 11:08:47.738571,161995567,0,-2.09,0.43,173.64,-0.04237962,0.02272163,-0.002225626,0.009949771,6.589347,-0.7699993,-0.4984185,-0.02,-0.04,0.01,738.85
1829,2023-01-20 11:08:47.842134,162096077,0,-2.09,0.42,173.64,-0.04362778,0.02789037,-0.00318781,-0.001792937,6.576921,-0.7552733,-0.5004557,-0.02,-0.04,0.01,738.85
1874,2023-01-20 11:08:47.941896,162196081,0,-2.1,0.43,173.64,-0.04152122,0.03218732,-0.004788013,-0.0328408,6.568419,-0.7415079,-0.5039336,-0.02,-0.04,0.01,738.85
1921,2023-01-20 11:08:48.041756,162296080,0,-2.1,0.42,173.64,-0.04480924,0.03645754,-0.005578259,-0.03396473,6.551949,-0.7278647,-0.5066692,-0.02,-0.04,0.01,738.85
1967,2023-01-20 11:08:48.141750,162396070,0,-2.1,0.42,173.64,-0.05162729,0.04017128,-0.006738611,-0.02513885,6.530371,-0.7146258,-0.5088332,-0.02,-0.04,0.01,738.85
2020,2023-01-20 11:08:48.241764,162496067,0,-2.1,0.41,173.64,-0.05931446,0.04556753,-0.006810644,-0.01975309,6.504953,-0.6999286,-0.510897,-0.02,-0.04,0.01,738.85
2061,2023-01-20 11:08:48.341793,162596063,0,-2.11,0.4,173.64,-0.06947605,0.05113685,-0.006583967,-0.01713665,6.477474,-0.6844566,-0.512727,-0.02,-0.04,0.01,738.85
2117,2023-01-20 11:08:48.438031,162696062,0,-2.11,0.39,173.64,-0.07453343,0.05330831,-0.006925976,-0.01501806,6.455162,-0.6725744,-0.5142857,-0.02,-0.04,0.01,738.85
2178,2023-01-20 11:08:48.528998,162796071,0,-2.11,0.39,173.64,-0.07639108,0.05403903,-0.006746707,-0.01337454,6.437188,-0.6635329,-0.5157583,-0.02,-0.04,0.01,738.85
2238,2023-01-20 11:08:48.621935,162896062,0,-2.11,0.4,173.64,-0.07838888,0.0543199,-0.006911684,-0.01128691,6.42035,-0.6557395,-0.5168285,-0.02,-0.04,0.01,738.85
2292,2023-01-20 11:08:48.721952,162996059,0,-2.1,0.39,173.64,-0.08235857,0.05278148,-0.00634059,-0.003346991,6.400537,-0.6487994,-0.5172745,-0.02,-0.04,0.01,738.85
2347,2023-01-20 11:08:48.821971,163096063,0,-2.1,0.39,173.64,-0.08437558,0.05020964,-0.005487018,-0.0004663521,6.383472,-0.6445055,-0.5174465,-0.02,-0.04,0.01,738.85
2401,2023-01-20 11:08:48.921974,163196065,0,-2.1,0.39,173.65,-0.08456754,0.04246915,-0.005516407,0.005568029,6.367462,-0.6453553,-0.517074,-0.02,-0.04,0.01,738.85
2443,2023-01-20 11:08:49.021967,163296061,0,-2.1,0.39,173.64,-0.08418375,0.03874012,-0.005999994,0.00712747,6.352314,-0.644136,-0.5159099,-0.02,-0.04,0.01,738.85
2487,2023-01-20 11:08:49.121952,163396062,0,-2.1,0.39,173.65,-0.08608881,0.03919925,-0.004819396,0.03645188,6.334117,-0.6376734,-0.5124584,-0.02,-0.04,0.01,738.85
2529,2023-01-20 11:08:49.224360,163496062,0,-2.1,0.38,173.65,-0.09038696,0.04125589,-0.004068603,0.03387072,6.315723,-0.6305382,-0.5100386,-0.02,-0.04,0.01,738.85
2569,2023-01-20 11:08:49.335395,163596061,0,-2.1,0.38,173.65,-0.09717652,0.04477037,-0.002661701,0.02602571,6.291584,-0.6201406,-0.5080797,-0.02,-0.04,0.01,738.85
2610,2023-01-20 11:08:49.441806,163696078,0,-2.1,0.38,173.65,-0.1032926,0.04711604,-0.002407156,0.01739172,6.267671,-0.6104786,-0.506289,-0.02,-0.04,0.01,738.85
2650,2023-01-20 11:08:49.541748,163796085,0,-2.1,0.38,173.64,-0.108398,0.04886973,-0.00291315,0.01484307,6.244459,-0.601675,-0.504741,-0.02,-0.04,0.01,738.85
2690,2023-01-20 11:08:49.637949,163896065,0,-2.1,0.37,173.64,-0.1144385,0.0496625,-0.0003702432,0.01946341,6.219216,-0.5923364,-0.5022631,-0.02,-0.04,0.01,738.85
2728,2023-01-20 11:08:49.728987,163996078,0,-2.1,0.37,173.64,-0.1246385,0.05355436,0.001075607,0.03324887,6.192821,-0.5827267,-0.4992517,-0.02,-0.04,0.01,738.85
2771,2023-01-20 11:08:49.821975,164096071,0,-2.1,0.38,173.65,-0.1292038,0.05564214,0.002484243,0.02782495,6.169699,-0.5723016,-0.4970453,-0.02,-0.04,0.01,738.85
2809,2023-01-20 11:08:49.921949,164196069,0,-2.1,0.37,173.65,-0.1297487,0.05993639,0.002509614,0.01512329,6.14851,-0.5574908,-0.4956267,-0.02,-0.04,0.01,738.85
2851,2023-01-20 11:08:50.021935,164296065,0,-2.1,0.37,173.64,-0.1302033,0.06411378,0.00324008,0.01110777,6.131094,-0.5468844,-0.4940476,-0.02,-0.04,0.01,738.85
2890,2023-01-20 11:08:50.121980,164396072,0,-2.1,0.37,173.63,-0.1248698,0.0608807,0.005575817,0.0222069,6.118817,-0.5437353,-0.4916456,-0.02,-0.04,0.01,738.85
2933,2023-01-20 11:08:50.221993,164496065,0,-2.09,0.37,173.64,-0.119792,0.05527404,0.005560145,0.02437559,6.108797,-0.5400872,-0.4890541,-0.02,-0.04,0.01,738.85
2971,2023-01-20 11:08:50.321958,164596070,0,-2.09,0.37,173.65,-0.1134577,0.05021999,0.00612731,0.03192937,6.102413,-0.5348296,-0.4860092,-0.02,-0.04,0.01,738.85
3011,2023-01-20 11:08:50.421912,164696066,0,-2.09,0.37,173.65,-0.10861,0.04735278,0.008632415,0.03432862,6.095103,-0.5303282,-0.4818705,-0.02,-0.04,0.01,738.85
3053,2023-01-20 11:08:50.521868,164796070,0,-2.09,0.37,173.63,-0.1040431,0.04700294,0.01068144,0.0769733,6.085382,-0.5268931,-0.4743477,-0.02,-0.04,0.01,738.85
3093,2023-01-20 11:08:50.621843,164896069,0,-2.09,0.37,173.6,-0.09786239,0.04648583,0.01381453,0.07780837,6.074748,-0.522119,-0.4673579,-0.02,-0.04,0.01,738.85
3131,2023-01-20 11:08:50.721915,164996083,0,-2.08,0.37,173.63,-0.1058207,0.04839681,0.01618266,0.09656011,6.06012,-0.5136364,-0.4584121,-0.02,-0.04,0.01,738.85
3172,2023-01-20 11:08:50.821937,165096074,0,-2.07,0.37,173.61,-0.1038529,0.05213105,0.02130059,0.09268185,6.044668,-0.5055649,-0.4494173,-0.02,-0.04,0.01,738.85
3210,2023-01-20 11:08:50.921874,165196076,0,-2.07,0.37,173.64,-0.1088572,0.05446553,0.02212351,0.1236174,6.024496,-0.4967268,-0.4376843,-0.02,-0.04,0.01,738.85
3252,2023-01-20 11:08:51.021836,165296085,0,-2.07,0.37,173.63,-0.1134245,0.04676393,0.02614366,0.121355,6.00295,-0.4871104,-0.425053,-0.02,-0.04,0.01,738.85
3290,2023-01-20 11:08:51.121840,165396074,0,-2.08,0.37,173.66,-0.1207781,0.05717338,0.03109847,0.1875681,5.974105,-0.4737792,-0.407158,-0.02,-0.04,0.01,738.85
3333,2023-01-20 11:08:51.221846,165496079,0,-2.07,0.38,173.65,-0.1343716,0.05863789,0.03296007,0.171976,5.946948,-0.4613549,-0.3911359,-0.02,-0.04,0.01,738.85
3371,2023-01-20 11:08:51.321810,165596086,0,-2.07,0.36,173.63,-0.141674,0.06269059,0.03939245,0.2081969,5.916963,-0.4479062,-0.371242,-0.02,-0.04,0.01,738.85
3411,2023-01-20 11:08:51.421759,165696074,0,-2.08,0.37,173.65,-0.1513701,0.06561009,0.04091427,0.1885177,5.888965,-0.43814,-0.3522867,-0.02,-0.04,0.01,738.85
3451,2023-01-20 11:08:51.521744,165796075,0,-2.07,0.37,173.65,-0.15046,0.05542006,0.05125168,0.2381477,5.859198,-0.4346769,-0.3297184,-0.02,-0.04,0.01,738.85
3492,2023-01-20 11:08:51.621735,165896078,0,-2.07,0.37,173.67,-0.1544425,0.05761964,0.05734069,0.2101228,5.83722,-0.4319664,-0.3096932,-0.02,-0.04,0.01,738.85
3529,2023-01-20 11:08:51.721737,165996073,0,-2.06,0.37,173.66,-0.1545928,0.05132404,0.0607316,0.2278705,5.828376,-0.4311188,-0.2876307,-0.02,-0.04,0.01,738.85
3572,2023-01-20 11:08:51.821756,166096087,0,-2.07,0.36,173.65,-0.145592,0.05045297,0.06262942,0.1923408,5.818458,-0.4290709,-0.2682185,-0.02,-0.04,0.01,738.85
3610,2023-01-20 11:08:51.921747,166196081,0,-2.08,0.36,173.66,-0.1472191,0.04673707,0.06729145,0.2208683,5.80573,-0.4246904,-0.2457033,-0.02,-0.04,0,738.85
3652,2023-01-20 11:08:52.021742,166296076,0,-2.07,0.36,173.67,-0.1328831,0.04371537,0.07437655,0.1948441,5.793324,-0.4193195,-0.2264393,-0.02,-0.04,0,738.85
3688,2023-01-20 11:08:52.121747,166396074,0,-2.07,0.36,173.68,-0.1426248,0.04733822,0.0781877,0.1910447,5.781149,-0.4109607,-0.2075785,-0.02,-0.04,0,738.85
3723,2023-01-20 11:08:52.221760,166496082,0,-2.06,0.35,173.66,-0.136389,0.05119547,0.08662065,0.1584276,5.771245,-0.4051402,-0.1913698,-0.02,-0.04,0,738.85
3753,2023-01-20 11:08:52.321747,166596072,0,-2.07,0.35,173.67,-0.1338435,0.04518804,0.08419535,0.1627853,5.767148,-0.4040441,-0.1742457,-0.02,-0.04,0,738.85
3786,2023-01-20 11:08:52.421755,166696087,0,-2.06,0.35,173.67,-0.1244051,0.0385883,0.08612958,0.1321347,5.764019,-0.4027142,-0.16108,-0.02,-0.04,0,738.85
3818,2023-01-20 11:08:52.521746,166796104,0,-2.07,0.36,173.69,-0.1081884,0.03726508,0.08767274,0.1028232,5.76548,-0.4012883,-0.1500735,-0.02,-0.04,0,738.85
3851,2023-01-20 11:08:52.621713,166896084,0,-2.07,0.35,173.68,-0.1150322,0.03555081,0.08886943,0.07294478,5.766041,-0.3999874,-0.1413273,-0.02,-0.04,0,738.85
3881,2023-01-20 11:08:52.721736,166996074,0,-2.06,0.35,173.68,-0.09831149,0.04047785,0.09379249,0.07370766,5.768799,-0.3993164,-0.1330041,-0.02,-0.04,0,738.85
3916,2023-01-20 11:08:52.821776,167096088,0,-2.05,0.35,173.68,-0.09953611,0.0269449,0.08992335,0.05346506,5.767979,-0.3977467,-0.1263778,-0.02,-0.04,0,738.85
3946,2023-01-20 11:08:52.921760,167196070,0,-2.06,0.35,173.68,-0.08403726,0.03043193,0.09413914,0.05780147,5.762764,-0.3947288,-0.119705,-0.02,-0.04,0,738.85
3981,2023-01-20 11:08:53.021775,167296091,0,-2.06,0.35,173.71,-0.0855877,0.03218469,0.09388365,0.04940413,5.754862,-0.3908148,-0.1134569,-0.02,-0.04,0,738.85
4011,2023-01-20 11:08:53.121735,167396082,0,-2.07,0.34,173.68,-0.09397607,0.02634551,0.09426688,0.07083872,5.741034,-0.3843688,-0.1058144,-0.02,-0.04,0,738.85
4046,2023-01-20 11:08:53.221700,167496069,0,-2.06,0.35,173.72,-0.09765644,0.02943684,0.09407614,0.05824446,5.732319,-0.3806013,-0.09953185,-0.02,-0.04,0,738.85
4076,2023-01-20 11:08:53.321721,167596080,0,-2.06,0.34,173.7,-0.08420681,0.02289402,0.100413,0.07315753,5.734352,-0.3820953,-0.09240618,-0.02,-0.04,0,738.85
4109,2023-01-20 11:08:53.421714,167696074,0,-2.07,0.34,173.72,-0.07956083,0.02010196,0.09697983,0.06121866,5.736717,-0.38322,-0.08544167,-0.02,-0.04,0,738.85
4141,2023-01-20 11:08:53.521678,167796078,0,-2.05,0.38,173.71,-0.06847899,0.01568359,0.09528714,0.08604705,5.743466,-0.3848156,-0.07631559,-0.02,-0.04,0,738.85
4174,2023-01-20 11:08:53.621652,167896077,0,-1.99,0.43,173.73,-0.06553932,0.008079173,0.1056522,0.08697847,5.747561,-0.3848876,-0.06817728,-0.02,-0.04,0,738.85
4204,2023-01-20 11:08:53.721680,167996073,0,-1.94,0.42,173.57,-0.06461784,-0.003562375,0.1146512,0.115889,5.749006,-0.3822598,-0.05815315,-0.02,-0.04,0,738.85
4239,2023-01-20 11:08:53.821712,168096084,0,-1.8,0.5,173.04,-0.06164862,0.004256657,0.09767449,0.08521922,5.744693,-0.3810044,-0.04863601,-0.02,-0.04,0,738.85
4269,2023-01-20 11:08:53.921691,168196079,0,-1.37,0.54,173.18,-0.07192415,-0.02865731,0.09284318,0.1053275,5.728828,-0.3813277,-0.03793558,-0.02,-0.04,0,738.85
4305,2023-01-20 11:08:54.021678,168296082,0,-0.35,0.89,173.43,-0.06285911,-0.05034421,0.001463288,-0.0004047211,5.717385,-0.3843729,-0.0334431,-0.02,-0.04,0,738.85
4336,2023-01-20 11:08:54.121670,168396087,0,-0.82,1.18,173.84,-0.07455718,-0.0697483,-0.1819915,-0.1828555,5.715265,-0.3883818,-0.0419462,-0.02,-0.04,0,738.85
4371,2023-01-20 11:08:54.221652,168496074,0,-1.4,1.26,174.22,-0.02124523,-0.08823881,-0.3544755,-0.3287519,5.718787,-0.3970773,-0.06607916,-0.02,-0.04,0,738.85
4401,2023-01-20 11:08:54.321685,168596082,0,-1.25,0.68,174.02,-0.0294492,-0.1320566,-0.4220696,-0.3780549,5.734167,-0.4129278,-0.1034482,-0.02,-0.04,0,738.85
4434,2023-01-20 11:08:54.421693,168696079,0,-0.66,0,173.23,-0.05066163,-0.1282768,-0.4485344,-0.4677204,5.746283,-0.4278265,-0.1523974,-0.02,-0.04,0,738.85
4466,2023-01-20 11:08:54.521650,168796074,0,-0.72,-0.18,172.33,-0.04397203,-0.1857829,-0.4133174,-0.5257107,5.758011,-0.4397029,-0.206521,-0.02,-0.04,0,738.85
4499,2023-01-20 11:08:54.621624,168896073,0,-1.13,-0.66,172.28,-0.09291781,-0.1973023,-0.3526488,-0.5246538,5.758964,-0.4550921,-0.2593525,-0.02,-0.04,0,738.85
4529,2023-01-20 11:08:54.721641,168996074,0,-2.32,-0.08,172.82,-0.1277375,-0.2029621,-0.3851732,-0.5964104,5.745829,-0.4709502,-0.3146009,-0.02,-0.04,0,738.85
4564,2023-01-20 11:08:54.821676,169096094,0,-3.41,0.78,173.44,-0.1792796,-0.2453228,-0.3528183,-0.5902125,5.726863,-0.4899185,-0.3741107,-0.02,-0.04,0,738.85
4594,2023-01-20 11:08:54.921667,169196074,0,-4.47,1.25,174.46,-0.2237597,-0.2112942,-0.3321512,-0.6154456,5.6975,-0.511159,-0.4351128,-0.02,-0.04,0,738.85
4629,2023-01-20 11:08:55.021681,169296077,0,-4.71,2.3,175.3,-0.2105215,-0.1793479,-0.3143827,-0.6134154,5.664717,-0.5295429,-0.4927987,-0.02,-0.04,0,738.85
4659,2023-01-20 11:08:55.121703,169396089,0,-4.99,3.38,176.08,-0.2430289,-0.1423539,-0.2765836,-0.5661256,5.625389,-0.5416347,-0.5471115,-0.02,-0.04,0,738.85
4694,2023-01-20 11:08:55.221693,169496072,0,-5.05,4.24,176.63,-0.2478603,-0.1091398,-0.260124,-0.6937557,5.594642,-0.5504056,-0.6216663,-0.02,-0.04,0,738.85
4724,2023-01-20 11:08:55.321687,169596072,0,-5.35,4.82,176.93,-0.207873,-0.06018198,-0.2309573,-0.9586176,5.581458,-0.5532875,-0.7170166,-0.02,-0.04,0,738.85
4757,2023-01-20 11:08:55.421686,169696081,0,-5.98,4.16,176.76,-0.1612537,0.03147501,-0.2549765,-1.103874,5.56866,-0.5539885,-0.8167188,-0.02,-0.04,0,738.85
4791,2023-01-20 11:08:55.521647,169796070,0,-5.52,3.12,175.53,-0.1421201,0.06089152,-0.2802278,-1.187817,5.55455,-0.5551152,-0.9245891,-0.02,-0.04,0,738.85
4824,2023-01-20 11:08:55.621640,169896078,0,-4.83,3.3,173.75,-0.1321179,0.1171815,-0.2769759,-1.163067,5.541181,-0.5492844,-1.034392,-0.02,-0.04,0,738.85
4854,2023-01-20 11:08:55.721683,169996092,0,-3.8,4.08,172.36,-0.07456943,0.130151,-0.2704124,-1.119116,5.528074,-0.5372854,-1.141064,-0.02,-0.04,0,738.85
4889,2023-01-20 11:08:55.821690,170096077,0,-2.75,4.48,171.35,-0.04996794,0.1644446,-0.3123084,-1.073199,5.51611,-0.522117,-1.241959,-0.02,-0.04,0,738.85
4919,2023-01-20 11:08:55.921693,170196083,0,-2.21,4.15,170.38,-0.0006514129,0.13638,-0.3407719,-1.02526,5.500892,-0.5032486,-1.34156,-0.02,-0.04,0,738.85
4954,2023-01-20 11:08:56.021701,170296092,0,-2.34,3.7,169.41,0.02344284,0.1477774,-0.310501,-0.8962879,5.490473,-0.4857635,-1.434323,-0.02,-0.04,0,738.85
4984,2023-01-20 11:08:56.121684,170396068,0,-2.2,3.85,168.48,0.07533243,0.1319781,-0.2969537,-0.815754,5.480204,-0.4710433,-1.51829,-0.02,-0.04,0,738.85
5019,2023-01-20 11:08:56.221691,170496070,0,-1.46,3.65,168.52,0.0784255,0.1395405,-0.2910055,-0.7548654,5.478251,-0.4562542,-1.59703,-0.02,-0.04,0,738.85
5049,2023-01-20 11:08:56.321708,170596089,0,-1.72,2.97,169.59,0.08767157,0.1269933,-0.2973183,-0.7399706,5.486305,-0.4396457,-1.673065,-0.02,-0.04,0,738.85
5082,2023-01-20 11:08:56.421682,170696072,0,-2.06,2.39,171.09,0.1306641,0.1327998,-0.3323115,-0.7352725,5.489195,-0.4225359,-1.745525,-0.02,-0.04,0,738.85
5114,2023-01-20 11:08:56.521656,170796078,0,-2.21,2.13,172.54,0.1072765,0.1674572,-0.3762665,-0.7205011,5.475665,-0.4012672,-1.817606,-0.02,-0.04,0,738.85
5147,2023-01-20 11:08:56.621642,170896082,0,-2.36,3.02,173.57,0.1048492,0.2049211,-0.4340357,-0.7446277,5.468858,-0.3755088,-1.892804,-0.02,-0.04,-0.01,738.85
5177,2023-01-20 11:08:56.721666,170996072,0,-1.58,3.56,173.93,0.125901,0.2081798,-0.4534037,-0.769784,5.466739,-0.3411694,-1.970904,-0.02,-0.04,-0.01,738.85
5212,2023-01-20 11:08:56.821700,171096081,0,-0.83,4.17,173.76,0.159813,0.2396248,-0.489776,-0.7988654,5.471808,-0.3082473,-2.051185,-0.02,-0.04,-0.01,738.85
5242,2023-01-20 11:08:56.921704,171196093,0,-0.47,3.63,173.35,0.1915294,0.2394861,-0.5240973,-0.8496566,5.483277,-0.277009,-2.135525,-0.01,-0.04,-0.01,738.85
5277,2023-01-20 11:08:57.021684,171296077,0,-0.26,2.87,172.95,0.1953731,0.2051698,-0.5334389,-0.8507878,5.491125,-0.2493212,-2.220673,-0.02,-0.04,-0.01,738.85
5308,2023-01-20 11:08:57.121683,171396068,0,0.08,2.72,172.81,0.2161845,0.2338158,-0.5667539,-0.8868451,5.484218,-0.2256548,-2.30823,-0.02,-0.04,-0.01,738.85
5343,2023-01-20 11:08:57.221694,171496072,0,0.6,3.23,172.94,0.2420852,0.2199477,-0.5194394,-0.8191508,5.476818,-0.1987949,-2.391499,-0.01,-0.04,-0.01,738.85
5373,2023-01-20 11:08:57.321696,171596072,0,1.29,3.8,173.05,0.2532611,0.2109432,-0.5058191,-0.7724392,5.452629,-0.1639366,-2.468808,-0.01,-0.04,-0.01,738.85
5406,2023-01-20 11:08:57.421693,171696076,0,2.1,4.24,173.12,0.2665041,0.1914594,-0.5495974,-0.8002405,5.435672,-0.130904,-2.546895,-0.01,-0.03,-0.01,738.85
5438,2023-01-20 11:08:57.521654,171796073,0,2.77,3.45,173.26,0.2456163,0.1258444,-0.5848902,-0.83438,5.41184,-0.094455,-2.628629,-0.01,-0.03,-0.01,738.85
5471,2023-01-20 11:08:57.621639,171896079,0,2.53,2.89,173.91,0.2766912,0.08564736,-0.6488918,-0.9138717,5.397886,-0.06718153,-2.717378,-0.01,-0.03,-0.01,738.85
5501,2023-01-20 11:08:57.721665,171996072,0,2.24,2.49,174.57,0.2648454,0.05642105,-0.729278,-1.002337,5.383053,-0.04572034,-2.813892,-0.01,-0.03,-0.01,738.85
5536,2023-01-20 11:08:57.821714,172096096,0,2.14,1.84,175.37,0.2565577,0.01712556,-0.7762597,-1.058698,5.372338,-0.03004545,-2.917511,-0.01,-0.03,-0.01,738.85
5566,2023-01-20 11:08:57.921687,172196074,0,1.71,2.16,176.35,0.2273754,0.02950116,-0.8282258,-1.129644,5.352983,-0.01574679,-3.028345,-0.01,-0.03,-0.01,738.85
5603,2023-01-20 11:08:58.021684,172296074,0,2.81,1.99,181.43,0.1776206,0.05184949,-0.8476249,-1.169619,5.342051,-0.0002202112,-3.14478,-0.01,-0.03,-0.01,738.85
5633,2023-01-20 11:08:58.121681,172396068,0,4.76,-0.29,180.85,0.1280481,-0.02140697,-0.8536917,-1.197981,5.332441,0.02139359,-3.262291,-0.01,-0.03,-0.01,738.85
5668,2023-01-20 11:08:58.221691,172496076,0,5.47,-1.94,180.12,0.01331788,-0.05519005,-0.8314382,-1.193104,5.324923,0.03378421,-3.381008,-0.01,-0.03,-0.01,738.85
5698,2023-01-20 11:08:58.321694,172596080,0,4.4,-3.71,179.23,-0.08555035,-0.1502938,-0.756716,-1.173819,5.316957,0.04296125,-3.502178,-0.01,-0.03,-0.01,738.85
5731,2023-01-20 11:08:58.421675,172696069,0,4.02,-4.44,178.01,-0.2040145,-0.1937898,-0.6706424,-1.11588,5.301252,0.04352538,-3.616266,-0.01,-0.03,-0.01,738.85
5763,2023-01-20 11:08:58.521661,172796090,0,3.97,-4.28,176.3,-0.3420345,-0.2003812,-0.5723534,-1.027551,5.279062,0.0406625,-3.720791,-0.01,-0.03,-0.01,738.85
5796,2023-01-20 11:08:58.621648,172896096,0,3.5,-4.49,174.66,-0.4559429,-0.248024,-0.5026109,-0.9572071,5.243684,0.03013009,-3.818153,-0.01,-0.03,-0.01,738.85
5826,2023-01-20 11:08:58.721670,172996082,0,2.82,-4.12,173.88,-0.6054094,-0.2716326,-0.3940379,-0.8600478,5.196698,0.01463661,-3.908398,-0.01,-0.03,-0.01,738.85
5861,2023-01-20 11:08:58.821701,173096087,0,2.07,-3.78,173.76,-0.7139764,-0.3021005,-0.3847539,-0.8795211,5.138227,-0.0063494,-3.994628,-0.01,-0.03,-0.01,738.85
5891,2023-01-20 11:08:58.921696,173196099,0,1.84,-3.07,174.32,-0.8618414,-0.3143897,-0.3967557,-0.8962673,5.070827,-0.03402092,-4.083656,-0.01,-0.03,-0.01,738.85
5926,2023-01-20 11:08:59.019695,173296082,0,0.8,-1.93,175.27,-0.9473554,-0.3437367,-0.3923097,-0.9139481,4.997706,-0.0704993,-4.175925,-0.01,-0.03,-0.01,738.85
5958,2023-01-20 11:08:59.110593,173396083,0,-0.57,0.19,177.48,-1.019223,-0.3451138,-0.3522178,-0.8896748,4.935638,-0.1258368,-4.265665,-0.01,-0.03,-0.01,738.85
5993,2023-01-20 11:08:59.201665,173496109,0,-2.48,0.87,179.29,-1.036633,-0.3626472,-0.3120298,-0.8522335,4.860343,-0.1808806,-4.350305,-0.01,-0.03,-0.01,738.85
6023,2023-01-20 11:08:59.301649,173596090,0,-4.52,0.63,180.77,-1.029411,-0.355516,-0.2877855,-0.8581313,4.817588,-0.2459559,-4.437046,-0.01,-0.03,-0.01,738.85
6056,2023-01-20 11:08:59.401838,173696092,0,-5.4,-1.25,181.3,-1.073065,-0.3034455,-0.2681649,-0.8451492,4.759988,-0.3021742,-4.51929,-0.01,-0.03,-0.01,738.85
6087,2023-01-20 11:08:59.512945,173796083,0,-6.09,-3.44,181.49,-1.12041,-0.251658,-0.2727972,-0.8568525,4.717262,-0.3652444,-4.6037,-0.01,-0.03,-0.01,738.85
6120,2023-01-20 11:08:59.619687,173896085,0,-7.19,-5.07,181.22,-1.171111,-0.2212608,-0.2592676,-0.8364575,4.657239,-0.4180667,-4.687098,-0.01,-0.03,-0.01,738.85
6150,2023-01-20 11:08:59.710580,173996073,0,-8.35,-5.48,180.68,-1.296623,-0.1345752,-0.2384373,-0.8282825,4.589793,-0.4643683,-4.770238,-0.01,-0.03,-0.01,738.85
6186,2023-01-20 11:08:59.801677,174096118,0,-9.72,-5.52,180,-1.361667,0.0005648304,-0.2609364,-0.8344353,4.497307,-0.4935718,-4.85133,-0.01,-0.03,-0.01,738.85
6216,2023-01-20 11:08:59.901607,174196077,0,-9.91,-4.15,179.54,-1.513632,0.117401,-0.2543813,-0.8184969,4.376974,-0.516551,-4.933011,-0.01,-0.03,-0.01,738.85
6251,2023-01-20 11:09:00.001602,174296103,0,-9.59,-2.46,179.25,-1.592782,0.2159773,-0.2345484,-0.7692151,4.240634,-0.5209611,-5.009361,-0.01,-0.03,-0.01,738.85
6281,2023-01-20 11:09:00.101506,174396081,0,-8.88,-0.59,179.61,-1.642901,0.3121842,-0.2240651,-0.7565627,4.109317,-0.5395508,-5.086939,-0.01,-0.03,-0.01,738.85
6316,2023-01-20 11:09:00.201455,174496101,0,-8.79,0.77,179.92,-1.669181,0.3961768,-0.2312642,-0.7303026,3.965655,-0.538524,-5.159204,-0.01,-0.03,-0.01,738.85
6346,2023-01-20 11:09:00.301482,174596077,0,-8.04,2.24,180.4,-1.673877,0.4727545,-0.2198877,-0.713044,3.822477,-0.5499882,-5.232347,-0.01,-0.03,-0.01,738.85
6379,2023-01-20 11:09:00.401565,174696110,0,-8.03,3.1,180.64,-1.66202,0.5224306,-0.2098032,-0.6757022,3.670923,-0.5415635,-5.299388,-0.01,-0.03,-0.01,738.85
6413,2023-01-20 11:09:00.501498,174796097,0,-7.92,3.84,181.5,-1.685386,0.566024,-0.1996564,-0.6394035,3.496561,-0.562319,-5.364338,-0.01,-0.03,-0.01,738.85
6446,2023-01-20 11:09:00.601453,174896106,0,-8.38,5.08,181.97,-1.64281,0.6044222,-0.2247448,-0.639502,3.323458,-0.5608844,-5.427885,-0.01,-0.03,-0.01,738.85
6476,2023-01-20 11:09:00.701460,174996080,0,-8.02,5.73,182.46,-1.643818,0.6736381,-0.2774538,-0.6962308,3.133726,-0.5653866,-5.496856,-0.01,-0.03,-0.01,738.85
6512,2023-01-20 11:09:00.801516,175096104,0,-7.91,6.59,182.43,-1.585979,0.7273412,-0.35191,-0.7617921,2.950225,-0.5464314,-5.569756,-0.01,-0.03,-0.01,738.85
6542,2023-01-20 11:09:00.901477,175196089,0,-7.12,6.76,182.53,-1.58652,0.7748222,-0.3969619,-0.8368205,2.747034,-0.5247521,-5.652176,-0.01,-0.03,-0.01,738.85
6577,2023-01-20 11:09:01.001495,175296130,0,-4.26,7.61,182.64,-1.568555,0.7700666,-0.4245044,-0.8815293,2.553739,-0.4853463,-5.738132,-0.01,-0.03,-0.01,738.85
6607,2023-01-20 11:09:01.101535,175396094,0,-1.35,8.46,182.94,-1.528929,0.7465247,-0.4274411,-0.9216334,2.349131,-0.4591112,-5.83111,-0.01,-0.03,-0.01,738.85
6642,2023-01-20 11:09:01.201645,175496131,0,0.66,9.46,183.07,-1.493577,0.6971721,-0.4270495,-0.9354702,2.161483,-0.4240142,-5.922678,-0.01,-0.03,-0.01,738.85
6672,2023-01-20 11:09:01.301523,175596077,0,1.87,10.12,182.83,-1.394156,0.5920128,-0.4091387,-0.942243,1.971416,-0.3909864,-6.016877,-0.01,-0.03,-0.01,738.85
6705,2023-01-20 11:09:01.401499,175696120,0,2.64,10.48,182.18,-1.327696,0.4709792,-0.412474,-0.9426507,1.800207,-0.358214,-6.109436,-0.01,-0.03,-0.01,738.85
6737,2023-01-20 11:09:01.501437,175796085,0,3.25,11.02,181.45,-1.259588,0.3871171,-0.3636016,-0.8810924,1.625669,-0.3231117,-6.19852,-0.01,-0.03,-0.01,738.85
6770,2023-01-20 11:09:01.601440,175896115,0,3.83,11.49,180.68,-1.152894,0.2531747,-0.3231762,-0.807398,1.473435,-0.2949805,-6.279175,-0.01,-0.03,-0.01,738.85
6801,2023-01-20 11:09:01.701401,175996071,0,4.55,11.31,180.04,-1.04274,0.1374718,-0.3297799,-0.807368,1.302356,-0.2720383,-6.360806,-0.01,-0.04,-0.01,738.85
6836,2023-01-20 11:09:01.801424,176096088,0,3.67,11.37,179.48,-0.9731358,0.02788012,-0.3356851,-0.7933045,1.156444,-0.2587584,-6.438701,-0.01,-0.04,-0.01,738.85
6866,2023-01-20 11:09:01.901423,176196083,0,2.21,10.97,178.86,-0.8969638,-0.05924474,-0.340904,-0.8092532,1.015409,-0.2433339,-6.519676,-0.01,-0.04,-0.01,738.85
6901,2023-01-20 11:09:02.001454,176296110,0,0.39,10.76,178.2,-0.7519125,-0.1361549,-0.3565138,-0.8318551,0.8974258,-0.2379477,-6.603077,-0.01,-0.04,-0.01,738.85
6931,2023-01-20 11:09:02.101428,176396072,0,-0.76,10.31,177.86,-0.6774924,-0.1477821,-0.3720854,-0.8475853,0.7870502,-0.2294304,-6.687071,-0.01,-0.04,-0.01,738.85
6966,2023-01-20 11:09:02.201466,176496098,0,-1.37,9.72,177.76,-0.6158808,-0.1659269,-0.3525288,-0.817561,0.6972279,-0.2274941,-6.768325,-0.01,-0.04,-0.01,738.85
6996,2023-01-20 11:09:02.301454,176596082,0,-1.38,9.33,177.67,-0.5263156,-0.2071798,-0.3380667,-0.8024192,0.6054103,-0.2065518,-6.850676,-0.01,-0.04,-0.01,738.85
7029,2023-01-20 11:09:02.401486,176696112,0,-0.53,9.05,177.33,-0.4409942,-0.1933581,-0.3628466,-0.8327549,0.5326663,-0.1954289,-6.932565,-0.01,-0.04,-0.01,738.85
7061,2023-01-20 11:09:02.501407,176796082,0,0.04,8.8,176.98,-0.356014,-0.2155376,-0.4280878,-0.9186657,0.4598309,-0.1791212,-7.019842,-0.01,-0.04,-0.01,738.85
7094,2023-01-20 11:09:02.601376,176896098,0,0.28,8.55,176.66,-0.2672934,-0.2885205,-0.4544134,-0.9326497,0.4055411,-0.175718,-7.110397,-0.01,-0.04,-0.01,738.85
7124,2023-01-20 11:09:02.701395,176996072,0,-0.09,7.65,176.52,-0.1712505,-0.3393285,-0.4748424,-0.9895878,0.3781966,-0.1558193,-7.21018,-0.01,-0.04,-0.01,738.85
7159,2023-01-20 11:09:02.801462,177096095,0,0.26,6.13,176.21,-0.09340922,-0.3741924,-0.4882398,-0.9973149,0.361995,-0.1502914,-7.30672,-0.01,-0.04,-0.01,738.85
7189,2023-01-20 11:09:02.901450,177196088,0,0.94,5.06,175.93,-0.06803104,-0.4043406,-0.5266484,-1.029403,0.3594455,-0.1407823,-7.408265,-0.01,-0.04,-0.01,738.85
7224,2023-01-20 11:09:03.001489,177296131,0,1.43,2.54,175.78,-0.07685483,-0.4563519,-0.5731727,-1.040515,0.3592094,-0.1466839,-7.509659,-0.01,-0.04,-0.01,738.85
7254,2023-01-20 11:09:03.101441,177396095,0,1.67,0.61,176.35,-0.1037803,-0.4695654,-0.6274074,-1.108185,0.3627512,-0.1326679,-7.619066,-0.01,-0.04,-0.01,738.85
7289,2023-01-20 11:09:03.201441,177496106,0,2.24,-0.32,176.97,-0.1419071,-0.5587355,-0.6066644,-1.076375,0.3613994,-0.1393881,-7.727452,-0.01,-0.04,-0.01,738.85
7319,2023-01-20 11:09:03.301418,177596087,0,1.93,-1.12,177.57,-0.2279965,-0.6070228,-0.5943268,-1.099457,0.3573862,-0.1433965,-7.839235,-0.01,-0.04,-0.01,738.85
7352,2023-01-20 11:09:03.401444,177696118,0,1.5,-1.29,178.27,-0.3120624,-0.6727021,-0.6328521,-1.138804,0.3445577,-0.1672422,-7.949198,-0.01,-0.04,-0.01,738.85
7384,2023-01-20 11:09:03.501422,177796095,0,0.49,-0.64,179.19,-0.3617221,-0.722882,-0.6653807,-1.207177,0.3419234,-0.2032002,-8.07022,-0.01,-0.04,-0.01,738.85
7417,2023-01-20 11:09:03.601435,177896107,0,0.08,0.04,179.73,-0.4053243,-0.7807865,-0.6507511,-1.172137,0.3270724,-0.2536598,-8.186355,-0.01,-0.04,-0.01,738.85
7448,2023-01-20 11:09:03.701428,177996087,0,-0.57,0.65,180.01,-0.4292866,-0.8049195,-0.6323407,-1.158438,0.2969226,-0.2961642,-8.302779,-0.01,-0.04,-0.01,738.85
7483,2023-01-20 11:09:03.801439,178096086,0,-2.12,1.26,180.45,-0.4692256,-0.7814026,-0.612668,-1.093926,0.2594747,-0.3497359,-8.411753,-0.01,-0.04,-0.01,738.85
7513,2023-01-20 11:09:03.901412,178196072,0,-2.73,1.95,180.6,-0.5142694,-0.7556857,-0.5791286,-1.074518,0.209335,-0.39326,-8.522466,-0.01,-0.04,-0.01,738.85
7548,2023-01-20 11:09:04.001448,178296120,0,-3.01,1.26,180.83,-0.5507613,-0.708643,-0.5857687,-1.067338,0.1565935,-0.4425645,-8.626037,-0.01,-0.04,-0.01,738.85
7578,2023-01-20 11:09:04.101391,178396072,0,-2.74,1.06,180.83,-0.5867506,-0.7038859,-0.5976332,-1.086524,0.105042,-0.4860811,-8.734639,-0.01,-0.04,-0.01,738.85
7614,2023-01-20 11:09:04.201395,178496084,0,-1.75,1.52,180.34,-0.6322441,-0.6895514,-0.6073766,-1.092226,0.0489634,-0.5354136,-8.843086,-0.01,-0.04,-0.01,738.85
7644,2023-01-20 11:09:04.301415,178596080,0,-1.08,1.83,179.58,-0.6549898,-0.7021672,-0.6095048,-1.139279,-0.01319107,-0.5840272,-8.957626,-0.01,-0.04,-0.01,738.85
7677,2023-01-20 11:09:04.401466,178696108,0,-1.33,2.35,178.65,-0.6763738,-0.6808281,-0.6283541,-1.146802,-0.07821685,-0.6391744,-9.069328,-0.01,-0.04,-0.01,738.85
7709,2023-01-20 11:09:04.501419,178796077,0,-1.76,2.48,177.72,-0.6989004,-0.6523872,-0.6229258,-1.126658,-0.1220408,-0.6871469,-9.181803,-0.01,-0.04,-0.01,738.85
7742,2023-01-20 11:09:04.601443,178896117,0,-1.92,2.3,176.71,-0.6773663,-0.6768805,-0.621818,-1.096212,-0.1714917,-0.7397996,-9.290334,-0.01,-0.04,-0.01,738.85
7772,2023-01-20 11:09:04.701423,178996072,0,-2.05,2.05,175.81,-0.7022695,-0.6488604,-0.6543881,-1.149512,-0.2300964,-0.7882517,-9.405983,-0.01,-0.04,-0.01,738.85
7807,2023-01-20 11:09:04.801461,179096086,0,-2.04,2.61,175.12,-0.7223017,-0.6487117,-0.6856525,-1.178758,-0.2926135,-0.841556,-9.521551,-0.01,-0.04,-0.01,738.85
7837,2023-01-20 11:09:04.901417,179196079,0,-3.21,4.51,174.82,-0.6770266,-0.6417007,-0.6911506,-1.224323,-0.3625144,-0.890429,-9.644283,-0.01,-0.04,-0.01,738.85
7872,2023-01-20 11:09:05.001420,179296118,0,-4.27,6.28,174.82,-0.6722178,-0.6043056,-0.6499363,-1.169979,-0.4308711,-0.9423238,-9.761901,-0.01,-0.04,-0.01,738.85
7902,2023-01-20 11:09:05.101397,179396072,0,-4.57,6.65,174.96,-0.6418611,-0.5429674,-0.6008242,-1.100363,-0.5042412,-0.9834566,-9.874368,-0.01,-0.04,-0.01,738.85
7937,2023-01-20 11:09:05.201442,179496094,0,-3.4,3.55,175.28,-0.6471717,-0.5367447,-0.5242947,-0.9916893,-0.5737204,-1.026014,-9.975471,-0.01,-0.04,-0.01,738.85
7967,2023-01-20 11:09:05.301434,179596072,0,-2.76,0.75,175.67,-0.6502954,-0.509204,-0.4764087,-0.9877331,-0.6493824,-1.065073,-10.07922,-0.01,-0.04,-0.01,738.85
8001,2023-01-20 11:09:05.401499,179696124,0,-2.87,-0.75,176.28,-0.7184122,-0.470174,-0.4220662,-0.9431654,-0.7262307,-1.105803,-10.17494,-0.01,-0.04,-0.01,738.85
8035,2023-01-20 11:09:05.501438,179796119,0,-3.12,-1.32,176.92,-0.814423,-0.4342519,-0.3724678,-0.8947961,-0.8337655,-1.140411,-10.26545,-0.01,-0.04,-0.01,738.85
8068,2023-01-20 11:09:05.601379,179896114,0,-3.13,-0.52,177.08,-0.8714653,-0.4074782,-0.2913653,-0.7827533,-0.9414124,-1.175777,-10.34622,-0.01,-0.04,-0.01,738.85
8098,2023-01-20 11:09:05.701420,179996095,0,-2.77,0.34,176.42,-0.9473301,-0.3854575,-0.1683943,-0.6423874,-1.045748,-1.208944,-10.41686,-0.01,-0.04,-0.01,738.85
8133,2023-01-20 11:09:05.801478,180096094,0,-2.89,0.5,174.56,-1.007876,-0.3648161,-0.03055053,-0.4846227,-1.151881,-1.240831,-10.47172,-0.01,-0.04,-0.01,738.85
8163,2023-01-20 11:09:05.901415,180196071,0,-3.07,0.43,171.24,-1.060019,-0.3183359,0.09561931,-0.3635515,-1.270921,-1.272749,-10.51499,-0.01,-0.04,-0.01,738.85
8198,2023-01-20 11:09:06.001418,180296113,0,-3.43,0.64,167.34,-1.10641,-0.3012049,0.1817765,-0.2849971,-1.390568,-1.303714,-10.54745,-0.01,-0.04,-0.01,738.85
8228,2023-01-20 11:09:06.101398,180396084,0,-4.02,1.12,163.6,-1.152656,-0.2793118,0.2513331,-0.2351099,-1.496239,-1.330646,-10.57406,-0.01,-0.04,-0.01,738.85
8263,2023-01-20 11:09:06.201419,180496096,0,-4.31,1.47,160.11,-1.164643,-0.2534949,0.3081703,-0.1565506,-1.606689,-1.357514,-10.59095,-0.01,-0.04,-0.01,738.85
8293,2023-01-20 11:09:06.301393,180596072,0,-5.19,2.72,157,-1.156668,-0.2344216,0.3570216,-0.06190163,-1.735927,-1.405841,-10.59876,-0.01,-0.04,-0.01,738.85
8326,2023-01-20 11:09:06.401425,180696107,0,-6.94,3.35,154.53,-1.143979,-0.2049503,0.3935724,0.004296967,-1.860686,-1.44678,-10.60042,-0.01,-0.04,-0.01,738.85
8358,2023-01-20 11:09:06.501396,180796070,0,-8.04,3.51,152.49,-1.112235,-0.1703529,0.4216117,0.01548961,-1.975409,-1.475921,-10.60127,-0.01,-0.04,-0.01,738.85
8391,2023-01-20 11:09:06.601442,180896108,0,-9.27,3.21,150.87,-1.080629,-0.09209632,0.4384102,0.02714143,-2.087658,-1.497959,-10.59831,-0.01,-0.04,-0.01,738.85
8421,2023-01-20 11:09:06.701402,180996072,0,-9.82,2.49,149.52,-1.047804,-0.009331638,0.4464199,-0.009633785,-2.190602,-1.506086,-10.60019,-0.01,-0.04,-0.01,738.85
8456,2023-01-20 11:09:06.801415,181096089,0,-10.43,1.98,148.1,-1.009303,0.1245809,0.429658,-0.03295432,-2.293,-1.504912,-10.6006,-0.01,-0.04,-0.02,738.85
8486,2023-01-20 11:09:06.901413,181196074,0,-10.74,2.69,146.47,-0.9679144,0.232396,0.4520751,-0.02412121,-2.393937,-1.491692,-10.60428,-0.01,-0.04,-0.02,738.85
8521,2023-01-20 11:09:07.001460,181296109,0,-10.79,4.08,144.43,-0.8924909,0.3339787,0.4697371,0.004841529,-2.490594,-1.468671,-10.60351,-0.01,-0.04,-0.02,738.85
8551,2023-01-20 11:09:07.101421,181396067,0,-11.01,5.21,142.25,-0.7750167,0.3879692,0.4572142,0.0115152,-2.592408,-1.438398,-10.60019,-0.01,-0.04,-0.02,738.85
8586,2023-01-20 11:09:07.201456,181496100,0,-10.74,5.45,140.5,-0.7165251,0.4827191,0.4491095,0.0501412,-2.683076,-1.400195,-10.59275,-0.01,-0.04,-0.02,738.85
8616,2023-01-20 11:09:07.301445,181596087,0,-9.87,4.63,139.06,-0.5985923,0.5300317,0.4082133,0.03689978,-2.767957,-1.349202,-10.58789,-0.01,-0.04,-0.02,738.85
8650,2023-01-20 11:09:07.401486,181696127,0,-9.15,4.87,137.41,-0.4465276,0.5605221,0.3256975,-0.02145826,-2.837476,-1.292524,-10.58618,-0.01,-0.04,-0.02,738.85
8682,2023-01-20 11:09:07.501444,181796097,0,-7.67,5.32,135.52,-0.3758546,0.5542932,0.2423071,-0.1208057,-2.894584,-1.233068,-10.59629,-0.01,-0.04,-0.02,738.85
8715,2023-01-20 11:09:07.601455,181896120,0,-5.88,5.35,133.85,-0.2254403,0.513778,0.1458246,-0.2291641,-2.935058,-1.176903,-10.61522,-0.01,-0.04,-0.02,738.85
8745,2023-01-20 11:09:07.701441,181996085,0,-5.1,4.36,132.81,-0.1425897,0.4846857,0.03641746,-0.3722145,-2.96489,-1.123481,-10.64705,-0.01,-0.04,-0.02,738.85
8780,2023-01-20 11:09:07.801466,182096090,0,-4.68,3.21,132.6,-0.105802,0.4276166,-0.007002486,-0.4349318,-2.983863,-1.076076,-10.6877,-0.01,-0.04,-0.02,738.85
8810,2023-01-20 11:09:07.901447,182196083,0,-4.48,1.55,133.54,-0.0407407,0.4022106,-0.08040708,-0.5578931,-2.994527,-1.034278,-10.74021,-0.01,-0.04,-0.02,738.85
8845,2023-01-20 11:09:08.001463,182296111,0,-4.29,-1.07,134.88,-0.06774683,0.4169653,-0.1295668,-0.6047393,-3.002711,-0.9920036,-10.79494,-0.01,-0.04,-0.02,738.85
8875,2023-01-20 11:09:08.101411,182396077,0,-3.99,-3.1,136.03,-0.08878086,0.455043,-0.1413946,-0.5625803,-3.026557,-0.9530628,-10.84923,-0.01,-0.03,-0.02,738.85
8910,2023-01-20 11:09:08.201428,182496112,0,-3.95,-3.66,136.97,-0.1334421,0.4939242,-0.164053,-0.5415304,-3.051869,-0.9074802,-10.90194,-0.01,-0.03,-0.02,738.85
8940,2023-01-20 11:09:08.301411,182596072,0,-3.92,-2.41,137.71,-0.2053651,0.5150846,-0.1844859,-0.5592594,-3.086957,-0.8511869,-10.95792,-0.01,-0.03,-0.02,738.85
8973,2023-01-20 11:09:08.401476,182696114,0,-3.77,-1.29,138.33,-0.2051702,0.5660571,-0.2720971,-0.6643139,-3.12296,-0.790404,-11.0208,-0.01,-0.03,-0.03,738.85
9005,2023-01-20 11:09:08.501407,182796077,0,-4.22,-0.48,138.56,-0.2573657,0.6003773,-0.3253515,-0.7363406,-3.157197,-0.7266764,-11.09156,-0.01,-0.03,-0.03,738.85
9038,2023-01-20 11:09:08.601410,182896111,0,-4.67,0.41,138.26,-0.2185149,0.6230942,-0.3802088,-0.7897546,-3.189493,-0.6617377,-11.16713,-0.01,-0.03,-0.03,738.85
9068,2023-01-20 11:09:08.701413,182996081,0,-4.97,0.62,138.11,-0.2018503,0.590206,-0.454201,-0.8699503,-3.215199,-0.5966773,-11.25052,-0.01,-0.03,-0.03,738.85
9103,2023-01-20 11:09:08.801449,183096085,0,-5.08,0.23,138.14,-0.1617237,0.5971082,-0.5072398,-0.9199512,-3.23782,-0.5312822,-11.33873,-0.01,-0.03,-0.03,738.85
9135,2023-01-20 11:09:08.901434,183196083,0,-5.16,-0.97,138.22,-0.1552841,0.5976902,-0.5362094,-0.9649761,-3.252518,-0.4654861,-11.43279,-0.02,-0.03,-0.03,738.85
9170,2023-01-20 11:09:09.001328,183296120,0,-5.5,-2.22,138.13,-0.1554109,0.6498125,-0.5277791,-0.9478273,-3.26777,-0.3966886,-11.52598,-0.02,-0.03,-0.03,738.85
9200,2023-01-20 11:09:09.092374,183396067,0,-5.63,-3.19,137.88,-0.172065,0.6807964,-0.5614672,-0.9752296,-3.279118,-0.3360528,-11.62175,-0.02,-0.03,-0.03,738.85
9232,2023-01-20 11:09:09.183498,183496100,0,-5.75,-3.79,137.84,-0.2408834,0.7686534,-0.5668728,-0.9544142,-3.295648,-0.2678328,-11.71563,-0.02,-0.03,-0.03,738.85
9266,2023-01-20 11:09:09.281855,183596081,0,-5.94,-3.6,138.02,-0.2514224,0.7971708,-0.5908713,-0.9549327,-3.311036,-0.185057,-11.81052,-0.02,-0.03,-0.03,738.85
9297,2023-01-20 11:09:09.381877,183696116,0,-5.56,-3.62,138.32,-0.2448674,0.8628349,-0.6416079,-0.9926445,-3.331665,-0.09607625,-11.9077,-0.02,-0.03,-0.04,738.85
9331,2023-01-20 11:09:09.481846,183796083,0,-4.95,-3.49,138.64,-0.3127257,0.8912573,-0.6525292,-0.9918707,-3.351398,-0.002953708,-12.00566,-0.02,-0.03,-0.04,738.85
9362,2023-01-20 11:09:09.581874,183896107,0,-4.83,-2.86,138.9,-0.3460903,0.9433141,-0.6599756,-0.9915042,-3.376694,0.09399581,-12.10584,-0.02,-0.03,-0.04,738.85
9395,2023-01-20 11:09:09.681851,183996067,0,-4.76,-1.93,139.24,-0.3709423,0.9691583,-0.6916795,-1.057462,-3.402278,0.1958996,-12.21224,-0.02,-0.03,-0.04,738.85
9429,2023-01-20 11:09:09.781874,184096071,0,-4.77,-1.04,139.68,-0.3864389,0.9787415,-0.7246565,-1.114059,-3.431899,0.29754,-12.32067,-0.02,-0.03,-0.04,738.85
9461,2023-01-20 11:09:09.881870,184196082,0,-4.6,-0.22,140.12,-0.3998493,0.9628637,-0.7382982,-1.153171,-3.463056,0.4038581,-12.4361,-0.02,-0.04,-0.04,738.85
9494,2023-01-20 11:09:09.981883,184296119,0,-4.4,0.26,140.47,-0.3687421,0.9507534,-0.779097,-1.208291,-3.496569,0.5079183,-12.55395,-0.02,-0.04,-0.04,738.85
9526,2023-01-20 11:09:10.081833,184396077,0,-4.76,0.7,140.46,-0.3303899,0.9535865,-0.8257146,-1.28699,-3.52901,0.6210793,-12.67887,-0.02,-0.04,-0.04,738.85
9558,2023-01-20 11:09:10.181868,184496116,0,-4.7,1.34,140.34,-0.2964122,0.9422569,-0.8513467,-1.319564,-3.561462,0.7309331,-12.80712,-0.02,-0.04,-0.05,738.85
9591,2023-01-20 11:09:10.281826,184596075,0,-4.42,1.59,139.99,-0.2994685,0.9100179,-0.8946299,-1.372898,-3.589519,0.8417274,-12.94177,-0.02,-0.04,-0.05,738.85
9622,2023-01-20 11:09:10.381842,184696092,0,-4.53,1.55,139.49,-0.2699859,0.8811797,-0.9074687,-1.386376,-3.614793,0.9456508,-13.07753,-0.02,-0.04,-0.05,738.85
9656,2023-01-20 11:09:10.481742,184796083,0,-4.64,1.07,138.86,-0.2308497,0.8753026,-0.9232824,-1.397918,-3.635672,1.046127,-13.21697,-0.02,-0.04,-0.05,738.85
9689,2023-01-20 11:09:10.581646,184896098,0,-4.69,0.28,138.41,-0.1807535,0.8322305,-0.9367856,-1.395788,-3.654857,1.14127,-13.35441,-0.02,-0.04,-0.05,738.85
9721,2023-01-20 11:09:10.681649,184996067,0,-4.63,0.19,138.01,-0.171839,0.7834032,-0.9276184,-1.41577,-3.669054,1.232803,-13.49623,-0.02,-0.04,-0.05,738.85
9754,2023-01-20 11:09:10.781770,185096121,0,-4.72,0.3,137.59,-0.1409762,0.7664829,-0.9470848,-1.45222,-3.682082,1.320026,-13.64,-0.02,-0.04,-0.05,738.85
9786,2023-01-20 11:09:10.881716,185196074,0,-5.07,0.04,137.32,-0.1162137,0.7651081,-0.9653804,-1.501452,-3.704218,1.402169,-13.7887,-0.02,-0.03,-0.05,738.85
9819,2023-01-20 11:09:10.981713,185296093,0,-5.54,-0.36,137.09,-0.1050535,0.7754481,-0.951585,-1.498807,-3.723998,1.480393,-13.93556,-0.02,-0.03,-0.05,738.85
9852,2023-01-20 11:09:11.081682,185396072,0,-6.09,-0.19,136.99,-0.06843812,0.7304911,-0.9253735,-1.485192,-3.748197,1.562483,-14.08534,-0.02,-0.03,-0.05,738.85
9884,2023-01-20 11:09:11.181698,185496096,0,-6.48,-0.03,136.9,-0.02974364,0.7485406,-0.9208376,-1.477143,-3.767316,1.643398,-14.23162,-0.02,-0.03,-0.05,738.85
9917,2023-01-20 11:09:11.281667,185596077,0,-6.36,-0.4,136.86,-0.01571011,0.7657992,-0.8748887,-1.438861,-3.794508,1.730382,-14.37544,-0.02,-0.03,-0.05,738.85
9948,2023-01-20 11:09:11.381681,185696105,0,-6.52,-0.04,136.65,0.00493775,0.7506487,-0.8679354,-1.412119,-3.814229,1.81595,-14.51475,-0.02,-0.03,-0.05,738.85
9981,2023-01-20 11:09:11.481650,185796074,0,-6.99,0.17,136.28,0.04084738,0.773114,-0.8646685,-1.432519,-3.827779,1.90686,-14.65942,-0.02,-0.03,-0.05,738.85
10012,2023-01-20 11:09:11.581676,185896096,0,-6.81,0.06,136.09,0.0967958,0.7691416,-0.8710005,-1.442654,-3.833531,1.995001,-14.79998,-0.02,-0.03,-0.05,738.85
10044,2023-01-20 11:09:11.681665,185996068,0,-6.33,-0.26,136.34,0.1504925,0.7562517,-0.8742976,-1.457245,-3.840242,2.08494,-14.94547,-0.02,-0.03,-0.05,738.85
10077,2023-01-20 11:09:11.781723,186096106,0,-5.93,-0.23,136.69,0.1518825,0.8053682,-0.8374562,-1.404461,-3.840765,2.173199,-15.08603,-0.02,-0.03,-0.05,738.85
10109,2023-01-20 11:09:11.881695,186196078,0,-5.89,-0.14,136.9,0.194866,0.7884281,-0.8471777,-1.437147,-3.84444,2.25603,-15.22915,-0.02,-0.03,-0.05,738.85
10142,2023-01-20 11:09:11.981697,186296086,0,-5.93,-0.31,137.14,0.2266843,0.7955775,-0.8456395,-1.433855,-3.841411,2.338171,-15.37029,-0.02,-0.03,-0.05,738.85
10174,2023-01-20 11:09:12.081661,186396076,0,-5.88,-0.26,137.33,0.219666,0.8074581,-0.8110231,-1.420306,-3.841016,2.418906,-15.51337,-0.02,-0.03,-0.05,738.85
10206,2023-01-20 11:09:12.181666,186496110,0,-5.95,-0.09,137.59,0.2458275,0.8172723,-0.8124182,-1.422296,-3.834512,2.498151,-15.6521,-0.02,-0.02,-0.06,738.85
10239,2023-01-20 11:09:12.281644,186596067,0,-5.98,-0.11,137.79,0.2455575,0.7912149,-0.7939697,-1.429669,-3.831348,2.574512,-15.79731,-0.02,-0.02,-0.06,738.85
10271,2023-01-20 11:09:12.381693,186696083,0,-5.89,0.2,137.98,0.2679807,0.8020026,-0.8023044,-1.429005,-3.822055,2.650593,-15.93772,-0.02,-0.02,-0.06,738.85
10305,2023-01-20 11:09:12.481684,186796087,0,-5.7,0.19,138.24,0.2815234,0.7680581,-0.8010677,-1.468128,-3.81318,2.719261,-16.08527,-0.03,-0.02,-0.06,738.85
10336,2023-01-20 11:09:12.581661,186896088,0,-5.82,0.01,138.47,0.3159493,0.7763745,-0.8118772,-1.480787,-3.797972,2.789455,-16.23047,-0.03,-0.02,-0.06,738.85
10368,2023-01-20 11:09:12.681662,186996068,0,-5.36,-0.25,138.56,0.32641,0.7378902,-0.7792446,-1.479138,-3.789886,2.855339,-16.37994,-0.03,-0.02,-0.06,738.85
10401,2023-01-20 11:09:12.781733,187096108,0,-5.25,-0.46,138.44,0.3404912,0.7693703,-0.7571673,-1.45863,-3.776626,2.92175,-16.52267,-0.03,-0.02,-0.06,738.85
10433,2023-01-20 11:09:12.881701,187196075,0,-5.14,-0.59,138.28,0.315854,0.7640448,-0.699068,-1.431157,-3.763807,2.987726,-16.67056,-0.03,-0.02,-0.06,738.85
10466,2023-01-20 11:09:12.981693,187296074,0,-5.18,-0.78,138.22,0.3174916,0.7450976,-0.6177469,-1.340288,-3.747272,3.056209,-16.80707,-0.03,-0.02,-0.06,738.85
10498,2023-01-20 11:09:13.081693,187396081,0,-5.39,-0.68,138.14,0.2856069,0.7573096,-0.4696153,-1.220219,-3.744269,3.123903,-16.9365,-0.03,-0.02,-0.05,738.85
10530,2023-01-20 11:09:13.181680,187496075,0,-5.64,-0.33,138.01,0.2875313,0.7365035,-0.2711898,-1.000935,-3.738259,3.195156,-17.04313,-0.03,-0.01,-0.05,738.85
10563,2023-01-20 11:09:13.281682,187596068,0,-5.48,0.28,137.71,0.2669188,0.7720146,-0.08551934,-0.8294594,-3.741284,3.272453,-17.13551,-0.03,-0.01,-0.05,738.85
10594,2023-01-20 11:09:13.381709,187696083,0,-5.31,1.12,137.36,0.2698648,0.749004,0.06264764,-0.6811295,-3.739739,3.34926,-17.20757,-0.03,-0.01,-0.05,738.85
10628,2023-01-20 11:09:13.481678,187796074,0,-5.26,1.56,137.13,0.2760001,0.7275943,0.2011294,-0.5659753,-3.733192,3.42885,-17.27096,-0.02,-0.01,-0.05,738.85
10659,2023-01-20 11:09:13.581642,187896067,0,-5.24,2.02,136.87,0.320018,0.6948342,0.337433,-0.4409421,-3.720726,3.506037,-17.31861,-0.02,-0.01,-0.05,738.85
10691,2023-01-20 11:09:13.681668,187996078,0,-4.94,2,136.52,0.3347405,0.687119,0.4487741,-0.3910668,-3.707354,3.574559,-17.36211,-0.02,-0.01,-0.05,738.85
10724,2023-01-20 11:09:13.781690,188096076,0,-4.53,2.09,136.15,0.3456848,0.6345661,0.5485269,-0.3193078,-3.688155,3.640269,-17.39482,-0.02,-0.01,-0.04,738.85
10756,2023-01-20 11:09:13.881692,188196070,0,-3.01,2.49,135.73,0.3828092,0.5610183,0.6282582,-0.2979319,-3.67554,3.699366,-17.42742,-0.02,-0.01,-0.04,738.85
10789,2023-01-20 11:09:13.981708,188296082,0,-1.61,3.26,135.58,0.379924,0.5022086,0.6833703,-0.2600044,-3.657764,3.751494,-17.45082,-0.02,-0.01,-0.04,738.85
10821,2023-01-20 11:09:14.081689,188396071,0,-0.97,3.14,135.66,0.4125123,0.3727803,0.7423261,-0.2170125,-3.645555,3.794034,-17.47376,-0.02,-0.01,-0.04,738.85
10853,2023-01-20 11:09:14.181683,188496075,0,-1.16,2.78,135.84,0.3710354,0.3312336,0.7769107,-0.1665353,-3.628097,3.828156,-17.48844,-0.02,-0.01,-0.04,738.85
10886,2023-01-20 11:09:14.281693,188596080,0,-1.53,2.1,135.78,0.3933052,0.2373812,0.8058075,-0.1406967,-3.613043,3.845572,-17.50245,-0.03,0,-0.04,738.85
10919,2023-01-20 11:09:14.381693,188696071,0,-2.27,1.51,135.71,0.3954932,0.131409,0.8319955,-0.08349425,-3.592737,3.857151,-17.50905,-0.03,0,-0.04,738.85
10953,2023-01-20 11:09:14.481674,188796074,0,-2.68,0.19,135.5,0.3690796,0.09171052,0.879193,0.04143071,-3.56824,3.869307,-17.50626,-0.03,0,-0.04,738.85
10984,2023-01-20 11:09:14.581648,188896077,0,-3.03,-0.8,135.09,0.3756931,0.04937229,0.8759108,0.08928985,-3.541604,3.877893,-17.49895,-0.03,0,-0.04,738.85
11016,2023-01-20 11:09:14.681663,188996072,0,-3.13,-1.34,134.85,0.3396167,0.02425727,0.8922459,0.1338449,-3.528543,3.882117,-17.48695,-0.03,0,-0.04,738.85
11049,2023-01-20 11:09:14.781691,189096070,0,-3.55,-1.39,134.72,0.3497654,0.01469148,0.8636877,0.1311009,-3.513538,3.884201,-17.4732,-0.03,0,-0.04,738.85
11081,2023-01-20 11:09:14.881700,189196090,0,-3.68,-1.11,134.85,0.3311675,0.01077531,0.8298013,0.1129983,-3.508216,3.884099,-17.46034,-0.03,0,-0.04,738.85
11114,2023-01-20 11:09:14.981671,189296081,0,-4.45,-0.64,134.86,0.3164644,-0.005939157,0.8358159,0.1827944,-3.498949,3.884336,-17.44125,-0.03,0,-0.04,738.85
11146,2023-01-20 11:09:15.081665,189396070,0,-4.47,-0.9,134.76,0.2824299,-0.008250262,0.8333045,0.1932738,-3.497828,3.882262,-17.42454,-0.03,0,-0.03,738.85
11178,2023-01-20 11:09:15.181688,189496083,0,-4.67,-1.54,134.78,0.2337048,0.01680753,0.8374047,0.1779393,-3.49358,3.88039,-17.40872,-0.03,0,-0.03,738.85
11211,2023-01-20 11:09:15.281694,189596072,0,-4.95,-2.17,134.93,0.2175271,-0.01445925,0.7798346,0.07712967,-3.494776,3.877943,-17.40028,-0.03,0,-0.03,738.85
11245,2023-01-20 11:09:15.381713,189696072,0,-5.38,-2.07,135.19,0.1863328,0.01752151,0.7873797,0.05508032,-3.49321,3.876734,-17.39479,-0.03,0,-0.03,738.85
11279,2023-01-20 11:09:15.481697,189796091,0,-6.32,-1.71,135.47,0.2017988,0.01629763,0.7747902,-0.007371483,-3.498754,3.876717,-17.3955,-0.03,0,-0.03,738.85
11312,2023-01-20 11:09:15.581637,189896078,0,-6.86,-1.1,135.81,0.1781693,0.04824848,0.7887716,0.01183064,-3.499705,3.878991,-17.39237,-0.03,0,-0.03,738.85
11344,2023-01-20 11:09:15.681658,189996072,0,-7.1,-0.78,136.24,0.1945164,0.0771628,0.7608607,-0.009805718,-3.513755,3.881355,-17.39081,-0.03,0,-0.03,738.85
11377,2023-01-20 11:09:15.781712,190096081,0,-7.74,-0.26,136.62,0.1975019,0.1121974,0.7753214,0.02728633,-3.520232,3.886089,-17.38729,-0.03,0,-0.03,738.85
11409,2023-01-20 11:09:15.881710,190196071,0,-8.23,-0.12,136.95,0.244693,0.1065356,0.7817804,0.04802734,-3.519481,3.893252,-17.38398,-0.03,0,-0.03,738.85
11442,2023-01-20 11:09:15.981721,190296082,0,-8.67,-0.14,137.23,0.2663438,0.1214483,0.7677705,0.05845926,-3.50997,3.902566,-17.3757,-0.03,0,-0.03,738.85
11474,2023-01-20 11:09:16.081723,190396087,0,-9.03,-0.3,137.51,0.297417,0.1688665,0.7454326,0.01904363,-3.495919,3.913185,-17.37397,-0.03,0,-0.03,738.85
11506,2023-01-20 11:09:16.181708,190496075,0,-9.5,-0.72,137.73,0.3364575,0.2038944,0.7255946,0.007060343,-3.472994,3.927588,-17.37141,-0.03,0,-0.03,738.85
11539,2023-01-20 11:09:16.281705,190596072,0,-9.97,-1.15,137.94,0.3923663,0.2251791,0.7168363,0.0064146,-3.441531,3.942238,-17.37101,-0.03,0,-0.03,738.85
11570,2023-01-20 11:09:16.381706,190696071,0,-10.35,-1.87,138.17,0.4552643,0.2936439,0.6788801,-0.004422371,-3.404267,3.962712,-17.3679,-0.03,0,-0.03,738.85
11604,2023-01-20 11:09:16.481691,190796070,0,-10.63,-2.18,138.05,0.4756401,0.3673797,0.6478733,-0.04462489,-3.360119,3.98592,-17.37188,-0.03,0,-0.04,738.85
11635,2023-01-20 11:09:16.581676,190896073,0,-11.25,-2.11,136.7,0.5190088,0.4381702,0.6027389,-0.09128813,-3.310343,4.018489,-17.37691,-0.03,0,-0.04,738.85
11667,2023-01-20 11:09:16.681684,190996072,0,-11.78,-2.8,133.41,0.5473444,0.5422958,0.5766892,-0.120509,-3.25213,4.050235,-17.38704,-0.03,0,-0.04,738.85
11700,2023-01-20 11:09:16.781713,191096087,0,-11.95,-3.53,128.24,0.6186277,0.6374344,0.5552088,-0.1097708,-3.188979,4.094594,-17.39514,-0.03,0,-0.04,738.85
11732,2023-01-20 11:09:16.881707,191196074,0,-11.8,-4.53,121.86,0.7062832,0.7016846,0.5474264,-0.09929816,-3.1044,4.140676,-17.40481,-0.03,0,-0.03,738.85
11765,2023-01-20 11:09:16.981712,191296074,0,-11.57,-5.72,114.91,0.7438304,0.7693937,0.547664,-0.09644015,-3.017852,4.198146,-17.41474,-0.03,0,-0.03,738.85
11797,2023-01-20 11:09:17.081707,191396071,0,-11.22,-7.47,107.57,0.8680778,0.8275325,0.5035802,-0.1653833,-2.904635,4.248464,-17.42966,-0.04,0,-0.03,738.85
11829,2023-01-20 11:09:17.181705,191496072,0,-9.87,-10.51,99.88,0.9359882,0.9052999,0.5230456,-0.1613424,-2.792678,4.313339,-17.44443,-0.04,0,-0.03,738.85
11862,2023-01-20 11:09:17.281708,191596071,0,-8.41,-13.07,91.88,1.01574,0.968759,0.5123316,-0.1595121,-2.662583,4.375421,-17.4581,-0.04,0,-0.03,738.85
11893,2023-01-20 11:09:17.381722,191696078,0,-6.38,-15.23,83.69,1.064883,1.110704,0.4899586,-0.1395789,-2.535967,4.460783,-17.46939,-0.04,0,-0.03,738.85
11927,2023-01-20 11:09:17.481702,191796084,0,-5.01,-16.15,75.56,1.167937,1.247796,0.4512435,-0.1744848,-2.38811,4.546878,-17.48665,-0.04,0,-0.02,738.85
11958,2023-01-20 11:09:17.581656,191896072,0,-2.52,-17.32,67.95,1.262473,1.405932,0.4135272,-0.1872408,-2.248026,4.659507,-17.5021,-0.03,0,-0.02,738.85
11990,2023-01-20 11:09:17.681676,191996071,0,-0.31,-17.77,60.54,1.314281,1.55533,0.3881125,-0.173127,-2.097814,4.769099,-17.51697,-0.04,-0.01,-0.01,738.85
12023,2023-01-20 11:09:17.781714,192096075,0,2,-18.28,53.4,1.375458,1.724299,0.3526202,-0.1861117,-1.953596,4.909056,-17.53346,-0.03,-0.01,-0.01,738.85
12055,2023-01-20 11:09:17.881715,192196073,0,3.46,-19.4,47.09,1.493945,1.879359,0.352124,-0.1795562,-1.780231,5.045571,-17.55288,-0.03,-0.01,0,738.85
12088,2023-01-20 11:09:17.981717,192296079,0,4.88,-20.53,42.15,1.592164,2.038729,0.3465519,-0.180419,-1.608105,5.214365,-17.57028,-0.03,-0.01,0,738.85
12121,2023-01-20 11:09:18.081701,192396080,0,5.9,-21.57,38.8,1.742008,2.190095,0.3770055,-0.1322219,-1.386447,5.383605,-17.58349,-0.03,-0.02,0,738.85
12153,2023-01-20 11:09:18.181679,192496077,0,8.03,-20.79,37.63,1.864559,2.393216,0.3594486,-0.1511409,-1.170234,5.580195,-17.5966,-0.03,-0.02,0.01,738.85
12186,2023-01-20 11:09:18.274343,192596070,0,9.77,-20.79,37.66,1.960001,2.568121,0.3373702,-0.203751,-0.889467,5.788035,-17.61621,-0.03,-0.02,0.02,738.85
12217,2023-01-20 11:09:18.365381,192696079,0,10.81,-20.26,38.77,2.085467,2.786763,0.2882254,-0.283407,-0.61992,6.026676,-17.6396,-0.03,-0.02,0.02,738.85
12251,2023-01-20 11:09:18.461918,192796071,0,10.96,-20.06,40.59,2.144143,3.012621,0.2766361,-0.3216775,-0.329165,6.271643,-17.66955,-0.03,-0.03,0.03,738.85
12282,2023-01-20 11:09:18.561848,192896071,0,10.68,-20.21,43.06,2.172531,3.217933,0.1824356,-0.4487642,-0.02381659,6.533881,-17.70861,-0.03,-0.03,0.04,738.85
12315,2023-01-20 11:09:18.661821,192996071,0,11.16,-21.04,45.73,2.23295,3.44201,0.1444459,-0.520578,0.2953272,6.810261,-17.75575,-0.04,-0.04,0.04,738.85
12348,2023-01-20 11:09:18.761825,193096074,0,10.58,-21.08,48.37,2.230785,3.685788,0.07593918,-0.6120695,0.6202306,7.101412,-17.81215,-0.04,-0.04,0.04,738.85
12380,2023-01-20 11:09:18.861809,193196092,0,10.31,-21.79,50.27,2.250923,3.90061,-0.0126053,-0.7143766,0.9629196,7.415212,-17.87746,-0.04,-0.04,0.05,738.85
12413,2023-01-20 11:09:18.961737,193296076,0,9.76,-22.17,51.58,2.270201,4.099531,-0.06494004,-0.7739798,1.312431,7.748526,-17.95113,-0.04,-0.04,0.05,738.85
12445,2023-01-20 11:09:19.061722,193396068,0,10.05,-21.99,52.54,2.341097,4.307525,-0.1202661,-0.8572034,1.68888,8.095257,-18.03333,-0.04,-0.05,0.06,738.85
12477,2023-01-20 11:09:19.161751,193496074,0,10.58,-22.08,52.89,2.328957,4.492399,-0.1683869,-0.9304093,2.0818,8.466146,-18.12266,-0.04,-0.06,0.06,738.85
12510,2023-01-20 11:09:19.261823,193596077,0,11.75,-21.68,52.92,2.351281,4.681341,-0.1723847,-0.9689574,2.48686,8.852104,-18.21732,-0.04,-0.06,0.06,738.85
12542,2023-01-20 11:09:19.361931,193696087,0,12.61,-21.47,52.59,2.311244,4.907529,-0.2137295,-1.052315,2.889906,9.253667,-18.32042,-0.05,-0.06,0.07,738.85
12577,2023-01-20 11:09:19.461859,193796072,0,12.43,-21.48,51.84,2.339768,5.124566,-0.2292468,-1.090437,3.2903,9.685033,-18.42652,-0.05,-0.07,0.07,738.85
12608,2023-01-20 11:09:19.561710,193896076,0,11.33,-21.16,51.12,2.307027,5.305243,-0.2357047,-1.048708,3.681127,10.14099,-18.52801,-0.05,-0.07,0.07,738.85
12641,2023-01-20 11:09:19.661668,193996072,0,10.11,-20.81,50.37,2.307502,5.448596,-0.2100381,-0.9746662,4.086422,10.61884,-18.62298,-0.05,-0.08,0.08,738.85
12675,2023-01-20 11:09:19.761703,194096072,0,9.32,-19.96,49.77,2.352584,5.582081,-0.1421878,-0.8427048,4.500875,11.12343,-18.71052,-0.05,-0.08,0.08,738.85
12707,2023-01-20 11:09:19.861708,194196071,0,9.22,-18.88,49.54,2.370477,5.673839,-0.1837627,-0.8565233,4.895983,11.65676,-18.79334,-0.05,-0.08,0.08,738.85
12740,2023-01-20 11:09:19.961701,194296074,0,8.46,-17.92,49.66,2.359514,5.767141,-0.1421146,-0.8161983,5.269175,12.20635,-18.87751,-0.05,-0.08,0.08,738.85
12773,2023-01-20 11:09:20.061706,194396076,0,7.5,-17.65,49.91,2.377967,5.831035,-0.1540337,-0.8691114,5.62909,12.77432,-18.96229,-0.05,-0.09,0.09,738.85
12805,2023-01-20 11:09:20.161720,194496077,0,5.93,-17.5,50.15,2.384022,5.880031,-0.1403746,-0.8472383,5.974244,13.35123,-19.04724,-0.05,-0.09,0.09,738.85
12837,2023-01-20 11:09:20.261712,194596071,0,4.97,-17.92,50.49,2.424245,5.918258,-0.06673647,-0.7789239,6.32049,13.93613,-19.1272,-0.05,-0.09,0.09,738.85
12869,2023-01-20 11:09:20.361708,194696077,0,3.45,-17.16,51.07,2.43553,5.900175,-0.1200739,-0.7962409,6.668628,14.53448,-19.20296,-0.05,-0.09,0.1,738.85
12903,2023-01-20 11:09:20.461686,194796073,0,3.07,-15.99,51.8,2.478426,5.942762,-0.2177089,-0.8974686,7.030964,15.14142,-19.28631,-0.05,-0.1,0.1,738.85
12936,2023-01-20 11:09:20.561663,194896072,0,2.71,-15.44,52.39,2.494334,5.923411,-0.2389638,-0.8883811,7.395821,15.747,-19.37504,-0.05,-0.1,0.1,738.85
12969,2023-01-20 11:09:20.661683,194996088,0,2.78,-15.98,52.52,2.509896,5.944598,-0.2003784,-0.821237,7.776911,16.36551,-19.45701,-0.05,-0.1,0.11,738.85
13002,2023-01-20 11:09:20.761687,195096070,0,2.26,-15.67,52.35,2.532651,5.92183,-0.1838311,-0.7360441,8.162111,16.98606,-19.53474,-0.05,-0.1,0.11,738.85
13034,2023-01-20 11:09:20.861702,195196079,0,1.5,-15.17,51.92,2.587285,5.892735,-0.1824041,-0.7319672,8.553131,17.61087,-19.60744,-0.04,-0.1,0.11,738.85
13067,2023-01-20 11:09:20.961705,195296084,0,1.52,-13.63,51.86,2.642732,5.870114,-0.1819253,-0.667076,8.947531,18.24507,-19.67642,-0.04,-0.1,0.12,738.85
13100,2023-01-20 11:09:21.061692,195396071,0,1.56,-12.36,51.97,2.661249,5.809514,-0.2030511,-0.6774391,9.330369,18.87663,-19.74308,-0.04,-0.1,0.12,738.85
13131,2023-01-20 11:09:21.161697,195496074,0,0.71,-11.43,51.98,2.619006,5.773283,-0.2121414,-0.6163604,9.697404,19.49633,-19.80742,-0.04,-0.1,0.12,738.85
13165,2023-01-20 11:09:21.261705,195596081,0,0.06,-11.4,52.22,2.657968,5.686162,-0.2798073,-0.6767712,10.06427,20.12251,-19.86996,-0.04,-0.1,0.12,738.85
13197,2023-01-20 11:09:21.361696,195696072,0,-0.81,-11.53,52.61,2.628994,5.626518,-0.3072881,-0.6214843,10.4253,20.74595,-19.93086,-0.04,-0.1,0.13,738.85
13231,2023-01-20 11:09:21.461698,195796102,0,-1.84,-11.77,52.98,2.671425,5.547884,-0.2961808,-0.5693956,10.79197,21.36057,-19.98654,-0.04,-0.1,0.13,738.85
13262,2023-01-20 11:09:21.561641,195896091,0,-2.07,-12.03,53.26,2.719009,5.504752,-0.3081906,-0.5123549,11.15597,21.9598,-20.03943,-0.04,-0.1,0.13,738.85
13295,2023-01-20 11:09:21.661631,195996068,0,-2.54,-12.1,53.43,2.740908,5.434527,-0.3182663,-0.5366104,11.53806,22.55464,-20.09281,-0.04,-0.11,0.13,738.85
13328,2023-01-20 11:09:21.761686,196096072,0,-2.58,-12.04,53.41,2.774919,5.35625,-0.311285,-0.5051628,11.92756,23.13826,-20.14445,-0.04,-0.1,0.13,738.85
13360,2023-01-20 11:09:21.861711,196196080,0,-2.28,-11.98,53.34,2.841644,5.336899,-0.3237912,-0.5344066,12.32431,23.70476,-20.19552,-0.04,-0.11,0.14,738.85
13393,2023-01-20 11:09:21.961700,196296073,0,-1.39,-12.01,53.26,2.877155,5.255407,-0.3718327,-0.5672745,12.72538,24.26582,-20.25229,-0.04,-0.11,0.14,738.85
13426,2023-01-20 11:09:22.061693,196396080,0,-1.1,-12.25,53.17,2.858552,5.226465,-0.3902225,-0.6129721,13.11047,24.83099,-20.31204,-0.04,-0.11,0.14,738.85
13457,2023-01-20 11:09:22.161677,196496085,0,-1.47,-12.74,52.98,2.863666,5.198314,-0.4149443,-0.6147295,13.47688,25.39179,-20.37331,-0.04,-0.11,0.14,738.85
13491,2023-01-20 11:09:22.261667,196596071,0,-2.22,-13.59,52.69,2.916197,5.143999,-0.4403173,-0.6794314,13.82879,25.94613,-20.44094,-0.04,-0.11,0.15,738.85
13523,2023-01-20 11:09:22.361688,196696072,0,-3.16,-14.3,52.4,2.914711,5.105622,-0.4344748,-0.712947,14.16717,26.49025,-20.51283,-0.04,-0.11,0.15,738.85
13557,2023-01-20 11:09:22.461691,196796083,0,-3.8,-14.81,52.24,2.971618,5.107462,-0.4394996,-0.7588196,14.50674,27.02918,-20.58629,-0.04,-0.11,0.15,738.85
13588,2023-01-20 11:09:22.561657,196896074,0,-4.16,-15.32,52.21,3.007709,5.090024,-0.5033305,-0.8075473,14.85254,27.57219,-20.66267,-0.04,-0.11,0.15,738.85
13621,2023-01-20 11:09:22.661656,196996067,0,-4.47,-15.17,52.21,3.0837,5.079675,-0.5093371,-0.8029624,15.19846,28.1178,-20.73907,-0.04,-0.11,0.16,738.85
13654,2023-01-20 11:09:22.761694,197096081,0,-4.69,-15.33,52.13,3.119366,5.065637,-0.514299,-0.7691824,15.54101,28.65761,-20.81669,-0.04,-0.11,0.16,738.85
13686,2023-01-20 11:09:22.861695,197196071,0,-4.74,-15.39,52.14,3.209949,5.035966,-0.5836563,-0.8519407,15.88914,29.20131,-20.89726,-0.04,-0.11,0.16,738.85
13719,2023-01-20 11:09:22.961698,197296071,0,-4.9,-15.58,52.19,3.281591,5.051896,-0.6299974,-0.8784927,16.23929,29.74268,-20.98293,-0.04,-0.11,0.16,738.85
13752,2023-01-20 11:09:23.061711,197396081,0,-4.99,-16.5,52.49,3.332654,5.034458,-0.5779223,-0.8372459,16.60281,30.27508,-21.06857,-0.04,-0.11,0.16,738.85
13783,2023-01-20 11:09:23.161708,197496075,0,-5.19,-17.28,52.99,3.358837,5.056991,-0.524129,-0.7748342,16.97923,30.80915,-21.14976,-0.04,-0.11,0.17,738.85
13817,2023-01-20 11:09:23.261696,197596067,0,-5.37,-16.78,53.33,3.406987,5.053915,-0.5000657,-0.8067799,17.37229,31.33646,-21.23182,-0.04,-0.11,0.17,738.85
13849,2023-01-20 11:09:23.361701,197696081,0,-5.19,-16.06,53.43,3.490392,5.055817,-0.5577933,-0.9153907,17.77269,31.85299,-21.32021,-0.05,-0.11,0.17,738.85
13883,2023-01-20 11:09:23.461685,197796077,0,-4.84,-15.76,53.32,3.525192,5.04459,-0.6029115,-1.003468,18.18069,32.37225,-21.41563,-0.05,-0.11,0.17,738.85
13914,2023-01-20 11:09:23.561682,197896087,0,-4.13,-15.78,53.19,3.600727,5.035975,-0.6483603,-1.056373,18.58881,32.88966,-21.51772,-0.05,-0.12,0.17,738.85
13947,2023-01-20 11:09:23.661678,197996074,0,-3.96,-16.68,53.05,3.622847,5.071096,-0.6400909,-1.0414,18.99399,33.40748,-21.61987,-0.05,-0.12,0.17,738.85
13980,2023-01-20 11:09:23.761700,198096073,0,-3.86,-17.48,52.97,3.645248,5.046297,-0.6487949,-0.9936453,19.40043,33.93384,-21.7188,-0.05,-0.12,0.18,738.85
14012,2023-01-20 11:09:23.861703,198196071,0,-4.05,-17.81,53.04,3.687894,5.10671,-0.6139152,-0.9956883,19.81561,34.46418,-21.8215,-0.05,-0.12,0.18,738.85
14045,2023-01-20 11:09:23.961705,198296080,0,-3.55,-17.54,53.14,3.694671,5.115271,-0.647552,-1.083521,20.23057,34.99313,-21.92723,-0.05,-0.12,0.18,738.85
14078,2023-01-20 11:09:24.061682,198396071,0,-3.66,-17.53,53.27,3.703886,5.156612,-0.6388132,-1.097734,20.63849,35.52564,-22.03565,-0.05,-0.12,0.18,738.85
14109,2023-01-20 11:09:24.161675,198496084,0,-4.23,-17.74,53.37,3.704259,5.176998,-0.5919408,-1.073534,21.03666,36.05708,-22.14376,-0.05,-0.12,0.18,738.85
14143,2023-01-20 11:09:24.261675,198596075,0,-4.56,-18.17,53.44,3.701648,5.202988,-0.5747842,-1.082378,21.43489,36.58284,-22.24862,-0.05,-0.12,0.18,738.85
14175,2023-01-20 11:09:24.361698,198696071,0,-5.4,-17.98,53.43,3.748435,5.24605,-0.5501925,-1.056912,21.83875,37.11416,-22.35351,-0.05,-0.12,0.18,738.85
14209,2023-01-20 11:09:24.461694,198796075,0,-5.6,-17.99,53.32,3.774897,5.223342,-0.5383852,-1.036038,22.23845,37.65663,-22.45604,-0.05,-0.12,0.19,738.85
14241,2023-01-20 11:09:24.561657,198896067,0,-5.94,-18.14,53.09,3.827794,5.242868,-0.5221989,-1.003522,22.63168,38.19908,-22.55726,-0.05,-0.12,0.19,738.85
14274,2023-01-20 11:09:24.661654,198996072,0,-6.26,-18.49,53.03,3.845919,5.250779,-0.5288718,-1.024016,23.04045,38.73974,-22.66013,-0.05,-0.12,0.19,738.85
14307,2023-01-20 11:09:24.761668,199096080,0,-5.75,-18.28,53.06,3.910445,5.281499,-0.5073425,-1.018215,23.4567,39.27608,-22.76243,-0.05,-0.12,0.19,738.85
14339,2023-01-20 11:09:24.861669,199196067,0,-5.25,-17.83,53.1,3.965713,5.295578,-0.5416824,-1.021727,23.88203,39.81008,-22.85995,-0.05,-0.12,0.19,738.85
14372,2023-01-20 11:09:24.961691,199296070,0,-4.8,-17.51,53.15,4.033922,5.331181,-0.5284802,-0.9462016,24.3202,40.35245,-22.95571,-0.05,-0.12,0.19,738.85
14405,2023-01-20 11:09:25.061700,199396072,0,-4.25,-17.34,53.18,4.072036,5.355877,-0.5146828,-0.8813285,24.7726,40.90133,-23.04612,-0.05,-0.12,0.19,738.85
14436,2023-01-20 11:09:25.161720,199496091,0,-4.39,-16.35,53.29,4.08931,5.367534,-0.5381542,-0.863212,25.22961,41.44862,-23.13211,-0.05,-0.12,0.19,738.85
