LineNo,UTC_Approx,TimeUS,C,AX,AY,AZ,VWN,VWE,MN,ME,MD,MX,MY,MZ,IDX,IDY,IS
679,2023-01-20 11:08:47.421095,161675791,0,0,0,-0.02,0,0,253,25,401,0,0,0,0,0,0
1032,2023-01-20 11:08:47.516079,161775775,0,0,0,-0.02,0,0,253,25,401,0,0,0,0,0,0
1148,2023-01-20 11:08:47.630187,161892750,0,0,0,-0.02,0,0,253,25,401,0,0,0,0,0,0
1411,2023-01-20 11:08:47.738571,161995567,0,0,0,-0.02,0,0,253,25,401,0,0,0,0,0,0
1830,2023-01-20 11:08:47.842134,162096077,0,0,0,-0.02,0,0,253,25,401,0,0,0,0,0,0
1875,2023-01-20 11:08:47.941896,162196081,0,0,0,-0.02,0,0,253,25,401,0,0,0,0,0,0
1922,2023-01-20 11:08:48.041756,162296080,0,0,0,-0.02,0,0,253,25,401,0,0,0,0,0,0
1968,2023-01-20 11:08:48.141750,162396070,0,0,0,-0.02,0,0,253,25,401,0,0,0,0,0,0
2021,2023-01-20 11:08:48.241764,162496067,0,0,0,-0.02,0,0,253,25,401,0,0,0,0,0,0
2062,2023-01-20 11:08:48.341793,162596063,0,0,0,-0.02,0,0,253,25,401,0,0,0,0,0,0
2118,2023-01-20 11:08:48.438031,162696062,0,0,0,-0.02,0,0,253,25,401,0,0,0,0,0,0
2179,2023-01-20 11:08:48.528998,162796071,0,0,0,-0.02,0,0,253,25,401,0,0,0,0,0,0
2239,2023-01-20 11:08:48.621935,162896062,0,0,0,-0.02,0,0,253,25,401,0,0,0,0,0,0
2293,2023-01-20 11:08:48.721952,162996059,0,0,0,-0.02,0,0,253,25,401,0,0,0,0,0,0
2348,2023-01-20 11:08:48.821971,163096063,0,0,0,-0.02,0,0,253,25,401,0,0,0,0,0,0
2402,2023-01-20 11:08:48.921974,163196065,0,0,0,-0.02,0,0,253,25,401,0,0,0,0,0,0
2444,2023-01-20 11:08:49.021967,163296061,0,0,0,-0.02,0,0,253,25,401,0,0,0,0,0,0
2488,2023-01-20 11:08:49.121952,163396062,0,0,0,-0.02,0,0,253,25,401,0,0,0,0,0,0
2530,2023-01-20 11:08:49.224360,163496062,0,0,0,-0.02,0,0,253,25,401,0,0,0,0,0,0
2570,2023-01-20 11:08:49.335395,163596061,0,0,0,-0.02,0,0,253,25,401,0,0,0,0,0,0
2611,2023-01-20 11:08:49.441806,163696078,0,0,0,-0.02,0,0,253,25,401,0,0,0,0,0,0
2651,2023-01-20 11:08:49.541748,163796085,0,0,0,-0.02,0,0,253,25,401,0,0,0,0,0,0
2691,2023-01-20 11:08:49.637949,163896065,0,0,0,-0.02,0,0,253,25,401,0,0,0,0,0,0
2729,2023-01-20 11:08:49.728987,163996078,0,0,0,-0.02,0,0,253,25,401,0,0,0,0,0,0
2772,2023-01-20 11:08:49.821975,164096071,0,0,0,-0.02,0,0,253,25,401,0,0,0,0,0,0
2810,2023-01-20 11:08:49.921949,164196069,0,0,0,-0.02,0,0,253,25,401,0,0,0,0,0,0
2852,2023-01-20 11:08:50.021935,164296065,0,0,0,-0.02,0,0,253,25,401,0,0,0,0,0,0
2891,2023-01-20 11:08:50.121980,164396072,0,0,0,-0.02,0,0,253,25,401,0,0,0,0,0,0
2934,2023-01-20 11:08:50.221993,164496065,0,0,0,-0.02,0,0,253,25,401,0,0,0,0,0,0
2972,2023-01-20 11:08:50.321958,164596070,0,0,0,-0.02,0,0,253,25,401,0,0,0,0,0,0
3012,2023-01-20 11:08:50.421912,164696066,0,0.01,0,-0.03,0,0,253,25,401,0,0,0,0,0,0
3054,2023-01-20 11:08:50.521868,164796070,0,0.01,0,-0.03,0,0,253,25,401,0,0,0,0,0,0
3094,2023-01-20 11:08:50.621843,164896069,0,0,0,-0.03,0,0,253,25,401,0,0,0,0,0,0
3132,2023-01-20 11:08:50.721915,164996083,0,0,0,-0.03,0,0,253,25,401,0,0,0,0,0,0
3173,2023-01-20 11:08:50.821937,165096074,0,0,0,-0.03,0,0,253,25,401,0,0,0,0,0,0
3211,2023-01-20 11:08:50.921874,165196076,0,0,0,-0.03,0,0,253,25,401,0,0,0,0,0,0
3253,2023-01-20 11:08:51.021836,165296085,0,0,0,-0.03,0,0,253,25,401,0,0,0,0,0,0
3291,2023-01-20 11:08:51.121840,165396074,0,0,0,-0.03,0,0,253,25,401,0,0,0,0,0,0
3334,2023-01-20 11:08:51.221846,165496079,0,0,0,-0.03,0,0,253,25,401,0,0,0,0,0,0
3372,2023-01-20 11:08:51.321810,165596086,0,0,0,-0.03,0,0,253,25,401,0,0,0,0,0,0
3412,2023-01-20 11:08:51.421759,165696074,0,0,0,-0.03,0,0,253,25,401,0,0,0,0,0,0
3452,2023-01-20 11:08:51.521744,165796075,0,0,0,-0.03,0,0,253,25,401,0,0,0,0,0,0
3493,2023-01-20 11:08:51.621735,165896078,0,0,0,-0.03,0,0,253,25,401,0,0,0,0,0,0
3530,2023-01-20 11:08:51.721737,165996073,0,0,0,-0.03,0,0,253,25,401,0,0,0,0,0,0
3573,2023-01-20 11:08:51.821756,166096087,0,0,0,-0.03,0,0,253,25,401,0,0,0,0,0,0
3611,2023-01-20 11:08:51.921747,166196081,0,0,0,-0.03,0,0,253,25,401,0,0,0,0,0,0
3653,2023-01-20 11:08:52.021742,166296076,0,0.01,0,-0.03,0,0,253,25,401,0,0,0,0,0,0
3689,2023-01-20 11:08:52.121747,166396074,0,0.01,0,-0.03,0,0,253,25,401,0,0,0,0,0,0
3724,2023-01-20 11:08:52.221760,166496082,0,0.01,0,-0.03,0,0,253,25,401,0,0,0,0,0,0
3754,2023-01-20 11:08:52.321747,166596072,0,0.01,0,-0.03,0,0,253,25,401,0,0,0,0,0,0
3787,2023-01-20 11:08:52.421755,166696087,0,0.01,0,-0.03,0,0,253,25,401,0,0,0,0,0,0
3819,2023-01-20 11:08:52.521746,166796104,0,0.01,0,-0.03,0,0,253,25,401,0,0,0,0,0,0
3852,2023-01-20 11:08:52.621713,166896084,0,0.02,0,-0.03,0,0,253,25,401,0,0,0,0,0,0
3882,2023-01-20 11:08:52.721736,166996074,0,0.02,0,-0.03,0,0,253,25,401,0,0,0,0,0,0
3917,2023-01-20 11:08:52.821776,167096088,0,0.02,0,-0.03,0,0,253,25,401,0,0,0,0,0,0
3947,2023-01-20 11:08:52.921760,167196070,0,0.02,0,-0.03,0,0,253,25,401,0,0,0,0,0,0
3982,2023-01-20 11:08:53.021775,167296091,0,0.02,0,-0.03,0,0,253,25,401,0,0,0,0,0,0
4012,2023-01-20 11:08:53.121735,167396082,0,0.02,0,-0.03,0,0,253,25,401,0,0,0,0,0,0
4047,2023-01-20 11:08:53.221700,167496069,0,0.02,0,-0.03,0,0,253,25,401,0,0,0,0,0,0
4077,2023-01-20 11:08:53.321721,167596080,0,0.02,0,-0.03,0,0,253,25,401,0,0,0,0,0,0
4110,2023-01-20 11:08:53.421714,167696074,0,0.02,0,-0.03,0,0,253,25,401,0,0,0,0,0,0
4142,2023-01-20 11:08:53.521678,167796078,0,0.02,0,-0.03,0,0,253,25,401,0,0,0,0,0,0
4175,2023-01-20 11:08:53.621652,167896077,0,0.02,0,-0.03,0,0,253,25,401,0,0,0,0,0,0
4205,2023-01-20 11:08:53.721680,167996073,0,0.02,0,-0.03,0,0,253,25,401,0,0,0,0,0,0
4240,2023-01-20 11:08:53.821712,168096084,0,0.02,0,-0.03,0,0,253,25,401,0,0,0,0,0,0
4270,2023-01-20 11:08:53.921691,168196079,0,0.02,0,-0.03,0,0,253,25,401,0,0,0,0,0,0
4306,2023-01-20 11:08:54.021678,168296082,0,0.02,0,-0.03,0,0,253,25,401,0,0,0,0,0,0
4337,2023-01-20 11:08:54.121670,168396087,0,0.02,0,-0.03,0,0,253,25,401,0,0,0,0,0,0
4372,2023-01-20 11:08:54.221652,168496074,0,0.03,0,-0.03,0,0,253,25,401,0,0,0,0,0,0
4402,2023-01-20 11:08:54.321685,168596082,0,0.03,0,-0.03,0,0,253,25,401,0,0,0,0,0,0
4435,2023-01-20 11:08:54.421693,168696079,0,0.03,0,-0.03,0,0,253,25,401,0,0,0,0,0,0
4467,2023-01-20 11:08:54.521650,168796074,0,0.03,0,-0.03,0,0,253,25,401,0,0,0,0,0,0
4500,2023-01-20 11:08:54.621624,168896073,0,0.03,0,-0.03,0,0,253,25,401,0,0,0,0,0,0
4530,2023-01-20 11:08:54.721641,168996074,0,0.03,0,-0.03,0,0,253,25,401,0,0,0,0,0,0
4565,2023-01-20 11:08:54.821676,169096094,0,0.03,0,-0.03,0,0,253,25,401,0,0,0,0,0,0
4595,2023-01-20 11:08:54.921667,169196074,0,0.03,0,-0.03,0,0,253,25,401,0,0,0,0,0,0
4630,2023-01-20 11:08:55.021681,169296077,0,0.03,0,-0.03,0,0,253,25,401,0,0,0,0,0,0
4660,2023-01-20 11:08:55.121703,169396089,0,0.03,0,-0.03,0,0,253,25,401,0,0,0,0,0,0
4695,2023-01-20 11:08:55.221693,169496072,0,0.03,0,-0.03,0,0,253,25,401,0,0,0,0,0,0
4725,2023-01-20 11:08:55.321687,169596072,0,0.03,0,-0.03,0,0,253,25,401,0,0,0,0,0,0
4758,2023-01-20 11:08:55.421686,169696081,0,0.03,0,-0.03,0,0,253,25,401,0,0,0,0,0,0
4792,2023-01-20 11:08:55.521647,169796070,0,0.03,0,-0.03,0,0,253,25,401,0,0,0,0,0,0
4825,2023-01-20 11:08:55.621640,169896078,0,0.03,0,-0.02,0,0,253,25,401,0,0,0,0,0,0
4855,2023-01-20 11:08:55.721683,169996092,0,0.03,0,-0.02,0,0,253,25,401,0,0,0,0,0,0
4890,2023-01-20 11:08:55.821690,170096077,0,0.03,0,-0.02,0,0,253,25,401,0,0,0,0,0,0
4920,2023-01-20 11:08:55.921693,170196083,0,0.03,0,-0.02,0,0,253,25,401,0,0,0,0,0,0
4955,2023-01-20 11:08:56.021701,170296092,0,0.03,0,-0.02,0,0,253,25,401,0,0,0,0,0,0
4985,2023-01-20 11:08:56.121684,170396068,0,0.03,0,-0.02,0,0,253,25,401,0,0,0,0,0,0
5020,2023-01-20 11:08:56.221691,170496070,0,0.03,0,-0.02,0,0,253,25,401,0,0,0,0,0,0
5050,2023-01-20 11:08:56.321708,170596089,0,0.03,0,-0.02,0,0,253,25,401,0,0,0,0,0,0
5083,2023-01-20 11:08:56.421682,170696072,0,0.03,0,-0.02,0,0,253,25,401,0,0,0,0,0,0
5115,2023-01-20 11:08:56.521656,170796078,0,0.03,0,-0.02,0,0,253,25,401,0,0,0,0,0,0
5148,2023-01-20 11:08:56.621642,170896082,0,0.03,0,-0.02,0,0,253,25,401,0,0,0,0,0,0
5178,2023-01-20 11:08:56.721666,170996072,0,0.03,0,-0.02,0,0,253,25,401,0,0,0,0,0,0
5213,2023-01-20 11:08:56.821700,171096081,0,0.03,0,-0.02,0,0,253,25,401,0,0,0,0,0,0
5243,2023-01-20 11:08:56.921704,171196093,0,0.03,0,-0.02,0,0,253,25,401,0,0,0,0,0,0
5278,2023-01-20 11:08:57.021684,171296077,0,0.02,0,-0.02,0,0,253,25,401,0,0,0,0,0,0
5309,2023-01-20 11:08:57.121683,171396068,0,0.02,0,-0.02,0,0,253,25,401,0,0,0,0,0,0
5344,2023-01-20 11:08:57.221694,171496072,0,0.02,0,-0.02,0,0,253,25,401,0,0,0,0,0,0
5374,2023-01-20 11:08:57.321696,171596072,0,0.02,0,-0.02,0,0,253,25,401,0,0,0,0,0,0
5407,2023-01-20 11:08:57.421693,171696076,0,0.02,0,-0.02,0,0,253,25,401,0,0,0,0,0,0
5439,2023-01-20 11:08:57.521654,171796073,0,0.02,0,-0.02,0,0,253,25,401,0,0,0,0,0,0
5472,2023-01-20 11:08:57.621639,171896079,0,0.02,0,-0.02,0,0,253,25,401,0,0,0,0,0,0
5502,2023-01-20 11:08:57.721665,171996072,0,0.02,0,-0.02,0,0,253,25,401,0,0,0,0,0,0
5537,2023-01-20 11:08:57.821714,172096096,0,0.02,0,-0.02,0,0,253,25,401,0,0,0,0,0,0
5567,2023-01-20 11:08:57.921687,172196074,0,0.02,0,-0.02,0,0,253,25,401,0,0,0,0,0,0
5604,2023-01-20 11:08:58.021684,172296074,0,0.01,0,-0.02,0,0,253,25,401,0,0,0,0,0,0
5634,2023-01-20 11:08:58.121681,172396068,0,0.01,0,-0.02,0,0,253,25,401,0,0,0,0,0,0
5669,2023-01-20 11:08:58.221691,172496076,0,0.01,0,-0.01,0,0,253,25,401,0,0,0,0,0,0
5699,2023-01-20 11:08:58.321694,172596080,0,0.01,0,-0.01,0,0,253,25,401,0,0,0,0,0,0
5732,2023-01-20 11:08:58.421675,172696069,0,0.02,0,-0.01,0,0,253,25,401,0,0,0,0,0,0
5764,2023-01-20 11:08:58.521661,172796090,0,0.02,0,-0.01,0,0,253,25,401,0,0,0,0,0,0
5797,2023-01-20 11:08:58.621648,172896096,0,0.02,0,-0.01,0,0,253,25,401,0,0,0,0,0,0
5827,2023-01-20 11:08:58.721670,172996082,0,0.02,0,-0.01,0,0,253,25,401,0,0,0,0,0,0
5862,2023-01-20 11:08:58.821701,173096087,0,0.02,0,-0.01,0,0,253,25,401,0,0,0,0,0,0
5892,2023-01-20 11:08:58.921696,173196099,0,0.02,0,-0.01,0,0,253,25,401,0,0,0,0,0,0
5927,2023-01-20 11:08:59.019695,173296082,0,0.02,0,-0.01,0,0,253,25,401,0,0,0,0,0,0
5959,2023-01-20 11:08:59.110593,173396083,0,0.02,0,-0.01,0,0,253,25,401,0,0,0,0,0,0
5994,2023-01-20 11:08:59.201665,173496109,0,0.02,0,-0.01,0,0,253,25,401,0,0,0,0,0,0
6024,2023-01-20 11:08:59.301649,173596090,0,0.03,0,-0.01,0,0,253,25,401,0,0,0,0,0,0
6057,2023-01-20 11:08:59.401838,173696092,0,0.03,0,-0.01,0,0,253,25,401,0,0,0,0,0,0
6088,2023-01-20 11:08:59.512945,173796083,0,0.03,-0.01,-0.01,0,0,253,25,401,0,0,0,0,0,0
6121,2023-01-20 11:08:59.619687,173896085,0,0.03,-0.01,-0.01,0,0,253,25,401,0,0,0,0,0,0
6151,2023-01-20 11:08:59.710580,173996073,0,0.03,-0.01,-0.01,0,0,253,25,401,0,0,0,0,0,0
6187,2023-01-20 11:08:59.801677,174096118,0,0.03,-0.01,-0.01,0,0,253,25,401,0,0,0,0,0,0
6217,2023-01-20 11:08:59.901607,174196077,0,0.03,-0.01,-0.01,0,0,253,25,401,0,0,0,0,0,0
6252,2023-01-20 11:09:00.001602,174296103,0,0.03,-0.01,-0.01,0,0,253,25,401,0,0,0,0,0,0
6282,2023-01-20 11:09:00.101506,174396081,0,0.03,-0.01,0,0,0,253,25,401,0,0,0,0,0,0
6317,2023-01-20 11:09:00.201455,174496101,0,0.03,-0.01,0,0,0,253,25,401,0,0,0,0,0,0
6347,2023-01-20 11:09:00.301482,174596077,0,0.04,-0.01,0,0,0,253,25,401,0,0,0,0,0,0
6380,2023-01-20 11:09:00.401565,174696110,0,0.04,-0.01,0,0,0,253,25,401,0,0,0,0,0,0
6414,2023-01-20 11:09:00.501498,174796097,0,0.03,-0.01,0,0,0,253,25,401,0,0,0,0,0,0
6447,2023-01-20 11:09:00.601453,174896106,0,0.03,-0.01,0,0,0,253,25,401,0,0,0,0,0,0
6477,2023-01-20 11:09:00.701460,174996080,0,0.03,-0.01,0,0,0,253,25,401,0,0,0,0,0,0
6513,2023-01-20 11:09:00.801516,175096104,0,0.03,-0.01,0,0,0,253,25,401,0,0,0,0,0,0
6543,2023-01-20 11:09:00.901477,175196089,0,0.03,-0.01,0,0,0,253,25,401,0,0,0,0,0,0
6578,2023-01-20 11:09:01.001495,175296130,0,0.03,-0.01,0,0,0,253,25,401,0,0,0,0,0,0
6608,2023-01-20 11:09:01.101535,175396094,0,0.03,-0.01,0,0,0,253,25,401,0,0,0,0,0,0
6643,2023-01-20 11:09:01.201645,175496131,0,0.03,-0.01,0,0,0,253,25,401,0,0,0,0,0,0
6673,2023-01-20 11:09:01.301523,175596077,0,0.03,-0.01,0,0,0,253,25,401,0,0,0,0,0,0
6706,2023-01-20 11:09:01.401499,175696120,0,0.03,-0.01,0,0,0,253,25,401,0,0,0,0,0,0
6738,2023-01-20 11:09:01.501437,175796085,0,0.03,-0.01,0,0,0,253,25,401,0,0,0,0,0,0
6771,2023-01-20 11:09:01.601440,175896115,0,0.03,-0.01,0,0,0,253,25,401,0,0,0,0,0,0
6802,2023-01-20 11:09:01.701401,175996071,0,0.03,-0.01,0,0,0,253,25,401,0,0,0,0,0,0
6837,2023-01-20 11:09:01.801424,176096088,0,0.02,-0.01,0,0,0,253,25,401,0,0,0,0,0,0
6867,2023-01-20 11:09:01.901423,176196083,0,0.02,-0.01,0,0,0,253,25,401,0,0,0,0,0,0
6902,2023-01-20 11:09:02.001454,176296110,0,0.02,-0.01,0,0,0,253,25,401,0,0,0,0,0,0
6932,2023-01-20 11:09:02.101428,176396072,0,0.02,-0.01,0,0,0,253,25,401,0,0,0,0,0,0
6967,2023-01-20 11:09:02.201466,176496098,0,0.02,-0.01,0,0,0,253,25,401,0,0,0,0,0,0
6997,2023-01-20 11:09:02.301454,176596082,0,0.02,0,0,0,0,253,25,401,0,0,0,0,0,0
7030,2023-01-20 11:09:02.401486,176696112,0,0.02,0,0,0,0,253,25,401,0,0,0,0,0,0
7062,2023-01-20 11:09:02.501407,176796082,0,0.02,0,0,0,0,253,25,401,0,0,0,0,0,0
7095,2023-01-20 11:09:02.601376,176896098,0,0.02,0,0,0,0,253,25,401,0,0,0,0,0,0
7125,2023-01-20 11:09:02.701395,176996072,0,0.02,0,0,0,0,253,25,401,0,0,0,0,0,0
7160,2023-01-20 11:09:02.801462,177096095,0,0.02,0,0,0,0,253,25,401,0,0,0,0,0,0
7190,2023-01-20 11:09:02.901450,177196088,0,0.02,0,0,0,0,253,25,401,0,0,0,0,0,0
7225,2023-01-20 11:09:03.001489,177296131,0,0.02,0,0,0,0,253,25,401,0,0,0,0,0,0
7255,2023-01-20 11:09:03.101441,177396095,0,0.02,0,0,0,0,253,25,401,0,0,0,0,0,0
7290,2023-01-20 11:09:03.201441,177496106,0,0.02,0,0,0,0,253,25,401,0,0,0,0,0,0
7320,2023-01-20 11:09:03.301418,177596087,0,0.01,0,0,0,0,253,25,401,0,0,0,0,0,0
7353,2023-01-20 11:09:03.401444,177696118,0,0.01,0,0,0,0,253,25,401,0,0,0,0,0,0
7385,2023-01-20 11:09:03.501422,177796095,0,0.01,0,0,0,0,253,25,401,0,0,0,0,0,0
7418,2023-01-20 11:09:03.601435,177896107,0,0.01,0,0,0,0,253,25,401,0,0,0,0,0,0
7449,2023-01-20 11:09:03.701428,177996087,0,0.01,0,0,0,0,253,25,401,0,0,0,0,0,0
7484,2023-01-20 11:09:03.801439,178096086,0,0.01,0,0,0,0,253,25,401,0,0,0,0,0,0
7514,2023-01-20 11:09:03.901412,178196072,0,0.01,0,0.01,0,0,253,25,401,0,0,0,0,0,0
7549,2023-01-20 11:09:04.001448,178296120,0,0.01,0,0.01,0,0,253,25,401,0,0,0,0,0,0
7579,2023-01-20 11:09:04.101391,178396072,0,0.01,0,0.01,0,0,253,25,401,0,0,0,0,0,0
7615,2023-01-20 11:09:04.201395,178496084,0,0.01,0,0.01,0,0,253,25,401,0,0,0,0,0,0
7645,2023-01-20 11:09:04.301415,178596080,0,0.01,0,0.01,0,0,253,25,401,0,0,0,0,0,0
7678,2023-01-20 11:09:04.401466,178696108,0,0,0,0.01,0,0,253,25,401,0,0,0,0,0,0
7710,2023-01-20 11:09:04.501419,178796077,0,0,0,0.01,0,0,253,25,401,0,0,0,0,0,0
7743,2023-01-20 11:09:04.601443,178896117,0,0,0,0.01,0,0,253,25,401,0,0,0,0,0,0
7773,2023-01-20 11:09:04.701423,178996072,0,0,0,0.01,0,0,253,25,401,0,0,0,0,0,0
7808,2023-01-20 11:09:04.801461,179096086,0,0,0,0.01,0,0,253,25,401,0,0,0,0,0,0
7838,2023-01-20 11:09:04.901417,179196079,0,0,0,0.01,0,0,253,25,401,0,0,0,0,0,0
7873,2023-01-20 11:09:05.001420,179296118,0,0,0,0.01,0,0,253,25,401,0,0,0,0,0,0
7903,2023-01-20 11:09:05.101397,179396072,0,0,0,0.01,0,0,253,25,401,0,0,0,0,0,0
7938,2023-01-20 11:09:05.201442,179496094,0,0,0,0.01,0,0,253,25,401,0,0,0,0,0,0
7968,2023-01-20 11:09:05.301434,179596072,0,0,0,0.01,0,0,253,25,401,0,0,0,0,0,0
8002,2023-01-20 11:09:05.401499,179696124,0,0,0,0.01,0,0,253,25,401,0,0,0,0,0,0
8036,2023-01-20 11:09:05.501438,179796119,0,0,0,0.01,0,0,253,25,401,0,0,0,0,0,0
8069,2023-01-20 11:09:05.601379,179896114,0,0,0,0.01,0,0,253,25,401,0,0,0,0,0,0
8099,2023-01-20 11:09:05.701420,179996095,0,0,0,0.01,0,0,253,25,401,0,0,0,0,0,0
8134,2023-01-20 11:09:05.801478,180096094,0,0,0,0.01,0,0,303,32,451,-52,-40,84,0,0,0
8164,2023-01-20 11:09:05.901415,180196071,0,0,0,0.01,0,0,303,33,451,-65,-51,108,0,0,0
8199,2023-01-20 11:09:06.001418,180296113,0,0,0,0.01,0,0,303,35,451,-76,-58,126,0,0,0
8229,2023-01-20 11:09:06.101398,180396084,0,0,0,0.02,0,0,303,35,451,-83,-64,139,0,0,0
8264,2023-01-20 11:09:06.201419,180496096,0,0,0,0.02,0,0,302,35,451,-88,-69,147,0,0,0
8294,2023-01-20 11:09:06.301393,180596072,0,0,0,0.02,0,0,302,36,451,-93,-76,154,0,0,0
8327,2023-01-20 11:09:06.401425,180696107,0,0,0,0.02,0,0,301,35,451,-98,-83,158,0,0,0
8359,2023-01-20 11:09:06.501396,180796070,0,0,0.01,0.02,0,0,299,35,451,-104,-91,162,0,0,0
8392,2023-01-20 11:09:06.601442,180896108,0,0,0.01,0.02,0,0,295,34,451,-110,-101,166,0,0,0
8422,2023-01-20 11:09:06.701402,180996072,0,0,0.02,0.02,0,0,290,33,451,-116,-110,170,0,0,0
8457,2023-01-20 11:09:06.801415,181096089,0,0,0.02,0.02,0,0,285,32,451,-121,-119,173,0,0,0
8487,2023-01-20 11:09:06.901413,181196074,0,0,0.02,0.02,0,0,279,32,451,-125,-126,176,0,0,0
8522,2023-01-20 11:09:07.001460,181296109,0,0.01,0.02,0.02,0,0,275,31,451,-128,-133,179,0,0,0
8552,2023-01-20 11:09:07.101421,181396067,0,0.01,0.03,0.02,0,0,268,30,451,-133,-140,181,0,0,0
8587,2023-01-20 11:09:07.201456,181496100,0,0.01,0.03,0.02,0,0,259,29,451,-140,-149,182,0,0,0
8617,2023-01-20 11:09:07.301445,181596087,0,0.01,0.03,0.02,0,0,259,29,451,-140,-149,182,0,0,0
8651,2023-01-20 11:09:07.401486,181696127,0,0.01,0.03,0.02,0,0,259,29,451,-140,-149,182,0,0,0
8683,2023-01-20 11:09:07.501444,181796097,0,0.01,0.03,0.02,0,0,259,29,451,-140,-149,182,0,0,0
8716,2023-01-20 11:09:07.601455,181896120,0,0.01,0.03,0.02,0,0,259,29,451,-140,-149,182,0,0,0
8746,2023-01-20 11:09:07.701441,181996085,0,0.01,0.03,0.02,0,0,259,29,451,-140,-149,182,0,0,0
8781,2023-01-20 11:09:07.801466,182096090,0,0.01,0.03,0.02,0,0,259,29,451,-140,-149,182,0,0,0
8811,2023-01-20 11:09:07.901447,182196083,0,0.01,0.03,0.02,0,0,248,27,451,-149,-157,183,0,0,0
8846,2023-01-20 11:09:08.001463,182296111,0,0.01,0.03,0.02,0,0,248,27,451,-149,-157,183,0,0,0
8876,2023-01-20 11:09:08.101411,182396077,0,0.01,0.03,0.02,0,0,244,27,451,-150,-166,187,0,0,0
8911,2023-01-20 11:09:08.201428,182496112,0,0.01,0.04,0.02,0,0,242,26,451,-150,-171,191,0,0,0
8941,2023-01-20 11:09:08.301411,182596072,0,0.01,0.04,0.02,0,0,241,26,449,-150,-177,195,0,0,0
8974,2023-01-20 11:09:08.401476,182696114,0,0.01,0.04,0.02,0,0,239,26,447,-150,-183,200,0,0,0
9006,2023-01-20 11:09:08.501407,182796077,0,0.01,0.04,0.02,0,0,239,26,447,-150,-183,200,0,0,0
9039,2023-01-20 11:09:08.601410,182896111,0,0.01,0.05,0.02,0,0,237,25,448,-150,-188,203,0,0,0
9069,2023-01-20 11:09:08.701413,182996081,0,0.01,0.05,0.03,0,0,233,25,449,-151,-193,205,0,0,0
9104,2023-01-20 11:09:08.801449,183096085,0,0.02,0.05,0.03,0,0,230,25,450,-153,-199,206,0,0,0
9136,2023-01-20 11:09:08.901434,183196083,0,0.02,0.05,0.03,0,0,227,25,451,-153,-202,208,0,0,0
9171,2023-01-20 11:09:09.001328,183296120,0,0.02,0.06,0.03,0,0,224,24,451,-153,-206,209,0,0,0
9201,2023-01-20 11:09:09.092374,183396067,0,0.02,0.06,0.03,0,0,222,24,451,-154,-210,211,0,0,0
9233,2023-01-20 11:09:09.183498,183496100,0,0.02,0.06,0.03,0,0,219,24,450,-155,-214,214,0,0,0
9267,2023-01-20 11:09:09.281855,183596081,0,0.02,0.07,0.03,0,0,217,23,448,-155,-218,217,0,0,0
9298,2023-01-20 11:09:09.381877,183696116,0,0.02,0.07,0.03,0,0,215,23,447,-155,-222,220,0,0,0
9332,2023-01-20 11:09:09.481846,183796083,0,0.02,0.07,0.03,0,0,212,23,446,-156,-225,222,0,0,0
9363,2023-01-20 11:09:09.581874,183896107,0,0.02,0.07,0.03,0,0,211,23,445,-155,-227,224,0,0,0
9396,2023-01-20 11:09:09.681851,183996067,0,0.02,0.07,0.03,0,0,209,22,444,-156,-230,226,0,0,0
9430,2023-01-20 11:09:09.781874,184096071,0,0.02,0.08,0.03,0,0,207,22,444,-156,-233,228,0,0,0
9462,2023-01-20 11:09:09.881870,184196082,0,0.02,0.08,0.03,0,0,205,22,444,-156,-236,229,0,0,0
9495,2023-01-20 11:09:09.981883,184296119,0,0.02,0.08,0.03,0,0,203,22,445,-157,-238,230,0,0,0
9527,2023-01-20 11:09:10.081833,184396077,0,0.02,0.08,0.03,0,0,203,22,446,-158,-241,230,0,0,0
9559,2023-01-20 11:09:10.181868,184496116,0,0.02,0.08,0.03,0,0,203,22,447,-158,-244,230,0,0,0
9592,2023-01-20 11:09:10.281826,184596075,0,0.02,0.08,0.03,0,0,203,22,448,-159,-246,230,0,0,0
9623,2023-01-20 11:09:10.381842,184696092,0,0.02,0.08,0.03,0,0,203,21,449,-159,-248,230,0,0,0
9657,2023-01-20 11:09:10.481742,184796083,0,0.02,0.08,0.03,0,0,203,21,450,-160,-249,230,0,0,0
9690,2023-01-20 11:09:10.581646,184896098,0,0.02,0.08,0.03,0,0,203,21,451,-161,-251,230,0,0,0
9722,2023-01-20 11:09:10.681649,184996067,0,0.02,0.08,0.03,0,0,203,21,451,-161,-253,230,0,0,0
9755,2023-01-20 11:09:10.781770,185096121,0,0.02,0.08,0.03,0,0,203,21,451,-162,-255,230,0,0,0
9787,2023-01-20 11:09:10.881716,185196074,0,0.02,0.08,0.03,0,0,203,21,451,-162,-256,230,0,0,0
9820,2023-01-20 11:09:10.981713,185296093,0,0.02,0.08,0.03,0,0,203,21,451,-163,-258,230,0,0,0
9853,2023-01-20 11:09:11.081682,185396072,0,0.02,0.07,0.03,0,0,203,21,451,-163,-258,230,0,0,0
9885,2023-01-20 11:09:11.181698,185496096,0,0.02,0.07,0.03,0,0,203,21,451,-163,-259,231,0,0,0
9918,2023-01-20 11:09:11.281667,185596077,0,0.02,0.07,0.03,0,0,203,21,451,-164,-259,231,0,0,0
9949,2023-01-20 11:09:11.381681,185696105,0,0.02,0.07,0.03,0,0,203,21,451,-164,-261,232,0,0,0
9982,2023-01-20 11:09:11.481650,185796074,0,0.02,0.07,0.03,0,0,203,20,451,-165,-263,232,0,0,0
10013,2023-01-20 11:09:11.581676,185896096,0,0.02,0.07,0.04,0,0,203,20,451,-166,-264,233,0,0,0
10045,2023-01-20 11:09:11.681665,185996068,0,0.03,0.06,0.04,0,0,203,20,451,-166,-264,234,0,0,0
10078,2023-01-20 11:09:11.781723,186096106,0,0.03,0.06,0.04,0,0,203,20,451,-167,-265,235,0,0,0
10110,2023-01-20 11:09:11.881695,186196078,0,0.03,0.06,0.04,0,0,203,20,451,-167,-266,235,0,0,0
10143,2023-01-20 11:09:11.981697,186296086,0,0.03,0.06,0.04,0,0,203,20,451,-168,-267,236,0,0,0
10175,2023-01-20 11:09:12.081661,186396076,0,0.03,0.06,0.04,0,0,203,20,451,-168,-267,236,0,0,0
10207,2023-01-20 11:09:12.181666,186496110,0,0.03,0.06,0.04,0,0,203,20,451,-168,-268,236,0,0,0
10240,2023-01-20 11:09:12.281644,186596067,0,0.03,0.05,0.04,0,0,203,20,451,-169,-268,236,0,0,0
10272,2023-01-20 11:09:12.381693,186696083,0,0.03,0.05,0.04,0,0,203,20,451,-169,-269,237,0,0,0
10306,2023-01-20 11:09:12.481684,186796087,0,0.04,0.05,0.04,0,0,203,20,451,-169,-270,237,0,0,0
10337,2023-01-20 11:09:12.581661,186896088,0,0.04,0.05,0.04,0,0,203,20,451,-169,-270,237,0,0,0
10369,2023-01-20 11:09:12.681662,186996068,0,0.04,0.05,0.04,0,0,203,20,451,-169,-270,238,0,0,0
10402,2023-01-20 11:09:12.781733,187096108,0,0.04,0.05,0.04,0,0,203,20,451,-169,-270,238,0,0,0
10434,2023-01-20 11:09:12.881701,187196075,0,0.04,0.05,0.04,0,0,203,20,451,-169,-270,238,0,0,0
10467,2023-01-20 11:09:12.981693,187296074,0,0.04,0.05,0.04,0,0,203,20,451,-168,-269,238,0,0,0
10499,2023-01-20 11:09:13.081693,187396081,0,0.04,0.04,0.04,0,0,204,20,451,-167,-267,237,0,0,0
10531,2023-01-20 11:09:13.181680,187496075,0,0.04,0.04,0.04,0,0,206,20,451,-165,-265,237,0,0,0
10564,2023-01-20 11:09:13.281682,187596068,0,0.04,0.04,0.04,0,0,208,21,451,-164,-263,237,0,0,0
10595,2023-01-20 11:09:13.381709,187696083,0,0.04,0.04,0.04,0,0,209,21,451,-163,-261,237,0,0,0
10629,2023-01-20 11:09:13.481678,187796074,0,0.04,0.04,0.04,0,0,211,21,451,-162,-259,239,0,0,0
10660,2023-01-20 11:09:13.581642,187896067,0,0.04,0.03,0.04,0,0,213,21,450,-160,-256,240,0,0,0
10692,2023-01-20 11:09:13.681668,187996078,0,0.05,0.03,0.04,0,0,215,22,449,-158,-254,242,0,0,0
10725,2023-01-20 11:09:13.781690,188096076,0,0.05,0.03,0.05,0,0,217,22,448,-157,-252,244,0,0,0
10757,2023-01-20 11:09:13.881692,188196070,0,0.05,0.03,0.05,0,0,218,22,447,-156,-250,246,0,0,0
10790,2023-01-20 11:09:13.981708,188296082,0,0.05,0.03,0.05,0,0,220,22,447,-155,-249,247,0,0,0
10822,2023-01-20 11:09:14.081689,188396071,0,0.05,0.03,0.05,0,0,221,22,446,-155,-247,249,0,0,0
10854,2023-01-20 11:09:14.181683,188496075,0,0.05,0.03,0.05,0,0,222,23,446,-153,-246,250,0,0,0
10887,2023-01-20 11:09:14.281693,188596080,0,0.05,0.02,0.05,0,0,224,23,445,-153,-244,251,0,0,0
10920,2023-01-20 11:09:14.381693,188696071,0,0.05,0.02,0.05,0,0,225,23,446,-152,-243,252,0,0,0
10954,2023-01-20 11:09:14.481674,188796074,0,0.05,0.02,0.05,0,0,225,23,446,-151,-242,253,0,0,0
10985,2023-01-20 11:09:14.581648,188896077,0,0.05,0.02,0.05,0,0,226,23,446,-151,-241,253,0,0,0
11017,2023-01-20 11:09:14.681663,188996072,0,0.05,0.02,0.05,0,0,226,23,448,-151,-240,252,0,0,0
11050,2023-01-20 11:09:14.781691,189096070,0,0.05,0.02,0.05,0,0,227,24,449,-150,-239,252,0,0,0
11082,2023-01-20 11:09:14.881700,189196090,0,0.05,0.02,0.05,0,0,228,24,450,-150,-238,251,0,0,0
11115,2023-01-20 11:09:14.981671,189296081,0,0.05,0.02,0.05,0,0,228,24,451,-149,-237,251,0,0,0
11147,2023-01-20 11:09:15.081665,189396070,0,0.05,0.02,0.05,0,0,229,24,451,-149,-236,250,0,0,0
11179,2023-01-20 11:09:15.181688,189496083,0,0.05,0.02,0.05,0,0,229,24,451,-149,-236,250,0,0,0
11212,2023-01-20 11:09:15.281694,189596072,0,0.05,0.02,0.05,0,0,229,24,451,-149,-236,250,0,0,0
11246,2023-01-20 11:09:15.381713,189696072,0,0.05,0.02,0.05,0,0,229,24,451,-149,-235,250,0,0,0
11280,2023-01-20 11:09:15.481697,189796091,0,0.06,0.02,0.05,0,0,229,24,451,-148,-235,250,0,0,0
11313,2023-01-20 11:09:15.581637,189896078,0,0.06,0.02,0.05,0,0,229,24,451,-148,-234,250,0,0,0
11345,2023-01-20 11:09:15.681658,189996072,0,0.06,0.01,0.05,0,0,229,24,451,-148,-234,250,0,0,0
11378,2023-01-20 11:09:15.781712,190096081,0,0.06,0.01,0.05,0,0,229,24,451,-149,-234,250,0,0,0
11410,2023-01-20 11:09:15.881710,190196071,0,0.06,0.01,0.05,0,0,228,24,451,-149,-234,251,0,0,0
11443,2023-01-20 11:09:15.981721,190296082,0,0.06,0.01,0.05,0,0,228,24,450,-149,-234,252,0,0,0
11475,2023-01-20 11:09:16.081723,190396087,0,0.06,0.01,0.06,0,0,227,24,450,-149,-235,253,0,0,0
11507,2023-01-20 11:09:16.181708,190496075,0,0.06,0.01,0.06,0,0,226,24,449,-150,-235,253,0,0,0
11540,2023-01-20 11:09:16.281705,190596072,0,0.06,0.01,0.06,0,0,225,24,448,-150,-236,254,0,0,0
11571,2023-01-20 11:09:16.381706,190696071,0,0.06,0.01,0.06,0,0,224,24,447,-150,-236,255,0,0,0
11605,2023-01-20 11:09:16.481691,190796070,0,0.06,0.01,0.06,0,0,223,23,446,-151,-237,256,0,0,0
11636,2023-01-20 11:09:16.581676,190896073,0,0.06,0.01,0.06,0,0,223,23,445,-151,-237,257,0,0,0
11668,2023-01-20 11:09:16.681684,190996072,0,0.06,0.01,0.06,0,0,222,23,445,-151,-237,258,0,0,0
11701,2023-01-20 11:09:16.781713,191096087,0,0.06,0.01,0.06,0,0,223,23,444,-151,-237,259,0,0,0
11733,2023-01-20 11:09:16.881707,191196074,0,0.06,0.01,0.06,0,0,223,24,443,-151,-236,261,0,0,0
11766,2023-01-20 11:09:16.981712,191296074,0,0.06,0.01,0.06,0,0,224,24,442,-151,-234,262,0,0,0
11798,2023-01-20 11:09:17.081707,191396071,0,0.06,0.01,0.06,0,0,225,24,442,-151,-233,265,0,0,0
11830,2023-01-20 11:09:17.181705,191496072,0,0.06,0.01,0.06,0,0,226,25,441,-152,-231,267,0,0,0
11863,2023-01-20 11:09:17.281708,191596071,0,0.06,0.01,0.06,0,0,227,25,442,-154,-228,269,0,0,0
11894,2023-01-20 11:09:17.381722,191696078,0,0.06,0.01,0.06,0,0,226,26,443,-157,-226,271,0,0,0
11928,2023-01-20 11:09:17.481702,191796084,0,0.06,0.01,0.06,0,0,225,27,445,-162,-225,272,0,0,0
11959,2023-01-20 11:09:17.581656,191896072,0,0.07,0.01,0.06,0,0,225,28,450,-166,-221,272,0,0,0
11991,2023-01-20 11:09:17.681676,191996071,0,0.07,0.01,0.06,0,0,227,30,451,-170,-216,271,0,0,0
12024,2023-01-20 11:09:17.781714,192096075,0,0.07,0.01,0.06,0,0,226,31,451,-176,-214,269,0,0,0
12056,2023-01-20 11:09:17.881715,192196073,0,0.07,0.01,0.06,0,0,226,32,451,-182,-210,267,0,0,0
12089,2023-01-20 11:09:17.981717,192296079,0,0.07,0.01,0.06,0,0,225,33,451,-188,-207,264,0,0,0
12122,2023-01-20 11:09:18.081701,192396080,0,0.07,0.01,0.06,0,0,222,34,451,-195,-207,263,0,0,0
12154,2023-01-20 11:09:18.181679,192496077,0,0.08,0.01,0.06,0,0,216,35,451,-204,-209,263,0,0,0
12187,2023-01-20 11:09:18.274343,192596070,0,0.07,0.01,0.06,0,0,210,35,451,-212,-210,264,0,0,0
12218,2023-01-20 11:09:18.365381,192696079,0,0.07,0.01,0.06,0,0,204,35,451,-220,-212,262,0,0,0
12252,2023-01-20 11:09:18.461918,192796071,0,0.07,0.02,0.06,0,0,204,35,450,-226,-213,261,0,0,0
12283,2023-01-20 11:09:18.561848,192896071,0,0.07,0.02,0.06,0,0,203,35,450,-231,-214,257,0,0,0
12316,2023-01-20 11:09:18.661821,192996071,0,0.06,0.02,0.07,0,0,204,35,450,-237,-216,256,0,0,0
12349,2023-01-20 11:09:18.761825,193096074,0,0.06,0.02,0.07,0,0,204,35,450,-237,-216,256,0,0,0
12381,2023-01-20 11:09:18.861809,193196092,0,0.05,0.02,0.07,0,0,204,35,450,-242,-217,257,0,0,0
12414,2023-01-20 11:09:18.961737,193296076,0,0.05,0.02,0.07,0,0,203,35,449,-245,-218,256,0,0,0
12446,2023-01-20 11:09:19.061722,193396068,0,0.04,0.03,0.07,0,0,205,34,450,-249,-218,259,0,0,0
12478,2023-01-20 11:09:19.161751,193496074,0,0.04,0.03,0.07,0,0,203,34,450,-252,-219,258,0,0,0
12511,2023-01-20 11:09:19.261823,193596077,0,0.02,0.03,0.07,0,0,205,34,450,-254,-218,259,0,0,0
12543,2023-01-20 11:09:19.361931,193696087,0,0.02,0.03,0.07,0,0,204,34,450,-256,-219,258,0,0,0
12578,2023-01-20 11:09:19.461859,193796072,0,0.01,0.03,0.07,0,0,205,34,450,-258,-218,259,0,0,0
12609,2023-01-20 11:09:19.561710,193896076,0,0.01,0.03,0.07,0,0,204,34,450,-260,-218,256,0,0,0
12642,2023-01-20 11:09:19.661668,193996072,0,0,0.03,0.07,0,0,205,33,451,-261,-216,256,0,0,0
12676,2023-01-20 11:09:19.761703,194096072,0,0,0.03,0.07,0,0,204,34,451,-263,-216,255,0,0,0
12708,2023-01-20 11:09:19.861708,194196071,0,0,0.03,0.07,0,0,204,34,451,-264,-215,254,0,0,0
12741,2023-01-20 11:09:19.961701,194296074,0,0,0.03,0.07,0,0,203,34,451,-265,-215,253,0,0,0
12774,2023-01-20 11:09:20.061706,194396076,0,0,0.02,0.07,0,0,204,33,451,-267,-214,252,0,0,0
12806,2023-01-20 11:09:20.161720,194496077,0,0,0.02,0.07,0,0,204,34,451,-267,-214,251,0,0,0
12838,2023-01-20 11:09:20.261712,194596071,0,-0.01,0.02,0.07,0,0,204,34,451,-268,-212,252,0,0,0
12870,2023-01-20 11:09:20.361708,194696077,0,-0.01,0.02,0.07,0,0,205,34,451,-269,-211,252,0,0,0
12904,2023-01-20 11:09:20.461686,194796073,0,-0.02,0.02,0.07,0,0,204,34,451,-271,-211,254,0,0,0
12937,2023-01-20 11:09:20.561663,194896072,0,-0.02,0.02,0.07,0,0,205,34,451,-271,-209,255,0,0,0
12970,2023-01-20 11:09:20.661683,194996088,0,-0.03,0.01,0.07,0,0,208,34,451,-270,-207,259,0,0,0
13003,2023-01-20 11:09:20.761687,195096070,0,-0.02,0.01,0.07,0,0,210,35,450,-270,-205,260,0,0,0
13035,2023-01-20 11:09:20.861702,195196079,0,-0.03,0.01,0.07,0,0,211,35,450,-271,-203,263,0,0,0
13068,2023-01-20 11:09:20.961705,195296084,0,-0.03,0.01,0.07,0,0,212,35,450,-271,-202,264,0,0,0
13101,2023-01-20 11:09:21.061692,195396071,0,-0.04,0,0.07,0,0,213,35,449,-271,-200,267,0,0,0
13132,2023-01-20 11:09:21.161697,195496074,0,-0.04,0,0.07,0,0,215,35,448,-271,-199,269,0,0,0
13166,2023-01-20 11:09:21.261705,195596081,0,-0.04,0,0.07,0,0,216,36,447,-271,-197,272,0,0,0
13198,2023-01-20 11:09:21.361696,195696072,0,-0.04,0,0.07,0,0,218,36,444,-271,-196,275,0,0,0
13232,2023-01-20 11:09:21.461698,195796102,0,-0.05,0,0.07,0,0,220,36,442,-270,-193,279,0,0,0
13263,2023-01-20 11:09:21.561641,195896091,0,-0.05,0,0.07,0,0,222,37,439,-270,-192,283,0,0,0
13296,2023-01-20 11:09:21.661631,195996068,0,-0.05,0,0.07,0,0,223,37,438,-270,-190,286,0,0,0
13329,2023-01-20 11:09:21.761686,196096072,0,-0.05,0,0.07,0,0,225,37,435,-270,-189,290,0,0,0
13361,2023-01-20 11:09:21.861711,196196080,0,-0.06,0,0.07,0,0,226,38,434,-270,-188,292,0,0,0
13394,2023-01-20 11:09:21.961700,196296073,0,-0.06,0,0.07,0,0,227,38,433,-270,-187,295,0,0,0
13427,2023-01-20 11:09:22.061693,196396080,0,-0.06,-0.01,0.07,0,0,228,38,431,-270,-185,298,0,0,0
13458,2023-01-20 11:09:22.161677,196496085,0,-0.06,-0.01,0.07,0,0,229,38,429,-270,-184,301,0,0,0
13492,2023-01-20 11:09:22.261667,196596071,0,-0.06,-0.01,0.07,0,0,231,38,428,-270,-183,303,0,0,0
13524,2023-01-20 11:09:22.361688,196696072,0,-0.06,-0.01,0.07,0,0,232,38,427,-270,-182,305,0,0,0
13558,2023-01-20 11:09:22.461691,196796083,0,-0.07,-0.01,0.07,0,0,232,38,426,-270,-182,307,0,0,0
13589,2023-01-20 11:09:22.561657,196896074,0,-0.07,-0.01,0.07,0,0,232,38,426,-271,-181,309,0,0,0
13622,2023-01-20 11:09:22.661656,196996067,0,-0.07,-0.02,0.07,0,0,232,38,425,-271,-181,311,0,0,0
13655,2023-01-20 11:09:22.761694,197096081,0,-0.07,-0.02,0.07,0,0,233,38,424,-272,-180,313,0,0,0
13687,2023-01-20 11:09:22.861695,197196071,0,-0.07,-0.02,0.07,0,0,233,38,423,-272,-180,316,0,0,0
13720,2023-01-20 11:09:22.961698,197296071,0,-0.07,-0.02,0.07,0,0,234,38,422,-272,-179,318,0,0,0
13753,2023-01-20 11:09:23.061711,197396081,0,-0.08,-0.02,0.07,0,0,234,39,421,-273,-179,320,0,0,0
13784,2023-01-20 11:09:23.161708,197496075,0,-0.08,-0.02,0.07,0,0,234,39,420,-273,-179,322,0,0,0
13818,2023-01-20 11:09:23.261696,197596067,0,-0.08,-0.02,0.07,0,0,233,39,420,-273,-179,323,0,0,0
13850,2023-01-20 11:09:23.361701,197696081,0,-0.08,-0.02,0.07,0,0,233,39,419,-274,-179,326,0,0,0
13884,2023-01-20 11:09:23.461685,197796077,0,-0.09,-0.03,0.07,0,0,232,39,418,-275,-179,328,0,0,0
13915,2023-01-20 11:09:23.561682,197896087,0,-0.09,-0.03,0.07,0,0,232,39,417,-275,-179,329,0,0,0
13948,2023-01-20 11:09:23.661678,197996074,0,-0.09,-0.03,0.07,0,0,232,38,417,-276,-179,331,0,0,0
13981,2023-01-20 11:09:23.761700,198096073,0,-0.09,-0.03,0.07,0,0,232,39,416,-276,-178,332,0,0,0
14013,2023-01-20 11:09:23.861703,198196071,0,-0.09,-0.03,0.07,0,0,232,39,416,-277,-178,333,0,0,0
14046,2023-01-20 11:09:23.961705,198296080,0,-0.09,-0.03,0.07,0,0,232,39,415,-277,-178,335,0,0,0
14079,2023-01-20 11:09:24.061682,198396071,0,-0.09,-0.03,0.07,0,0,232,39,414,-277,-178,336,0,0,0
14110,2023-01-20 11:09:24.161675,198496084,0,-0.09,-0.03,0.07,0,0,232,39,414,-277,-178,337,0,0,0
14144,2023-01-20 11:09:24.261675,198596075,0,-0.09,-0.03,0.08,0,0,232,39,413,-278,-178,338,0,0,0
14176,2023-01-20 11:09:24.361698,198696071,0,-0.09,-0.03,0.08,0,0,232,39,412,-278,-178,340,0,0,0
14210,2023-01-20 11:09:24.461694,198796075,0,-0.09,-0.03,0.08,0,0,232,39,411,-278,-178,341,0,0,0
14242,2023-01-20 11:09:24.561657,198896067,0,-0.09,-0.03,0.08,0,0,232,39,410,-279,-177,343,0,0,0
14275,2023-01-20 11:09:24.661654,198996072,0,-0.09,-0.03,0.08,0,0,232,39,409,-279,-177,344,0,0,0
14308,2023-01-20 11:09:24.761668,199096080,0,-0.09,-0.03,0.08,0,0,232,39,409,-279,-177,346,0,0,0
14340,2023-01-20 11:09:24.861669,199196067,0,-0.09,-0.04,0.08,0,0,232,39,408,-279,-177,347,0,0,0
14373,2023-01-20 11:09:24.961691,199296070,0,-0.09,-0.04,0.08,0,0,232,39,407,-280,-177,348,0,0,0
14406,2023-01-20 11:09:25.061700,199396072,0,-0.09,-0.04,0.08,0,0,231,39,407,-280,-177,348,0,0,0
14437,2023-01-20 11:09:25.161720,199496091,0,-0.09,-0.04,0.08,0,0,232,39,406,-280,-176,349,0,0,0
14471,2023-01-20 11:09:25.261706,199596071,0,-0.09,-0.04,0.08,0,0,232,39,406,-280,-176,349,0,0,0
14503,2023-01-20 11:09:25.361727,199696083,0,-0.09,-0.03,0.08,0,0,232,39,405,-280,-176,350,0,0,0
14537,2023-01-20 11:09:25.461708,199796082,0,-0.09,-0.03,0.08,0,0,232,39,405,-280,-176,351,0,0,0
14570,2023-01-20 11:09:25.561656,199896067,0,-0.09,-0.03,0.08,0,0,233,39,405,-280,-176,351,0,0,0
14603,2023-01-20 11:09:25.661662,199996071,0,-0.09,-0.03,0.08,0,0,233,39,404,-280,-175,351,0,0,0
14636,2023-01-20 11:09:25.761688,200096071,0,-0.09,-0.03,0.08,0,0,233,39,404,-280,-175,351,0,0,0
14668,2023-01-20 11:09:25.861698,200196068,0,-0.09,-0.03,0.08,0,0,233,39,404,-280,-175,352,0,0,0
14701,2023-01-20 11:09:25.961710,200296074,0,-0.09,-0.03,0.08,0,0,234,40,403,-280,-174,353,0,0,0
14734,2023-01-20 11:09:26.061694,200396072,0,-0.09,-0.03,0.08,0,0,234,40,402,-280,-174,353,0,0,0
14765,2023-01-20 11:09:26.161669,200496073,0,-0.09,-0.03,0.08,0,0,234,40,402,-280,-174,353,0,0,0
14799,2023-01-20 11:09:26.261672,200596070,0,-0.09,-0.03,0.08,0,0,234,40,402,-280,-174,353,0,0,0
14831,2023-01-20 11:09:26.361701,200696074,0,-0.09,-0.03,0.08,0,0,234,40,402,-280,-174,353,0,0,0
14865,2023-01-20 11:09:26.461693,200796074,0,-0.09,-0.03,0.08,0,0,234,40,403,-280,-174,354,0,0,0
14896,2023-01-20 11:09:26.561671,200896083,0,-0.09,-0.03,0.08,0,0,234,40,403,-281,-174,354,0,0,0
14929,2023-01-20 11:09:26.661651,200996072,0,-0.09,-0.03,0.08,0,0,233,39,404,-281,-174,353,0,0,0
14962,2023-01-20 11:09:26.761662,201096080,0,-0.09,-0.03,0.08,0,0,233,39,404,-281,-174,354,0,0,0
14994,2023-01-20 11:09:26.861679,201196077,0,-0.09,-0.03,0.08,0,0,232,39,404,-281,-174,354,0,0,0
15027,2023-01-20 11:09:26.961711,201296078,0,-0.09,-0.03,0.08,0,0,232,39,404,-282,-174,354,0,0,0
15060,2023-01-20 11:09:27.061710,201396071,0,-0.09,-0.03,0.08,0,0,232,39,405,-282,-175,354,0,0,0
15091,2023-01-20 11:09:27.161715,201496085,0,-0.1,-0.03,0.08,0,0,231,39,405,-283,-175,354,0,0,0
15125,2023-01-20 11:09:27.261690,201596071,0,-0.1,-0.04,0.08,0,0,231,39,406,-283,-175,354,0,0,0
15157,2023-01-20 11:09:27.361683,201696075,0,-0.1,-0.04,0.08,0,0,231,39,406,-283,-175,354,0,0,0
15191,2023-01-20 11:09:27.461700,201796091,0,-0.1,-0.04,0.08,0,0,231,39,406,-283,-175,354,0,0,0
15222,2023-01-20 11:09:27.561692,201896074,0,-0.1,-0.04,0.08,0,0,231,39,406,-283,-175,354,0,0,0
15255,2023-01-20 11:09:27.661702,201996077,0,-0.1,-0.03,0.08,0,0,231,39,406,-283,-175,354,0,0,0
15288,2023-01-20 11:09:27.761716,202096085,0,-0.1,-0.03,0.08,0,0,231,39,406,-283,-175,354,0,0,0
15320,2023-01-20 11:09:27.861724,202196091,0,-0.1,-0.03,0.08,0,0,231,39,406,-283,-175,354,0,0,0
15354,2023-01-20 11:09:27.961723,202296090,0,-0.1,-0.03,0.08,0,0,231,39,406,-283,-175,354,0,0,0
15386,2023-01-20 11:09:28.061726,202396089,0,-0.1,-0.03,0.08,0,0,231,39,406,-283,-175,354,0,0,0
15417,2023-01-20 11:09:28.161716,202496073,0,-0.1,-0.03,0.08,0,0,231,39,406,-283,-175,354,0,0,0
15451,2023-01-20 11:09:28.261714,202596072,0,-0.1,-0.03,0.08,0,0,231,39,406,-283,-175,354,0,0,0
15483,2023-01-20 11:09:28.361719,202696083,0,-0.1,-0.03,0.08,0,0,231,39,406,-283,-174,354,0,0,0
15517,2023-01-20 11:09:28.456124,202796090,0,-0.1,-0.03,0.08,0,0,232,39,406,-283,-174,354,0,0,0
15548,2023-01-20 11:09:28.547036,202896074,0,-0.09,-0.03,0.08,0,0,232,39,405,-283,-174,354,0,0,0
15581,2023-01-20 11:09:28.641755,202996077,0,-0.09,-0.03,0.08,0,0,232,39,405,-283,-174,354,0,0,0
15614,2023-01-20 11:09:28.741749,203096070,0,-0.09,-0.03,0.08,0,0,233,39,405,-283,-174,355,0,0,0
15646,2023-01-20 11:09:28.841750,203196071,0,-0.09,-0.03,0.08,0,0,233,39,405,-282,-173,355,0,0,0
15680,2023-01-20 11:09:28.941761,203296083,0,-0.09,-0.03,0.08,0,0,233,39,405,-282,-173,355,0,0,0
15712,2023-01-20 11:09:29.041750,203396071,0,-0.09,-0.03,0.08,0,0,233,39,405,-283,-173,355,0,0,0
15743,2023-01-20 11:09:29.141762,203496076,0,-0.09,-0.03,0.08,0,0,233,39,405,-283,-173,355,0,0,0
15777,2023-01-20 11:09:29.241751,203596072,0,-0.09,-0.03,0.08,0,0,233,39,405,-283,-173,355,0,0,0
15809,2023-01-20 11:09:29.341729,203696075,0,-0.09,-0.03,0.08,0,0,233,39,405,-283,-173,355,0,0,0
15843,2023-01-20 11:09:29.441703,203796070,0,-0.09,-0.02,0.08,0,0,233,39,405,-283,-173,355,0,0,0
15874,2023-01-20 11:09:29.541696,203896078,0,-0.09,-0.02,0.08,0,0,233,39,405,-283,-173,355,0,0,0
15908,2023-01-20 11:09:29.641726,203996071,0,-0.09,-0.03,0.08,0,0,233,39,405,-283,-173,355,0,0,0
15942,2023-01-20 11:09:29.741863,204096097,0,-0.09,-0.03,0.08,0,0,233,39,405,-283,-173,355,0,0,0
15974,2023-01-20 11:09:29.841872,204196071,0,-0.09,-0.02,0.08,0,0,233,39,405,-283,-173,355,0,0,0
16008,2023-01-20 11:09:29.941819,204296088,0,-0.09,-0.03,0.08,0,0,233,39,405,-283,-173,355,0,0,0
16040,2023-01-20 11:09:30.041755,204396084,0,-0.09,-0.03,0.08,0,0,232,39,405,-283,-173,356,0,0,0
16071,2023-01-20 11:09:30.141712,204496086,0,-0.09,-0.03,0.08,0,0,232,39,406,-284,-174,355,0,0,0
16105,2023-01-20 11:09:30.241678,204596072,0,-0.09,-0.03,0.08,0,0,232,39,406,-284,-174,355,0,0,0
16137,2023-01-20 11:09:30.341706,204696084,0,-0.09,-0.03,0.08,0,0,232,39,406,-284,-174,355,0,0,0
16171,2023-01-20 11:09:30.441694,204796071,0,-0.09,-0.03,0.08,0,0,232,39,406,-284,-174,355,0,0,0
16204,2023-01-20 11:09:30.541685,204896080,0,-0.09,-0.03,0.08,0,0,232,39,407,-284,-174,355,0,0,0
16237,2023-01-20 11:09:30.641673,204996081,0,-0.09,-0.03,0.08,0,0,231,39,407,-284,-174,355,0,0,0
16270,2023-01-20 11:09:30.741665,205096079,0,-0.09,-0.03,0.08,0,0,231,38,407,-284,-174,356,0,0,0
16302,2023-01-20 11:09:30.841669,205196071,0,-0.1,-0.03,0.08,0,0,231,38,407,-285,-174,355,0,0,0
16379,2023-01-20 11:09:30.941724,205296091,0,-0.1,-0.03,0.08,0,0,231,38,407,-285,-174,355,0,0,0
16411,2023-01-20 11:09:31.041717,205396067,0,-0.1,-0.03,0.08,0,0,230,38,407,-285,-174,356,0,0,0
16442,2023-01-20 11:09:31.141721,205496077,0,-0.1,-0.03,0.08,0,0,230,38,408,-285,-175,355,0,0,0
16476,2023-01-20 11:09:31.241731,205596094,0,-0.1,-0.03,0.08,0,0,230,38,408,-285,-175,355,0,0,0
16508,2023-01-20 11:09:31.341720,205696091,0,-0.1,-0.04,0.08,0,0,230,38,408,-286,-175,355,0,0,0
16541,2023-01-20 11:09:31.441696,205796078,0,-0.1,-0.04,0.08,0,0,229,38,408,-286,-175,355,0,0,0
16572,2023-01-20 11:09:31.541686,205896084,0,-0.1,-0.04,0.08,0,0,229,38,409,-286,-175,355,0,0,0
16605,2023-01-20 11:09:31.641667,205996067,0,-0.1,-0.04,0.08,0,0,229,38,408,-286,-175,355,0,0,0
16638,2023-01-20 11:09:31.741692,206096072,0,-0.09,-0.04,0.08,0,0,229,38,408,-286,-175,355,0,0,0
16670,2023-01-20 11:09:31.841718,206196085,0,-0.1,-0.04,0.08,0,0,229,38,408,-286,-175,356,0,0,0
16704,2023-01-20 11:09:31.941715,206296079,0,-0.1,-0.04,0.08,0,0,229,38,408,-286,-175,356,0,0,0
16736,2023-01-20 11:09:32.041709,206396071,0,-0.1,-0.04,0.08,0,0,229,38,408,-286,-175,356,0,0,0
16767,2023-01-20 11:09:32.141729,206496090,0,-0.1,-0.04,0.08,0,0,229,38,407,-286,-175,357,0,0,0
16801,2023-01-20 11:09:32.241714,206596077,0,-0.1,-0.04,0.08,0,0,229,38,407,-286,-175,357,0,0,0
16833,2023-01-20 11:09:32.341707,206696076,0,-0.1,-0.04,0.08,0,0,229,38,407,-286,-175,357,0,0,0
16867,2023-01-20 11:09:32.441709,206796090,0,-0.1,-0.04,0.08,0,0,229,38,407,-286,-175,358,0,0,0
16898,2023-01-20 11:09:32.541674,206896075,0,-0.1,-0.04,0.08,0,0,229,38,405,-286,-175,359,0,0,0
16931,2023-01-20 11:09:32.641653,206996067,0,-0.1,-0.05,0.08,0,0,229,38,405,-286,-175,360,0,0,0
16964,2023-01-20 11:09:32.741663,207096080,0,-0.1,-0.05,0.08,0,0,229,38,404,-286,-175,361,0,0,0
16996,2023-01-20 11:09:32.841674,207196080,0,-0.09,-0.05,0.08,0,0,229,38,404,-287,-175,361,0,0,0
17030,2023-01-20 11:09:32.941697,207296073,0,-0.09,-0.05,0.08,0,0,229,38,404,-287,-175,361,0,0,0
17062,2023-01-20 11:09:33.041721,207396080,0,-0.09,-0.05,0.08,0,0,229,38,404,-287,-175,361,0,0,0
17093,2023-01-20 11:09:33.141719,207496077,0,-0.09,-0.05,0.08,0,0,228,38,404,-287,-175,362,0,0,0
17127,2023-01-20 11:09:33.241700,207596071,0,-0.09,-0.05,0.08,0,0,228,37,404,-287,-175,362,0,0,0
17159,2023-01-20 11:09:33.341682,207696085,0,-0.09,-0.05,0.08,0,0,228,37,403,-287,-175,362,0,0,0
17193,2023-01-20 11:09:33.441692,207796113,0,-0.09,-0.05,0.08,0,0,228,37,403,-287,-175,363,0,0,0
17224,2023-01-20 11:09:33.541655,207896074,0,-0.09,-0.05,0.08,0,0,228,37,403,-287,-175,363,0,0,0
17257,2023-01-20 11:09:33.641674,207996083,0,-0.09,-0.05,0.08,0,0,228,37,403,-287,-175,364,0,0,0
17290,2023-01-20 11:09:33.741694,208096080,0,-0.09,-0.05,0.08,0,0,228,37,403,-288,-175,364,0,0,0
17322,2023-01-20 11:09:33.841701,208196071,0,-0.09,-0.05,0.08,0,0,228,37,403,-288,-175,364,0,0,0
17356,2023-01-20 11:09:33.941718,208296081,0,-0.09,-0.05,0.08,0,0,228,37,403,-288,-175,364,0,0,0
17388,2023-01-20 11:09:34.041721,208396079,0,-0.09,-0.05,0.08,0,0,228,37,403,-288,-176,364,0,0,0
17419,2023-01-20 11:09:34.141734,208496089,0,-0.09,-0.05,0.08,0,0,228,37,403,-288,-176,364,0,0,0
17453,2023-01-20 11:09:34.241726,208596081,0,-0.09,-0.05,0.08,0,0,227,37,403,-288,-176,365,0,0,0
17485,2023-01-20 11:09:34.341719,208696075,0,-0.09,-0.05,0.08,0,0,227,37,403,-289,-176,364,0,0,0
17519,2023-01-20 11:09:34.441733,208796100,0,-0.09,-0.05,0.08,0,0,227,37,404,-289,-176,364,0,0,0
17550,2023-01-20 11:09:34.541692,208896083,0,-0.09,-0.05,0.08,0,0,227,37,404,-289,-176,364,0,0,0
17583,2023-01-20 11:09:34.641683,208996080,0,-0.08,-0.05,0.08,0,0,227,37,404,-289,-176,364,0,0,0
17617,2023-01-20 11:09:34.741696,209096074,0,-0.08,-0.05,0.08,0,0,227,37,404,-289,-176,364,0,0,0
17649,2023-01-20 11:09:34.841714,209196079,0,-0.08,-0.05,0.08,0,0,227,37,404,-289,-176,364,0,0,0
17683,2023-01-20 11:09:34.941713,209296074,0,-0.08,-0.05,0.08,0,0,227,37,405,-289,-176,364,0,0,0
17715,2023-01-20 11:09:35.041716,209396074,0,-0.08,-0.05,0.08,0,0,227,37,405,-290,-176,363,0,0,0
17746,2023-01-20 11:09:35.141735,209496094,0,-0.08,-0.06,0.08,0,0,226,37,405,-290,-176,363,0,0,0
17780,2023-01-20 11:09:35.241696,209596068,0,-0.08,-0.05,0.08,0,0,227,37,405,-290,-176,364,0,0,0
17812,2023-01-20 11:09:35.341680,209696082,0,-0.08,-0.05,0.08,0,0,227,37,405,-290,-176,364,0,0,0
17846,2023-01-20 11:09:35.441687,209796100,0,-0.08,-0.05,0.08,0,0,227,36,405,-290,-176,364,0,0,0
17879,2023-01-20 11:09:35.541681,209896076,0,-0.08,-0.05,0.08,0,0,226,36,405,-290,-176,364,0,0,0
17912,2023-01-20 11:09:35.641696,209996078,0,-0.08,-0.06,0.08,0,0,226,36,406,-290,-176,363,0,0,0
17945,2023-01-20 11:09:35.741724,210096097,0,-0.08,-0.06,0.08,0,0,226,36,407,-290,-177,363,0,0,0
17977,2023-01-20 11:09:35.841697,210196072,0,-0.08,-0.06,0.08,0,0,226,36,407,-291,-177,363,0,0,0
18011,2023-01-20 11:09:35.941681,210296071,0,-0.08,-0.06,0.08,0,0,226,36,407,-291,-177,362,0,0,0
18043,2023-01-20 11:09:36.041685,210396074,0,-0.08,-0.06,0.08,0,0,226,36,408,-291,-177,362,0,0,0
18074,2023-01-20 11:09:36.141712,210496078,0,-0.08,-0.06,0.08,0,0,225,36,409,-291,-177,361,0,0,0
18108,2023-01-20 11:09:36.241715,210596068,0,-0.08,-0.06,0.08,0,0,225,36,409,-291,-177,361,0,0,0
18140,2023-01-20 11:09:36.341726,210696079,0,-0.08,-0.06,0.08,0,0,225,36,410,-291,-177,361,0,0,0
18174,2023-01-20 11:09:36.437982,210796101,0,-0.08,-0.06,0.08,0,0,225,36,411,-292,-177,360,0,0,0
18205,2023-01-20 11:09:36.528947,210896085,0,-0.08,-0.06,0.08,0,0,224,36,411,-292,-177,360,0,0,0
18238,2023-01-20 11:09:36.621890,210996071,0,-0.08,-0.06,0.08,0,0,224,36,411,-292,-177,360,0,0,0
18271,2023-01-20 11:09:36.721901,211096079,0,-0.08,-0.06,0.08,0,0,224,36,411,-292,-177,360,0,0,0
18303,2023-01-20 11:09:36.821904,211196076,0,-0.08,-0.06,0.08,0,0,224,36,412,-292,-177,361,0,0,0
18337,2023-01-20 11:09:36.921934,211296092,0,-0.08,-0.06,0.08,0,0,224,36,412,-293,-177,361,0,0,0
18369,2023-01-20 11:09:37.021921,211396072,0,-0.08,-0.06,0.08,0,0,224,35,412,-293,-178,361,0,0,0
18400,2023-01-20 11:09:37.121925,211496092,0,-0.08,-0.06,0.08,0,0,224,35,412,-293,-178,361,0,0,0
18434,2023-01-20 11:09:37.221880,211596067,0,-0.08,-0.07,0.08,0,0,224,35,412,-293,-178,362,0,0,0
18466,2023-01-20 11:09:37.321862,211696081,0,-0.08,-0.07,0.08,0,0,224,35,412,-293,-178,362,0,0,0
18500,2023-01-20 11:09:37.424267,211796104,0,-0.08,-0.07,0.08,0,0,224,35,411,-293,-178,363,0,0,0
18531,2023-01-20 11:09:37.535254,211896078,0,-0.08,-0.07,0.08,0,0,224,35,411,-293,-178,363,0,0,0
18564,2023-01-20 11:09:37.637891,211996071,0,-0.08,-0.07,0.08,0,0,223,35,411,-293,-178,363,0,0,0
18597,2023-01-20 11:09:37.728838,212096090,0,-0.08,-0.07,0.08,0,0,223,35,411,-293,-178,363,0,0,0
18629,2023-01-20 11:09:37.821722,212196068,0,-0.08,-0.07,0.08,0,0,223,35,411,-294,-178,364,0,0,0
18663,2023-01-20 11:09:37.921749,212296077,0,-0.08,-0.07,0.08,0,0,223,35,411,-294,-178,364,0,0,0
18695,2023-01-20 11:09:38.021763,212396079,0,-0.07,-0.07,0.08,0,0,223,35,411,-294,-178,364,0,0,0
18726,2023-01-20 11:09:38.121763,212496091,0,-0.07,-0.07,0.08,0,0,223,35,411,-294,-178,364,0,0,0
18760,2023-01-20 11:09:38.221745,212596086,0,-0.07,-0.07,0.08,0,0,223,35,411,-294,-178,364,0,0,0
18792,2023-01-20 11:09:38.321735,212696092,0,-0.07,-0.07,0.08,0,0,223,35,411,-294,-178,364,0,0,0
18826,2023-01-20 11:09:38.421698,212796071,0,-0.07,-0.07,0.08,0,0,223,35,411,-294,-178,365,0,0,0
18857,2023-01-20 11:09:38.521684,212896073,0,-0.07,-0.07,0.08,0,0,223,35,411,-294,-178,364,0,0,0
18890,2023-01-20 11:09:38.621684,212996082,0,-0.07,-0.07,0.08,0,0,223,35,411,-294,-178,364,0,0,0
18923,2023-01-20 11:09:38.721696,213096082,0,-0.07,-0.07,0.08,0,0,223,35,411,-294,-178,364,0,0,0
18955,2023-01-20 11:09:38.821697,213196071,0,-0.07,-0.07,0.08,0,0,223,35,411,-294,-178,364,0,0,0
18989,2023-01-20 11:09:38.921729,213296091,0,-0.07,-0.07,0.08,0,0,223,35,411,-294,-178,364,0,0,0
19021,2023-01-20 11:09:39.021717,213396071,0,-0.07,-0.07,0.08,0,0,223,35,411,-294,-178,365,0,0,0
19052,2023-01-20 11:09:39.121716,213496074,0,-0.07,-0.07,0.08,0,0,223,35,411,-294,-178,364,0,0,0
19086,2023-01-20 11:09:39.221714,213596081,0,-0.07,-0.07,0.08,0,0,223,35,412,-295,-178,364,0,0,0
19118,2023-01-20 11:09:39.321691,213696082,0,-0.07,-0.07,0.08,0,0,223,35,412,-295,-178,364,0,0,0
19152,2023-01-20 11:09:39.421696,213796105,0,-0.07,-0.07,0.08,0,0,223,35,412,-295,-178,364,0,0,0
19183,2023-01-20 11:09:39.521684,213896089,0,-0.07,-0.07,0.08,0,0,223,34,412,-295,-178,364,0,0,0
19216,2023-01-20 11:09:39.621671,213996070,0,-0.07,-0.07,0.08,0,0,223,34,412,-295,-178,364,0,0,0
19250,2023-01-20 11:09:39.721684,214096071,0,-0.07,-0.07,0.08,0,0,223,34,412,-295,-178,364,0,0,0
19285,2023-01-20 11:09:39.821704,214196079,0,-0.07,-0.07,0.08,0,0,223,34,412,-295,-178,364,0,0,0
19319,2023-01-20 11:09:39.921719,214296082,0,-0.07,-0.07,0.08,0,0,223,34,412,-295,-178,364,0,0,0
19351,2023-01-20 11:09:40.021724,214396079,0,-0.07,-0.07,0.08,0,0,223,34,412,-295,-178,364,0,0,0
19382,2023-01-20 11:09:40.121736,214496095,0,-0.07,-0.07,0.08,0,0,223,34,412,-295,-178,364,0,0,0
19416,2023-01-20 11:09:40.221709,214596072,0,-0.07,-0.07,0.08,0,0,223,34,412,-295,-178,364,0,0,0
19448,2023-01-20 11:09:40.321710,214696075,0,-0.07,-0.07,0.08,0,0,223,34,412,-295,-178,364,0,0,0
19482,2023-01-20 11:09:40.421710,214796081,0,-0.07,-0.07,0.08,0,0,223,34,412,-295,-178,365,0,0,0
19515,2023-01-20 11:09:40.521687,214896079,0,-0.07,-0.07,0.08,0,0,223,34,411,-295,-178,365,0,0,0
19548,2023-01-20 11:09:40.621675,214996079,0,-0.06,-0.07,0.08,0,0,223,34,411,-295,-178,365,0,0,0
19581,2023-01-20 11:09:40.721688,215096075,0,-0.06,-0.07,0.08,0,0,223,34,410,-295,-178,365,0,0,0
19613,2023-01-20 11:09:40.821700,215196072,0,-0.06,-0.07,0.08,0,0,223,34,410,-295,-178,366,0,0,0
19647,2023-01-20 11:09:40.921718,215296078,0,-0.06,-0.07,0.08,0,0,223,34,410,-295,-178,366,0,0,0
19679,2023-01-20 11:09:41.021727,215396078,0,-0.06,-0.07,0.08,0,0,224,34,410,-295,-178,366,0,0,0
19710,2023-01-20 11:09:41.121747,215496100,0,-0.06,-0.07,0.08,0,0,224,34,409,-294,-178,366,0,0,0
19744,2023-01-20 11:09:41.221711,215596072,0,-0.06,-0.07,0.08,0,0,224,34,409,-294,-178,367,0,0,0
19776,2023-01-20 11:09:41.321683,215696076,0,-0.06,-0.07,0.08,0,0,224,34,408,-294,-178,367,0,0,0
19810,2023-01-20 11:09:41.421662,215796078,0,-0.06,-0.07,0.08,0,0,224,34,408,-294,-178,367,0,0,0
19841,2023-01-20 11:09:41.521667,215896075,0,-0.06,-0.07,0.08,0,0,224,34,408,-294,-178,367,0,0,0
19874,2023-01-20 11:09:41.621671,215996071,0,-0.06,-0.07,0.08,0,0,224,34,407,-294,-178,368,0,0,0
19907,2023-01-20 11:09:41.721688,216096080,0,-0.06,-0.07,0.08,0,0,224,34,407,-294,-178,368,0,0,0
19939,2023-01-20 11:09:41.821684,216196071,0,-0.06,-0.07,0.08,0,0,224,34,407,-294,-178,368,0,0,0
19973,2023-01-20 11:09:41.921690,216296081,0,-0.06,-0.07,0.08,0,0,224,34,407,-294,-178,368,0,0,0
20005,2023-01-20 11:09:42.021678,216396068,0,-0.06,-0.07,0.08,0,0,224,34,407,-294,-178,368,0,0,0
20036,2023-01-20 11:09:42.121709,216496082,0,-0.06,-0.07,0.08,0,0,224,34,407,-294,-177,368,0,0,0
20070,2023-01-20 11:09:42.221709,216596071,0,-0.05,-0.07,0.08,0,0,224,34,407,-294,-177,368,0,0,0
20102,2023-01-20 11:09:42.321703,216696073,0,-0.05,-0.07,0.08,0,0,224,34,407,-294,-177,368,0,0,0
20136,2023-01-20 11:09:42.421707,216796087,0,-0.05,-0.07,0.08,0,0,225,34,407,-294,-177,368,0,0,0
20167,2023-01-20 11:09:42.521682,216896076,0,-0.05,-0.07,0.08,0,0,225,34,407,-294,-177,368,0,0,0
20200,2023-01-20 11:09:42.621664,216996067,0,-0.05,-0.07,0.08,0,0,225,34,407,-294,-177,368,0,0,0
20233,2023-01-20 11:09:42.721693,217096087,0,-0.05,-0.07,0.08,0,0,225,34,407,-294,-177,368,0,0,0
20265,2023-01-20 11:09:42.821689,217196072,0,-0.05,-0.07,0.08,0,0,224,34,407,-294,-177,368,0,0,0
20299,2023-01-20 11:09:42.921720,217296086,0,-0.05,-0.07,0.08,0,0,225,34,407,-294,-177,368,0,0,0
20331,2023-01-20 11:09:43.021732,217396085,0,-0.05,-0.07,0.08,0,0,225,34,407,-294,-177,368,0,0,0
20362,2023-01-20 11:09:43.121726,217496080,0,-0.05,-0.07,0.08,0,0,224,34,407,-294,-177,368,0,0,0
20396,2023-01-20 11:09:43.221714,217596072,0,-0.05,-0.07,0.08,0,0,225,34,407,-294,-177,368,0,0,0
20428,2023-01-20 11:09:43.321714,217696085,0,-0.05,-0.07,0.08,0,0,225,34,407,-294,-177,368,0,0,0
20461,2023-01-20 11:09:43.421722,217796106,0,-0.05,-0.07,0.08,0,0,225,34,407,-294,-177,368,0,0,0
20492,2023-01-20 11:09:43.521682,217896076,0,-0.05,-0.07,0.08,0,0,224,34,407,-294,-177,368,0,0,0
20525,2023-01-20 11:09:43.621676,217996076,0,-0.05,-0.07,0.08,0,0,224,34,407,-295,-177,368,0,0,0
20558,2023-01-20 11:09:43.721689,218096078,0,-0.05,-0.07,0.08,0,0,224,34,407,-295,-177,368,0,0,0
20590,2023-01-20 11:09:43.821690,218196072,0,-0.05,-0.07,0.08,0,0,224,34,407,-295,-177,368,0,0,0
20624,2023-01-20 11:09:43.921707,218296100,0,-0.05,-0.07,0.08,0,0,224,34,408,-295,-177,368,0,0,0
20656,2023-01-20 11:09:44.021673,218396069,0,-0.05,-0.07,0.08,0,0,224,34,408,-295,-177,368,0,0,0
20687,2023-01-20 11:09:44.121701,218496074,0,-0.05,-0.07,0.08,0,0,224,34,408,-295,-177,368,0,0,0
20721,2023-01-20 11:09:44.221722,218596080,0,-0.05,-0.07,0.08,0,0,224,34,408,-295,-177,368,0,0,0
20753,2023-01-20 11:09:44.321712,218696080,0,-0.05,-0.07,0.08,0,0,224,34,408,-295,-177,368,0,0,0
20787,2023-01-20 11:09:44.421693,218796077,0,-0.05,-0.08,0.08,0,0,224,34,408,-295,-177,368,0,0,0
20818,2023-01-20 11:09:44.521660,218896082,0,-0.05,-0.08,0.08,0,0,224,34,408,-296,-177,369,0,0,0
20851,2023-01-20 11:09:44.621625,218996068,0,-0.05,-0.08,0.08,0,0,224,34,408,-296,-177,369,0,0,0
20884,2023-01-20 11:09:44.721672,219096074,0,-0.05,-0.08,0.08,0,0,224,33,409,-296,-177,369,0,0,0
20916,2023-01-20 11:09:44.821706,219196074,0,-0.04,-0.08,0.08,0,0,224,33,409,-296,-177,369,0,0,0
20951,2023-01-20 11:09:44.921730,219296088,0,-0.04,-0.08,0.08,0,0,224,33,409,-296,-177,369,0,0,0
20983,2023-01-20 11:09:45.021720,219396071,0,-0.04,-0.08,0.08,0,0,224,33,409,-296,-177,369,0,0,0
21014,2023-01-20 11:09:45.121737,219496087,0,-0.04,-0.08,0.08,0,0,224,33,409,-296,-177,369,0,0,0
21048,2023-01-20 11:09:45.221721,219596073,0,-0.04,-0.08,0.08,0,0,224,33,408,-296,-177,370,0,0,0
21080,2023-01-20 11:09:45.321710,219696075,0,-0.04,-0.08,0.08,0,0,224,33,408,-296,-177,370,0,0,0
21114,2023-01-20 11:09:45.421721,219796094,0,-0.04,-0.08,0.08,0,0,224,33,408,-296,-177,370,0,0,0
21147,2023-01-20 11:09:45.521710,219896074,0,-0.04,-0.08,0.08,0,0,224,33,408,-296,-177,370,0,0,0
21180,2023-01-20 11:09:45.619738,219996074,0,-0.04,-0.08,0.08,0,0,224,33,408,-296,-177,371,0,0,0
21213,2023-01-20 11:09:45.710630,220096077,0,-0.04,-0.08,0.08,0,0,224,33,408,-296,-177,371,0,0,0
21245,2023-01-20 11:09:45.801679,220196086,0,-0.04,-0.08,0.08,0,0,224,33,408,-296,-177,371,0,0,0
21279,2023-01-20 11:09:45.901627,220296072,0,-0.04,-0.08,0.08,0,0,224,33,408,-296,-177,371,0,0,0
21311,2023-01-20 11:09:46.001615,220396096,0,-0.04,-0.08,0.08,0,0,224,33,408,-296,-177,371,0,0,0
21342,2023-01-20 11:09:46.101629,220496076,0,-0.04,-0.08,0.08,0,0,224,33,408,-296,-177,371,0,0,0
21376,2023-01-20 11:09:46.201672,220596086,0,-0.04,-0.08,0.08,0,0,224,33,408,-296,-177,372,0,0,0
21408,2023-01-20 11:09:46.301643,220696071,0,-0.04,-0.08,0.08,0,0,224,33,408,-296,-177,372,0,0,0
21442,2023-01-20 11:09:46.401646,220796088,0,-0.04,-0.08,0.08,0,0,224,33,408,-297,-177,372,0,0,0
21473,2023-01-20 11:09:46.501619,220896072,0,-0.04,-0.08,0.08,0,0,224,33,408,-297,-177,372,0,0,0
21506,2023-01-20 11:09:46.601631,220996094,0,-0.04,-0.08,0.08,0,0,224,33,408,-297,-177,372,0,0,0
21539,2023-01-20 11:09:46.701631,221096086,0,-0.04,-0.08,0.08,0,0,224,33,408,-297,-177,372,0,0,0
21571,2023-01-20 11:09:46.801644,221196091,0,-0.04,-0.08,0.08,0,0,224,33,408,-297,-177,372,0,0,0
21605,2023-01-20 11:09:46.901613,221296082,0,-0.04,-0.08,0.08,0,0,224,33,408,-297,-177,372,0,0,0
21637,2023-01-20 11:09:47.001620,221396110,0,-0.04,-0.08,0.08,0,0,224,33,408,-297,-177,372,0,0,0
21668,2023-01-20 11:09:47.101595,221496091,0,-0.04,-0.08,0.08,0,0,224,33,408,-297,-177,372,0,0,0
21702,2023-01-20 11:09:47.201598,221596100,0,-0.04,-0.08,0.08,0,0,224,33,408,-297,-177,372,0,0,0
21734,2023-01-20 11:09:47.301546,221696074,0,-0.04,-0.08,0.08,0,0,224,33,408,-297,-177,372,0,0,0
21768,2023-01-20 11:09:47.401571,221796125,0,-0.04,-0.09,0.08,0,0,224,33,408,-297,-177,372,0,0,0
21799,2023-01-20 11:09:47.501476,221896068,0,-0.04,-0.08,0.08,0,0,224,33,408,-297,-177,372,0,0,0
21881,2023-01-20 11:09:47.601478,221996107,0,-0.04,-0.09,0.08,0,0,224,33,408,-297,-177,371,0,0,0
21914,2023-01-20 11:09:47.701477,222096087,0,-0.04,-0.09,0.09,0,0,224,33,408,-297,-177,372,0,0,0
21946,2023-01-20 11:09:47.801519,222196110,0,-0.04,-0.09,0.09,0,0,224,33,408,-297,-177,371,0,0,0
21980,2023-01-20 11:09:47.901517,222296074,0,-0.04,-0.08,0.09,0,0,224,33,408,-297,-177,371,0,0,0
22012,2023-01-20 11:09:48.001573,222396098,0,-0.04,-0.09,0.09,0,0,224,33,408,-297,-177,371,0,0,0
22043,2023-01-20 11:09:48.101518,222496083,0,-0.04,-0.08,0.08,0,0,224,33,408,-297,-177,372,0,0,0
22077,2023-01-20 11:09:48.201503,222596107,0,-0.04,-0.08,0.08,0,0,224,33,408,-297,-177,372,0,0,0
22109,2023-01-20 11:09:48.301470,222696081,0,-0.04,-0.08,0.08,0,0,224,33,407,-297,-177,372,0,0,0
22143,2023-01-20 11:09:48.401498,222796116,0,-0.04,-0.08,0.08,0,0,224,33,407,-296,-177,372,0,0,0
22174,2023-01-20 11:09:48.501419,222896073,0,-0.04,-0.08,0.08,0,0,224,33,406,-296,-177,372,0,0,0
22207,2023-01-20 11:09:48.601427,222996116,0,-0.04,-0.08,0.08,0,0,224,33,406,-296,-177,373,0,0,0
22240,2023-01-20 11:09:48.701432,223096080,0,-0.04,-0.08,0.08,0,0,224,33,405,-296,-177,373,0,0,0
22272,2023-01-20 11:09:48.801494,223196102,0,-0.04,-0.08,0.08,0,0,224,33,405,-296,-177,373,0,0,0
22306,2023-01-20 11:09:48.901478,223296085,0,-0.04,-0.08,0.08,0,0,224,33,404,-296,-177,374,0,0,0
22338,2023-01-20 11:09:49.001500,223396106,0,-0.04,-0.08,0.08,0,0,225,33,403,-296,-177,374,0,0,0
22369,2023-01-20 11:09:49.101467,223496071,0,-0.04,-0.08,0.08,0,0,225,33,403,-296,-177,374,0,0,0
22402,2023-01-20 11:09:49.201515,223596117,0,-0.04,-0.08,0.08,0,0,225,33,402,-295,-177,375,0,0,0
22435,2023-01-20 11:09:49.301471,223696080,0,-0.04,-0.08,0.08,0,0,225,33,402,-295,-177,375,0,0,0
22469,2023-01-20 11:09:49.401498,223796115,0,-0.04,-0.08,0.08,0,0,225,33,402,-295,-177,375,0,0,0
22500,2023-01-20 11:09:49.501444,223896076,0,-0.04,-0.08,0.08,0,0,225,33,402,-295,-177,375,0,0,0
22533,2023-01-20 11:09:49.601477,223996124,0,-0.04,-0.08,0.08,0,0,225,33,402,-295,-177,375,0,0,0
22567,2023-01-20 11:09:49.701455,224096087,0,-0.04,-0.08,0.08,0,0,225,33,402,-295,-177,375,0,0,0
22599,2023-01-20 11:09:49.801505,224196122,0,-0.04,-0.08,0.08,0,0,225,33,402,-295,-177,375,0,0,0
22633,2023-01-20 11:09:49.901478,224296086,0,-0.04,-0.08,0.08,0,0,225,33,403,-295,-177,374,0,0,0
22666,2023-01-20 11:09:50.001515,224396115,0,-0.04,-0.08,0.08,0,0,225,33,403,-295,-177,374,0,0,0
22697,2023-01-20 11:09:50.101476,224496080,0,-0.04,-0.08,0.08,0,0,225,33,403,-295,-177,374,0,0,0
22730,2023-01-20 11:09:50.201504,224596111,0,-0.04,-0.08,0.08,0,0,225,33,403,-295,-177,374,0,0,0
22763,2023-01-20 11:09:50.301452,224696072,0,-0.04,-0.08,0.08,0,0,225,33,403,-295,-177,374,0,0,0
22797,2023-01-20 11:09:50.401481,224796114,0,-0.04,-0.08,0.08,0,0,225,33,403,-295,-177,374,0,0,0
22830,2023-01-20 11:09:50.501427,224896099,0,-0.04,-0.08,0.08,0,0,225,33,403,-295,-176,374,0,0,0
22863,2023-01-20 11:09:50.601398,224996109,0,-0.04,-0.08,0.08,0,0,225,33,403,-295,-176,375,0,0,0
22896,2023-01-20 11:09:50.701405,225096070,0,-0.04,-0.08,0.08,0,0,225,33,403,-295,-176,375,0,0,0
22928,2023-01-20 11:09:50.801495,225196116,0,-0.04,-0.08,0.08,0,0,225,33,402,-295,-176,375,0,0,0
22962,2023-01-20 11:09:50.901459,225296075,0,-0.04,-0.08,0.08,0,0,225,33,403,-295,-176,375,0,0,0
22994,2023-01-20 11:09:51.001500,225396110,0,-0.04,-0.08,0.08,0,0,225,33,403,-295,-176,375,0,0,0
23025,2023-01-20 11:09:51.101453,225496078,0,-0.04,-0.08,0.08,0,0,225,33,403,-295,-176,375,0,0,0
23058,2023-01-20 11:09:51.201475,225596115,0,-0.04,-0.08,0.08,0,0,225,33,403,-295,-176,375,0,0,0
23091,2023-01-20 11:09:51.301435,225696073,0,-0.03,-0.08,0.08,0,0,225,33,403,-295,-176,375,0,0,0
23125,2023-01-20 11:09:51.401491,225796128,0,-0.03,-0.08,0.08,0,0,225,33,403,-295,-176,375,0,0,0
23156,2023-01-20 11:09:51.501450,225896087,0,-0.03,-0.08,0.08,0,0,225,33,403,-296,-176,375,0,0,0
23189,2023-01-20 11:09:51.601492,225996130,0,-0.03,-0.08,0.08,0,0,225,33,403,-296,-176,375,0,0,0
23222,2023-01-20 11:09:51.701455,226096071,0,-0.03,-0.08,0.08,0,0,225,33,403,-296,-176,375,0,0,0
23254,2023-01-20 11:09:51.801516,226196110,0,-0.03,-0.08,0.08,0,0,225,33,403,-296,-176,375,0,0,0
23288,2023-01-20 11:09:51.901475,226296079,0,-0.03,-0.08,0.08,0,0,225,33,403,-296,-176,375,0,0,0
23320,2023-01-20 11:09:52.001506,226396120,0,-0.03,-0.08,0.08,0,0,225,33,403,-296,-176,375,0,0,0
23351,2023-01-20 11:09:52.101465,226496078,0,-0.03,-0.08,0.08,0,0,225,33,403,-296,-176,374,0,0,0
23384,2023-01-20 11:09:52.201498,226596109,0,-0.03,-0.08,0.08,0,0,225,33,403,-296,-176,374,0,0,0
