LineNo,UTC_Approx,TimeUS,C,IVN,IVE,IVD,IPN,IPE,IPD,IMX,IMY,IMZ,IYAW,IVT,RErr,ErSc
680,2023-01-20 11:08:47.421095,161675791,0,0.04,0.01,-0.04,0.37,-0.16,0.11,0,0,0,0.12,0,0,0.0003712305
1033,2023-01-20 11:08:47.516079,161775775,0,0.04,0.01,-0.04,0.37,-0.16,0.07,0,0,0,-0.13,0,0,0.0003712305
1149,2023-01-20 11:08:47.630187,161892750,0,0.07,-0.24,-0.14,0.38,-0.15,0.08,0,0,0,0.36,0,0,0.004515973
1412,2023-01-20 11:08:47.738571,161995567,0,0.07,-0.24,-0.14,0.38,-0.15,0.1,0,0,0,0.19,0,0,0.004515973
1831,2023-01-20 11:08:47.842134,162096077,0,-0.22,-0.03,0.2,0.39,-0.17,0.09,0,0,0,-0.03,0,0,0.004869669
1876,2023-01-20 11:08:47.941896,162196081,0,-0.22,-0.03,0.2,0.39,-0.17,0.08,0,0,0,0.07,0,0,0.004869669
1923,2023-01-20 11:08:48.041756,162296080,0,0.33,-0.05,-0.03,0.41,-0.18,0.1,0,0,0,0.29,0,0,0.005814378
1969,2023-01-20 11:08:48.141750,162396070,0,0.33,-0.05,-0.03,0.41,-0.18,0.07,0,0,0,-0.06,0,0,0.005814378
2022,2023-01-20 11:08:48.241764,162496067,0,0.18,-0.09,0.01,0.46,-0.2,0.06,0,0,0,-0.14,0,0,0.002337186
2063,2023-01-20 11:08:48.341793,162596063,0,0.18,-0.09,0.01,0.46,-0.2,0.03,0,0,0,0.12,0,0,0.002337186
2119,2023-01-20 11:08:48.438031,162696062,0,-0.18,0.11,0,0.45,-0.2,0.03,0,0,0,0.04,0,0,0.002303841
2180,2023-01-20 11:08:48.528998,162796071,0,-0.18,0.11,0,0.45,-0.2,0.04,0,0,0,-0.02,0,0,0.002303841
2240,2023-01-20 11:08:48.621935,162896062,0,0.01,0.06,-0.04,0.42,-0.18,0.02,0,0,0,-0.1,0,0,0.0004515125
2294,2023-01-20 11:08:48.721952,162996059,0,0.01,0.06,-0.04,0.42,-0.18,0.02,0,0,0,-0.2,0,0,0.0004515125
2349,2023-01-20 11:08:48.821971,163096063,0,-0.1,0.18,-0.04,0.43,-0.18,0.02,0,0,0,0.18,0,0,0.002189024
2403,2023-01-20 11:08:48.921974,163196065,0,-0.1,0.18,-0.04,0.43,-0.18,0.03,0,0,0,-0.06,0,0,0.002189024
2445,2023-01-20 11:08:49.021967,163296061,0,0,-0.07,-0.17,0.41,-0.15,0.01,0,0,0,0.23,0,0,0.001598112
2489,2023-01-20 11:08:49.121952,163396062,0,0,-0.07,-0.17,0.41,-0.15,0.03,0,0,0,0.08,0,0,0.001598112
2531,2023-01-20 11:08:49.224360,163496062,0,0.09,-0.05,-0.03,0.4,-0.15,0.05,0,0,0,0.12,0,0,0.0006791353
2571,2023-01-20 11:08:49.335395,163596061,0,0.09,-0.05,-0.03,0.4,-0.15,0.06,0,0,0,0,0,0,0.0006791353
2612,2023-01-20 11:08:49.441806,163696078,0,-0.01,0.03,-0.05,0.4,-0.16,0.05,0,0,0,0.32,0,0,0.0003617465
2652,2023-01-20 11:08:49.541748,163796085,0,-0.01,0.03,-0.05,0.4,-0.16,0.04,0,0,0,0,0,0,0.0003617465
2692,2023-01-20 11:08:49.637949,163896065,0,0.07,0,-0.13,0.38,-0.16,0.04,0,0,0,0.03,0,0,0.001083446
2730,2023-01-20 11:08:49.728987,163996078,0,0.07,0,-0.13,0.38,-0.16,0.03,0,0,0,-0.23,0,0,0.001083446
2773,2023-01-20 11:08:49.821975,164096071,0,-0.08,-0.09,0.02,0.37,-0.14,0,0,0,0,0.08,0,0,0.0007497709
2811,2023-01-20 11:08:49.921949,164196069,0,-0.08,-0.09,0.02,0.37,-0.14,0,0,0,0,0.3,0,0,0.0007497709
2853,2023-01-20 11:08:50.021935,164296065,0,-0.17,0.18,-0.04,0.35,-0.17,-0.02,0,0,0,0.47,0,0,0.002497097
2892,2023-01-20 11:08:50.121980,164396072,0,-0.17,0.18,-0.04,0.35,-0.17,-0.05,0,0,0,0.44,0,0,0.002497097
2935,2023-01-20 11:08:50.221993,164496065,0,-0.15,0,-0.04,0.35,-0.17,-0.02,0,0,0,0.3,0,0,0.001065109
2973,2023-01-20 11:08:50.321958,164596070,0,-0.15,0,-0.04,0.35,-0.17,0,0,0,0,0.15,0,0,0.001065109
3013,2023-01-20 11:08:50.421912,164696066,0,-0.03,0.06,-0.2,0.33,-0.17,0,0,0,0,0.33,0,0,0.001876302
3055,2023-01-20 11:08:50.521868,164796070,0,-0.03,0.06,-0.2,0.33,-0.17,0.03,0,0,0,0.47,0,0,0.001876302
3095,2023-01-20 11:08:50.621843,164896069,0,0.01,-0.04,-0.15,0.31,-0.16,0.02,0,0,0,0.71,0,0,0.001162144
3133,2023-01-20 11:08:50.721915,164996083,0,0.01,-0.04,-0.15,0.31,-0.16,-0.02,0,0,0,0.06,0,0,0.001162144
3174,2023-01-20 11:08:50.821937,165096074,0,0.05,0.01,-0.23,0.3,-0.16,-0.01,0,0,0,-1.19,0,0,0.002409449
3212,2023-01-20 11:08:50.921874,165196076,0,0.05,0.01,-0.23,0.3,-0.16,0,0,0,0,-1,0,0,0.002409449
3254,2023-01-20 11:08:51.021836,165296085,0,0.12,-0.05,-0.38,0.3,-0.17,-0.04,0,0,0,-0.48,0,0,0.006819164
3292,2023-01-20 11:08:51.121840,165396074,0,0.12,-0.05,-0.38,0.3,-0.17,0.02,0,0,0,-0.97,0,0,0.006819164
3335,2023-01-20 11:08:51.221846,165496079,0,0.04,0,-0.32,0.3,-0.17,0.08,0,0,0,-0.4,0,0,0.004513256
3373,2023-01-20 11:08:51.321810,165596086,0,0.04,0,-0.32,0.3,-0.17,-0.06,0,0,0,-0.02,0,0,0.004513256
3413,2023-01-20 11:08:51.421759,165696074,0,0.03,0.15,-0.34,0.28,-0.18,-0.07,0,0,0,-0.95,0,0,0.006088418
3453,2023-01-20 11:08:51.521744,165796075,0,0.03,0.15,-0.34,0.28,-0.18,0,0,0,0,-0.67,0,0,0.006088418
3494,2023-01-20 11:08:51.621735,165896078,0,-0.29,0.08,-0.29,0.29,-0.15,0.06,0,0,0,-0.39,0,0,0.007619394
3531,2023-01-20 11:08:51.721737,165996073,0,-0.29,0.08,-0.29,0.29,-0.15,0.1,0,0,0,-1.02,0,0,0.007619394
3574,2023-01-20 11:08:51.821756,166096087,0,-0.01,0,-0.31,0.26,-0.14,0.11,0,0,0,-0.04,0,0,0.004173106
3612,2023-01-20 11:08:51.921747,166196081,0,-0.01,0,-0.31,0.26,-0.14,0.04,0,0,0,-0.68,0,0,0.004173106
3654,2023-01-20 11:08:52.021742,166296076,0,-0.06,-0.03,-0.18,0.24,-0.12,0.1,0,0,0,-0.64,0,0,0.001745941
3690,2023-01-20 11:08:52.121747,166396074,0,-0.06,-0.03,-0.18,0.24,-0.12,0.18,0,0,0,-0.45,0,0,0.001745941
3725,2023-01-20 11:08:52.221760,166496082,0,-0.17,0.11,-0.2,0.22,-0.13,0.18,0,0,0,-0.2,0,0,0.003802613
3755,2023-01-20 11:08:52.321747,166596072,0,-0.17,0.11,-0.2,0.22,-0.13,0.21,0,0,0,-0.42,0,0,0.003802613
3788,2023-01-20 11:08:52.421755,166696087,0,-0.19,0.03,-0.05,0.19,-0.1,0.22,0,0,0,-1,0,0,0.001859539
3820,2023-01-20 11:08:52.521746,166796104,0,-0.19,0.03,-0.05,0.19,-0.1,0.26,0,0,0,-0.52,0,0,0.001859539
3853,2023-01-20 11:08:52.621713,166896084,0,-0.14,0.05,-0.08,0.2,-0.11,0.27,0,0,0,-0.56,0,0,0.001393501
3883,2023-01-20 11:08:52.721736,166996074,0,-0.14,0.05,-0.08,0.2,-0.11,0.27,0,0,0,-0.73,0,0,0.001393501
3918,2023-01-20 11:08:52.821776,167096088,0,0,0,-0.08,0.18,-0.09,0.31,0,0,0,-0.57,0,0,0.0003530876
3948,2023-01-20 11:08:52.921760,167196070,0,0,0,-0.08,0.18,-0.09,0.27,0,0,0,-1.23,0,0,0.0003530876
3983,2023-01-20 11:08:53.021775,167296091,0,0.07,-0.04,-0.16,0.17,-0.08,0.28,0,0,0,-0.23,0,0,0.001632589
4013,2023-01-20 11:08:53.121735,167396082,0,0.07,-0.04,-0.16,0.17,-0.08,0.38,0,0,0,-0.85,0,0,0.001632589
4048,2023-01-20 11:08:53.221700,167496069,0,-0.31,0.14,-0.13,0.2,-0.08,0.34,0,0,0,-1.05,0,0,0.006289439
4078,2023-01-20 11:08:53.321721,167596080,0,-0.31,0.14,-0.13,0.2,-0.08,0.32,0,0,0,-0.4,0,0,0.006289439
4111,2023-01-20 11:08:53.421714,167696074,0,-0.19,0.04,-0.17,0.17,-0.05,0.28,0,0,0,-0.8,0,0,0.003307865
4143,2023-01-20 11:08:53.521678,167796078,0,-0.19,0.04,-0.17,0.17,-0.05,0.31,0,0,0,-2.9,0,0,0.003307865
4176,2023-01-20 11:08:53.621652,167896077,0,-0.04,-0.04,-0.19,0.15,-0.04,0.33,0,0,0,-4.4,0,0,0.002044739
4206,2023-01-20 11:08:53.721680,167996073,0,-0.04,-0.04,-0.19,0.15,-0.04,0.43,0,0,0,-7.2,0,0,0.002044739
4241,2023-01-20 11:08:53.821712,168096084,0,0.26,0.01,-0.22,0.16,-0.04,0.25,0,0,0,-6.17,0,0,0.005745277
4271,2023-01-20 11:08:53.921691,168196079,0,0.26,0.01,-0.22,0.16,-0.04,0.28,0,0,0,-8.3,0,0,0.005745277
4307,2023-01-20 11:08:54.021678,168296082,0,-0.29,-0.02,-0.03,0.21,-0.05,0.25,0,0,0,-7.97,0,0,0.004318127
4338,2023-01-20 11:08:54.121670,168396087,0,-0.29,-0.02,-0.03,0.21,-0.05,-0.12,0,0,0,-7.63,0,0,0.004318127
4373,2023-01-20 11:08:54.221652,168496074,0,-0.42,0.16,-0.11,0.2,-0.05,-0.37,0,0,0,-8.77,0,0,0.01058362
4403,2023-01-20 11:08:54.321685,168596082,0,-0.42,0.16,-0.11,0.2,-0.05,0.37,0,0,0,-7.48,0,0,0.01058362
4436,2023-01-20 11:08:54.421693,168696079,0,-0.19,-0.11,0.08,0.19,-0.03,0.76,0,0,0,-7.74,0,0,0.002695402
4468,2023-01-20 11:08:54.521650,168796074,0,-0.19,-0.11,0.08,0.19,-0.03,0.69,0,0,0,-6.34,0,0,0.002695402
4501,2023-01-20 11:08:54.621624,168896073,0,0.15,-0.06,0,0.19,-0.03,0.89,0,0,0,-6.76,0,0,0.001938703
4531,2023-01-20 11:08:54.721641,168996074,0,0.15,-0.06,0,0.19,-0.03,0.93,0,0,0,-8.22,0,0,0.002142419
4566,2023-01-20 11:08:54.821676,169096094,0,0.08,0.04,0.1,0.22,-0.03,0.88,0,0,0,-7.34,0,0,0.001897927
4596,2023-01-20 11:08:54.921667,169196074,0,0.08,0.04,0.1,0.22,-0.03,1.04,0,0,0,-9.24,0,0,0.00267076
4631,2023-01-20 11:08:55.021681,169296077,0,0.1,-0.07,-0.04,0.23,-0.01,1.06,0,0,0,-8.27,0,0,0.002754157
4661,2023-01-20 11:08:55.121703,169396089,0,0.1,-0.07,-0.04,0.23,-0.01,1.03,0,0,0,-9.48,0,0,0.002620836
4696,2023-01-20 11:08:55.221693,169496072,0,-0.4,-0.06,0.37,0.27,0,1.01,0,0,0,-9.25,0,0,0.01535858
4726,2023-01-20 11:08:55.321687,169596072,0,-0.4,-0.06,0.37,0.27,0,0.94,0,0,0,-8.77,0,0,0.01535858
4759,2023-01-20 11:08:55.421686,169696081,0,-0.02,0.13,0.16,0.25,-0.03,0.9,0,0,0,-9.09,0,0,0.00759689
4793,2023-01-20 11:08:55.521647,169796070,0,-0.02,0.13,0.16,0.25,-0.03,0.95,0,0,0,-10.01,0,0,0.008379859
4826,2023-01-20 11:08:55.621640,169896078,0,-0.02,-0.03,0.17,0.26,-0.03,0.93,0,0,0,-10.04,0,0,0.008110044
4856,2023-01-20 11:08:55.721683,169996092,0,-0.02,-0.03,0.17,0.26,-0.03,0.77,0,0,0,-10.59,0,0,0.005595244
4891,2023-01-20 11:08:55.821690,170096077,0,0.13,-0.06,0.25,0.27,-0.03,0.66,0,0,0,-11.28,0,0,0.004563626
4921,2023-01-20 11:08:55.921693,170196083,0,0.13,-0.06,0.25,0.27,-0.03,0.57,0,0,0,-9.41,0,0,0.004563626
4956,2023-01-20 11:08:56.021701,170296092,0,0.05,0.05,0.09,0.3,-0.04,0.54,0,0,0,-9.6,0,0,0.002820941
4986,2023-01-20 11:08:56.121684,170396068,0,0.05,0.05,0.09,0.3,-0.04,0.54,0,0,0,-8.36,0,0,0.002819972
5021,2023-01-20 11:08:56.221691,170496070,0,-0.22,-0.04,0.11,0.31,-0.05,0.62,0,0,0,-9.36,0,0,0.003737367
5051,2023-01-20 11:08:56.321708,170596089,0,-0.22,-0.04,0.11,0.31,-0.05,0.56,0,0,0,-10.25,0,0,0.003535525
5084,2023-01-20 11:08:56.421682,170696072,0,0.39,-0.07,-0.05,0.27,-0.06,0.49,0,0,0,-9.56,0,0,0.008620104
5116,2023-01-20 11:08:56.521656,170796078,0,0.39,-0.07,-0.05,0.27,-0.06,0.49,0,0,0,-10.32,0,0,0.008620104
5149,2023-01-20 11:08:56.621642,170896082,0,-0.06,-0.18,0.13,0.27,-0.05,0.5,0,0,0,-9.43,0,0,0.003050334
5179,2023-01-20 11:08:56.721666,170996072,0,-0.06,-0.18,0.13,0.27,-0.05,0.53,0,0,0,-8.17,0,0,0.003050334
5214,2023-01-20 11:08:56.821700,171096081,0,-0.1,0,0.22,0.27,-0.07,0.53,0,0,0,-8.22,0,0,0.003327759
5244,2023-01-20 11:08:56.921704,171196093,0,-0.1,0,0.22,0.27,-0.07,0.52,0,0,0,-8.19,0,0,0.003327759
5279,2023-01-20 11:08:57.021684,171296077,0,0.45,0.09,0.2,0.29,-0.08,0.51,0,0,0,-7.02,0,0,0.0134086
5310,2023-01-20 11:08:57.121683,171396068,0,0.45,0.09,0.2,0.29,-0.08,0.54,0,0,0,-7.44,0,0,0.0134086
5345,2023-01-20 11:08:57.221694,171496072,0,0.55,-0.25,-0.08,0.31,-0.06,0.5,0,0,0,-6.7,0,0,0.02002209
5375,2023-01-20 11:08:57.321696,171596072,0,0.55,-0.25,-0.08,0.31,-0.06,0.52,0,0,0,-7.59,0,0,0.02002209
5408,2023-01-20 11:08:57.421693,171696076,0,0.37,-0.24,-0.02,0.3,-0.04,0.57,0,0,0,-5.71,0,0,0.01079423
5440,2023-01-20 11:08:57.521654,171796073,0,0.37,-0.24,-0.02,0.3,-0.04,0.61,0,0,0,-5.89,0,0,0.01079423
5473,2023-01-20 11:08:57.621639,171896079,0,0.22,-0.04,-0.03,0.3,-0.05,0.69,0,0,0,-5.32,0,0,0.004589509
5503,2023-01-20 11:08:57.721665,171996072,0,0.22,-0.04,-0.03,0.3,-0.05,0.67,0,0,0,-5.22,0,0,0.004323239
5538,2023-01-20 11:08:57.821714,172096096,0,0.37,-0.05,-0.01,0.3,-0.04,0.7,0,0,0,-4.42,0,0,0.007838766
5568,2023-01-20 11:08:57.921687,172196074,0,0.37,-0.05,-0.01,0.3,-0.04,0.8,0,0,0,-3.94,0,0,0.007838766
5605,2023-01-20 11:08:58.021684,172296074,0,-0.05,-0.34,0.1,0.35,-0.04,0.82,0,0,0,0,0,0,0.007089273
5635,2023-01-20 11:08:58.121681,172396068,0,-0.05,-0.34,0.1,0.35,-0.04,0.77,217,8,-335,0,0,0,0.007089273
5670,2023-01-20 11:08:58.221691,172496076,0,-0.26,-0.2,0.24,0.31,-0.05,0.9,216,6,-345,0,0,0,0.009173545
5700,2023-01-20 11:08:58.321694,172596080,0,-0.26,-0.2,0.24,0.31,-0.05,1.14,207,13,-294,0,0,0,0.01252864
5733,2023-01-20 11:08:58.421675,172696069,0,-0.23,-0.13,0.12,0.29,-0.05,0.98,170,4,-261,0,0,0,0.009267419
5765,2023-01-20 11:08:58.521661,172796090,0,-0.23,-0.13,0.12,0.29,-0.05,0.92,172,8,-262,0,0,0,0.008230256
5798,2023-01-20 11:08:58.621648,172896096,0,-0.16,-0.02,-0.08,0.3,-0.06,1.18,188,11,-282,0,0,0,0.01344131
5828,2023-01-20 11:08:58.721670,172996082,0,-0.16,-0.02,-0.08,0.3,-0.06,1.27,190,2,-299,0,0,0,0.01563783
5863,2023-01-20 11:08:58.821701,173096087,0,-0.23,0.07,-0.18,0.28,-0.05,1.31,231,4,-348,0,0,0,0.01660702
5893,2023-01-20 11:08:58.921696,173196099,0,-0.23,0.07,-0.18,0.28,-0.05,1.42,254,2,-376,0,0,0,0.01950764
5928,2023-01-20 11:08:59.019695,173296082,0,-0.57,0.38,-0.1,0.24,-0.05,1.39,227,13,-345,0,0,0,0.01865185
5960,2023-01-20 11:08:59.110593,173396083,0,-0.57,0.38,-0.1,0.24,-0.05,1.44,203,22,-319,0,0,0,0.02010177
5995,2023-01-20 11:08:59.201665,173496109,0,-0.57,0.38,-0.1,0.24,-0.05,1.25,189,20,-297,0,0,0,0.01693507
6025,2023-01-20 11:08:59.301649,173596090,0,-0.73,0.24,0.27,0.18,-0.04,1.24,198,27,-327,0,0,0,0.02205103
6058,2023-01-20 11:08:59.401838,173696092,0,-0.73,0.24,0.27,0.18,-0.04,1.23,194,26,-316,0,0,0,0.02205103
6089,2023-01-20 11:08:59.512945,173796083,0,-0.54,0.28,0.2,0.14,-0.05,1.22,200,28,-348,0,0,0,0.01438401
6122,2023-01-20 11:08:59.619687,173896085,0,-0.36,0.21,0.11,0.12,-0.02,1.31,208,29,-357,0,0,0,0.01666348
6152,2023-01-20 11:08:59.710580,173996073,0,-0.36,0.21,0.11,0.12,-0.02,1.35,207,31,-339,0,0,0,0.01758358
6188,2023-01-20 11:08:59.801677,174096118,0,-0.36,0.21,0.11,0.12,-0.02,1.27,205,31,-341,0,0,0,0.01558568
6218,2023-01-20 11:08:59.901607,174196077,0,0.12,0.23,0.29,0.06,-0.02,1.18,203,27,-348,0,0,0,0.0135598
6253,2023-01-20 11:09:00.001602,174296103,0,0.12,0.23,0.29,0.06,-0.02,1.07,195,31,-346,0,0,0,0.01105072
6283,2023-01-20 11:09:00.101506,174396081,0,-0.41,0.62,0.42,0.06,-0.01,1.01,199,44,-329,0,0,0,0.02125585
6318,2023-01-20 11:09:00.201455,174496101,0,-0.41,0.62,0.42,0.06,-0.01,0.95,198,39,-338,0,0,0,0.02125585
6348,2023-01-20 11:09:00.301482,174596077,0,-0.14,0.51,0.36,0.02,0.02,0.98,199,48,-345,0,0,0,0.01256589
6381,2023-01-20 11:09:00.401565,174696110,0,-0.14,0.51,0.36,0.02,0.02,0.94,186,51,-328,0,0,0,0.01256589
6415,2023-01-20 11:09:00.501498,174796097,0,0.3,0.74,0.25,0,0.02,0.95,201,54,-335,0,0,0,0.02344586
6448,2023-01-20 11:09:00.601453,174896106,0,0.3,0.74,0.25,0,0.02,0.95,213,61,-360,0,0,0,0.02344586
6478,2023-01-20 11:09:00.701460,174996080,0,0.26,0.4,0.34,0.02,0.04,0.95,232,62,-376,0,0,0,0.01188144
6514,2023-01-20 11:09:00.801516,175096104,0,0.26,0.4,0.34,0.02,0.04,1,234,63,-373,0,0,0,0.01188144
6544,2023-01-20 11:09:00.901477,175196089,0,0.45,0.18,0.49,0.04,0.04,1.07,231,79,-379,0,0,0,0.0165984
6579,2023-01-20 11:09:01.001495,175296130,0,0.45,0.18,0.49,0.04,0.04,1.19,225,69,-360,0,0,0,0.0165984
6609,2023-01-20 11:09:01.101535,175396094,0,0.33,0.36,0.35,0.08,0.03,1.32,215,78,-354,0,0,0,0.01701393
6644,2023-01-20 11:09:01.201645,175496131,0,0.33,0.36,0.35,0.08,0.03,1.19,198,78,-337,0,0,0,0.01377076
6674,2023-01-20 11:09:01.301523,175596077,0,0.22,0.05,0.47,0.11,0.04,1.09,208,83,-330,0,0,0,0.01150307
6707,2023-01-20 11:09:01.401499,175696120,0,0.22,0.05,0.47,0.11,0.04,1.33,213,78,-347,0,0,0,0.0172222
6739,2023-01-20 11:09:01.501437,175796085,0,0.29,-0.14,0.12,0.13,0.06,1.19,213,76,-341,0,0,0,0.01367349
6772,2023-01-20 11:09:01.601440,175896115,0,0.29,-0.14,0.12,0.13,0.06,1,211,79,-323,0,0,0,0.009768638
6803,2023-01-20 11:09:01.701401,175996071,0,0.54,-0.09,0.51,0.11,0.03,0.98,234,77,-361,0,0,0,0.02222983
6838,2023-01-20 11:09:01.801424,176096088,0,0.54,-0.09,0.51,0.11,0.03,1.03,224,70,-354,0,0,0,0.02222983
6868,2023-01-20 11:09:01.901423,176196083,0,0.24,-0.22,0.3,0.14,0.03,1.17,250,84,-380,0,0,0,0.01327235
6903,2023-01-20 11:09:02.001454,176296110,0,0.24,-0.22,0.3,0.14,0.03,1.27,247,83,-373,0,0,0,0.01570744
6933,2023-01-20 11:09:02.101428,176396072,0,0.15,-0.18,0.09,0.15,0,1.17,236,80,-365,0,0,0,0.01327996
6968,2023-01-20 11:09:02.201466,176496098,0,0.15,-0.18,0.09,0.15,0,1.13,238,78,-360,0,0,0,0.01242062
6998,2023-01-20 11:09:02.301454,176596082,0,0.23,-0.41,0.11,0.14,0,1.33,253,87,-377,0,0,0,0.01707127
7031,2023-01-20 11:09:02.401486,176696112,0,0.23,-0.41,0.11,0.14,0,1.23,239,79,-367,0,0,0,0.01470089
7063,2023-01-20 11:09:02.501407,176796082,0,0.22,-0.23,0.32,0.15,-0.03,1.08,254,84,-393,0,0,0,0.01128341
7096,2023-01-20 11:09:02.601376,176896098,0,0.22,-0.23,0.32,0.15,-0.03,1.16,251,82,-397,0,0,0,0.01298259
7126,2023-01-20 11:09:02.701395,176996072,0,-0.22,-0.44,0.55,0.16,-0.02,1,259,88,-390,0,0,0,0.02252606
7161,2023-01-20 11:09:02.801462,177096095,0,-0.22,-0.44,0.55,0.16,-0.02,1.1,253,86,-373,0,0,0,0.02252606
7191,2023-01-20 11:09:02.901450,177196088,0,-0.14,-0.3,0.39,0.13,-0.03,0.96,258,86,-415,0,0,0,0.01065657
7226,2023-01-20 11:09:03.001489,177296131,0,-0.14,-0.3,0.39,0.13,-0.03,0.98,267,87,-392,0,0,0,0.01065657
7256,2023-01-20 11:09:03.101441,177396095,0,-0.12,-0.57,0.49,0.11,-0.01,0.95,268,102,-395,0,0,0,0.02403139
7291,2023-01-20 11:09:03.201441,177496106,0,-0.12,-0.57,0.49,0.11,-0.01,1.13,235,100,-353,0,0,0,0.02403139
7321,2023-01-20 11:09:03.301418,177596087,0,-0.12,-0.35,0.52,0.09,-0.03,1.11,210,87,-318,0,0,0,0.01767451
7354,2023-01-20 11:09:03.401444,177696118,0,-0.12,-0.35,0.52,0.09,-0.03,1.12,235,94,-351,0,0,0,0.01767451
7386,2023-01-20 11:09:03.501422,177796095,0,-0.36,-0.07,0.62,0.08,-0.04,1.12,222,96,-338,0,0,0,0.02285493
7419,2023-01-20 11:09:03.601435,177896107,0,-0.36,-0.07,0.62,0.08,-0.04,0.98,205,102,-299,0,0,0,0.02285493
7450,2023-01-20 11:09:03.701428,177996087,0,0.08,-0.29,0.63,0.05,-0.03,0.86,188,91,-306,0,0,0,0.02178101
7485,2023-01-20 11:09:03.801439,178096086,0,0.08,-0.29,0.63,0.05,-0.03,0.92,203,94,-314,0,0,0,0.02178101
7515,2023-01-20 11:09:03.901412,178196072,0,0.09,-0.24,0.66,0.06,-0.05,0.92,208,94,-309,0,0,0,0.02266432
7550,2023-01-20 11:09:04.001448,178296120,0,0.09,-0.24,0.66,0.06,-0.05,1.01,228,95,-349,0,0,0,0.02266432
7580,2023-01-20 11:09:04.101391,178396072,0,-0.1,-0.16,0.44,0.08,-0.05,1.02,239,89,-370,0,0,0,0.01073722
7616,2023-01-20 11:09:04.201395,178496084,0,-0.1,-0.16,0.44,0.08,-0.05,1.23,238,94,-349,0,0,0,0.01467377
7646,2023-01-20 11:09:04.301415,178596080,0,0.02,-0.07,0.44,0.06,-0.05,1.24,226,85,-351,0,0,0,0.01502395
7679,2023-01-20 11:09:04.401466,178696108,0,0.02,-0.07,0.44,0.06,-0.05,1.08,223,91,-350,0,0,0,0.01132291
7711,2023-01-20 11:09:04.501419,178796077,0,-0.38,-0.17,0.27,0.08,-0.04,1.04,231,94,-366,0,0,0,0.01217687
7744,2023-01-20 11:09:04.601443,178896117,0,-0.38,-0.17,0.27,0.08,-0.04,1.05,229,88,-354,0,0,0,0.01217687
7774,2023-01-20 11:09:04.701423,178996072,0,0.03,-0.12,0.53,0.06,-0.06,1.09,247,88,-369,0,0,0,0.01436475
7809,2023-01-20 11:09:04.801461,179096086,0,0.03,-0.12,0.53,0.06,-0.06,1.18,261,96,-383,0,0,0,0.01436475
7839,2023-01-20 11:09:04.901417,179196079,0,0.09,-0.08,0.51,0.04,-0.07,1.18,247,99,-383,0,0,0,0.01359901
7874,2023-01-20 11:09:05.001420,179296118,0,0.09,-0.08,0.51,0.04,-0.07,1.11,237,97,-344,0,0,0,0.01359901
7904,2023-01-20 11:09:05.101397,179396072,0,0.13,-0.16,0.29,0.03,-0.06,0.95,208,93,-331,0,0,0,0.008725617
7939,2023-01-20 11:09:05.201442,179496094,0,0.13,-0.16,0.29,0.03,-0.06,1.08,191,98,-298,0,0,0,0.01128525
7969,2023-01-20 11:09:05.301434,179596072,0,0.11,-0.06,0.65,0.01,-0.04,1.2,209,91,-321,0,0,0,0.02225998
8003,2023-01-20 11:09:05.401499,179696124,0,0.11,-0.06,0.65,0.01,-0.04,1.2,222,93,-329,0,0,0,0.02225998
8037,2023-01-20 11:09:05.501438,179796119,0,0.46,-0.08,0.26,0,-0.04,1.12,213,96,-311,0,0,0,0.01453154
8070,2023-01-20 11:09:05.601379,179896114,0,0.46,-0.08,0.26,0,-0.04,1.13,191,89,-292,0,0,0,0.01453154
8100,2023-01-20 11:09:05.701420,179996095,0,-0.09,-0.03,0.2,0.05,-0.04,1.06,167,93,-265,0,0,0,0.01092239
8135,2023-01-20 11:09:05.801478,180096094,0,-0.09,-0.03,0.2,0.05,-0.04,1.1,161,89,-257,0,0,0,0.01168771
8165,2023-01-20 11:09:05.901415,180196071,0,0.14,0.03,0.21,0.07,-0.04,1.24,69,40,-122,0,0,0,0.01504605
8200,2023-01-20 11:09:06.001418,180296113,0,0.14,0.03,0.21,0.07,-0.04,1.3,81,21,-126,0,0,0,0.0164706
8230,2023-01-20 11:09:06.101398,180396084,0,-0.27,-0.04,0.27,0.08,-0.02,1.1,72,19,-126,0,0,0,0.0117385
8265,2023-01-20 11:09:06.201419,180496096,0,-0.27,-0.04,0.27,0.08,-0.02,1.1,67,10,-106,0,0,0,0.01173712
8295,2023-01-20 11:09:06.301393,180596072,0,0.28,0.45,0,0.08,-0.07,0.99,70,9,-106,0,0,0,0.01466617
8328,2023-01-20 11:09:06.401425,180696107,0,0.28,0.45,0,0.08,-0.07,1.07,70,12,-93,0,0,0,0.01466617
8360,2023-01-20 11:09:06.501396,180796070,0,-0.19,-0.09,0.33,0.1,-0.01,1.11,73,6,-115,0,0,0,0.01196213
8393,2023-01-20 11:09:06.601442,180896108,0,-0.19,-0.09,0.33,0.1,-0.01,1.14,78,1,-131,0,0,0,0.01270588
8423,2023-01-20 11:09:06.701402,180996072,0,-0.16,-0.12,0.55,0.06,-0.01,1.19,72,1,-122,0,0,0,0.01783027
8458,2023-01-20 11:09:06.801415,181096089,0,-0.16,-0.12,0.55,0.06,-0.01,1.19,64,-4,-115,0,0,0,0.01783027
8488,2023-01-20 11:09:06.901413,181196074,0,0,-0.03,0.44,0.04,-0.01,1.19,55,-8,-114,0,0,0,0.01385194
8523,2023-01-20 11:09:07.001460,181296109,0,0,-0.03,0.44,0.04,-0.01,1.09,42,-4,-99,0,0,0,0.0116425
8553,2023-01-20 11:09:07.101421,181396067,0,0.22,0.06,0.2,0.06,-0.03,1.08,57,-10,-101,0,0,0,0.0114241
8588,2023-01-20 11:09:07.201456,181496100,0,0.22,0.06,0.2,0.06,-0.03,0.81,67,-5,-128,0,0,0,0.006331146
8618,2023-01-20 11:09:07.301445,181596087,0,0.14,-0.1,0.2,0.05,-0.01,0.92,81,-3,-157,0,0,0,0.008221997
8652,2023-01-20 11:09:07.401486,181696127,0,0.14,-0.1,0.2,0.05,-0.01,0.86,110,-2,-198,0,0,0,0.007211598
8684,2023-01-20 11:09:07.501444,181796097,0,0.04,0,0.4,0.05,-0.02,0.92,114,-10,-197,0,0,0,0.008259324
8717,2023-01-20 11:09:07.601455,181896120,0,0.04,0,0.4,0.05,-0.02,1.04,107,-7,-189,0,0,0,0.01053852
8747,2023-01-20 11:09:07.701441,181996085,0,0.02,-0.01,0.33,0.06,-0.03,1.09,93,-11,-187,0,0,0,0.01158132
8782,2023-01-20 11:09:07.801466,182096090,0,0.02,-0.01,0.33,0.06,-0.03,1.24,97,-8,-172,0,0,0,0.0149704
8812,2023-01-20 11:09:07.901447,182196083,0,-0.07,0.03,0.44,0.06,-0.03,1.19,78,-11,-149,0,0,0,0.01375143
8847,2023-01-20 11:09:08.001463,182296111,0,-0.07,0.03,0.44,0.06,-0.03,1.04,82,-5,-162,0,0,0,0.01062707
8877,2023-01-20 11:09:08.101411,182396077,0,0.23,0.1,-0.04,0.03,-0.02,0.97,80,16,-152,0,0,0,0.009221258
8912,2023-01-20 11:09:08.201428,182496112,0,0.23,0.1,-0.04,0.03,-0.02,1.01,58,2,-121,0,0,0,0.009855486
8942,2023-01-20 11:09:08.301411,182596072,0,0.1,-0.06,0.03,0.04,0,1.25,73,7,-124,0,0,0,0.01513323
8975,2023-01-20 11:09:08.401476,182696114,0,0.1,-0.06,0.03,0.04,0,1.29,85,4,-136,0,0,0,0.01616683
9007,2023-01-20 11:09:08.501407,182796077,0,0,-0.02,0.03,0.04,0.01,1.19,83,8,-159,0,0,0,0.01378086
9040,2023-01-20 11:09:08.601410,182896111,0,0,-0.02,0.03,0.04,0.01,1.1,66,1,-127,0,0,0,0.01181045
9070,2023-01-20 11:09:08.701413,182996081,0,-0.06,0,0.19,0.03,0.01,1.13,67,-2,-145,0,0,0,0.01234133
9105,2023-01-20 11:09:08.801449,183096085,0,-0.06,0,0.19,0.03,0.01,1.16,75,0,-151,0,0,0,0.01311872
9137,2023-01-20 11:09:08.901434,183196083,0,-0.11,0.01,0.24,0.03,0,1.11,36,-8,-120,0,0,0,0.01193927
9172,2023-01-20 11:09:09.001328,183296120,0,-0.11,0.01,0.24,0.03,0,1.1,35,-1,-111,0,0,0,0.01173501
9202,2023-01-20 11:09:09.092374,183396067,0,-0.13,0.24,0.32,0.01,0,0.86,66,-6,-126,0,0,0,0.009299197
9234,2023-01-20 11:09:09.183498,183496100,0,-0.13,0.24,0.32,0.01,0,0.97,69,0,-135,0,0,0,0.009299197
9268,2023-01-20 11:09:09.281855,183596081,0,-0.1,-0.15,0.02,-0.01,0.04,1.05,68,0,-115,0,0,0,0.01080638
9299,2023-01-20 11:09:09.381877,183696116,0,-0.1,-0.15,0.02,-0.01,0.04,1.03,61,-10,-127,0,0,0,0.01035495
9333,2023-01-20 11:09:09.481846,183796083,0,-0.1,-0.03,-0.07,-0.01,0.05,1.05,50,-10,-110,0,0,0,0.01082694
9364,2023-01-20 11:09:09.581874,183896107,0,-0.1,-0.03,-0.07,-0.01,0.05,1.05,46,-4,-114,0,0,0,0.010763
9397,2023-01-20 11:09:09.681851,183996067,0,-0.08,-0.07,0.27,-0.02,0.07,1.07,68,0,-133,0,0,0,0.01110505
9431,2023-01-20 11:09:09.781874,184096071,0,-0.08,-0.07,0.27,-0.02,0.07,1.1,58,-7,-127,0,0,0,0.01184656
9463,2023-01-20 11:09:09.881870,184196082,0,-0.02,-0.1,0.2,-0.02,0.08,1.21,53,0,-130,0,0,0,0.01426519
9496,2023-01-20 11:09:09.981883,184296119,0,-0.02,-0.1,0.2,-0.02,0.08,1.2,48,-7,-121,0,0,0,0.01400418
9528,2023-01-20 11:09:10.081833,184396077,0,0,-0.24,0.24,-0.03,0.09,1.24,48,-14,-128,0,0,0,0.01487195
9560,2023-01-20 11:09:10.181868,184496116,0,0,-0.24,0.24,-0.03,0.09,1.21,58,0,-134,0,0,0,0.01434298
9593,2023-01-20 11:09:10.281826,184596075,0,-0.03,-0.15,0.23,-0.02,0.1,1.22,20,-19,-123,0,0,0,0.01443349
9624,2023-01-20 11:09:10.381842,184696092,0,-0.03,-0.15,0.23,-0.02,0.1,1.23,23,-15,-119,0,0,0,0.01470437
9658,2023-01-20 11:09:10.481742,184796083,0,-0.03,-0.06,0.14,-0.01,0.1,1.24,14,-25,-95,0,0,0,0.01492971
9691,2023-01-20 11:09:10.581646,184896098,0,-0.03,-0.06,0.14,-0.01,0.1,1.13,19,-18,-108,0,0,0,0.01248213
9723,2023-01-20 11:09:10.681649,184996067,0,-0.06,-0.08,0.5,-0.01,0.11,1.17,27,-17,-124,0,0,0,0.01339647
9756,2023-01-20 11:09:10.781770,185096121,0,-0.06,-0.08,0.5,-0.01,0.11,1.4,10,-24,-104,0,0,0,0.01895582
9788,2023-01-20 11:09:10.881716,185196074,0,0.22,-0.02,0.35,-0.02,0.1,1.35,4,-26,-86,0,0,0,0.0177194
9821,2023-01-20 11:09:10.981713,185296093,0,0.22,-0.02,0.35,-0.02,0.1,1.37,9,-23,-97,0,0,0,0.01827419
9854,2023-01-20 11:09:11.081682,185396072,0,0.17,-0.12,0.27,-0.01,0.11,1.44,-27,-32,-82,0,0,0,0.02029716
9886,2023-01-20 11:09:11.181698,185496096,0,0.17,-0.12,0.27,-0.01,0.11,1.37,-1,-25,-88,0,0,0,0.01836219
9919,2023-01-20 11:09:11.281667,185596077,0,0.28,-0.19,0.33,0,0.11,1.22,-13,-40,-88,0,0,0,0.01461452
9950,2023-01-20 11:09:11.381681,185696105,0,0.28,-0.19,0.33,0,0.11,1.32,-16,-38,-97,0,0,0,0.01695974
9983,2023-01-20 11:09:11.481650,185796074,0,0.04,-0.17,0.44,0.02,0.1,1.42,18,-27,-120,0,0,0,0.01968344
10014,2023-01-20 11:09:11.581676,185896096,0,0.04,-0.17,0.44,0.02,0.1,1.29,-14,-43,-95,0,0,0,0.01619897
10046,2023-01-20 11:09:11.681665,185996068,0,0.14,-0.08,0.5,0.01,0.09,1.3,-26,-42,-88,0,0,0,0.01636088
10079,2023-01-20 11:09:11.781723,186096106,0,0.14,-0.08,0.5,0.01,0.09,1.24,-12,-34,-83,0,0,0,0.01494453
10111,2023-01-20 11:09:11.881695,186196078,0,0.18,0.03,0.64,0.02,0.07,1.31,-9,-37,-88,0,0,0,0.02292631
10144,2023-01-20 11:09:11.981697,186296086,0,0.18,0.03,0.64,0.02,0.07,1.42,-10,-35,-83,0,0,0,0.02292631
10176,2023-01-20 11:09:12.081661,186396076,0,0.16,-0.01,0.55,0.02,0.07,1.35,-14,-33,-84,0,0,0,0.01781631
10208,2023-01-20 11:09:12.181666,186496110,0,0.16,-0.01,0.55,0.02,0.07,1.44,-9,-34,-75,0,0,0,0.02024923
10241,2023-01-20 11:09:12.281644,186596067,0,0.19,0.05,0.69,0.02,0.07,1.42,-19,-45,-97,0,0,0,0.02685304
10273,2023-01-20 11:09:12.381693,186696083,0,0.19,0.05,0.69,0.02,0.07,1.36,-17,-39,-76,0,0,0,0.02685304
10307,2023-01-20 11:09:12.481684,186796087,0,0.11,0.12,0.88,0.03,0.07,1.47,0,-37,-100,0,0,0,0.04196632
10338,2023-01-20 11:09:12.581661,186896088,0,0.11,0.12,0.88,0.03,0.07,1.53,-31,-33,-78,0,0,0,0.04196632
10370,2023-01-20 11:09:12.681662,186996068,0,0.25,0.09,0.82,0.03,0.08,1.49,-35,-37,-65,0,0,0,0.03871777
10403,2023-01-20 11:09:12.781733,187096108,0,0.25,0.09,0.82,0.03,0.08,1.57,-32,-31,-55,0,0,0,0.03871777
10435,2023-01-20 11:09:12.881701,187196075,0,0.09,0.04,0.88,0.05,0.09,1.59,-38,-35,-44,0,0,0,0.04113276
10468,2023-01-20 11:09:12.981693,187296074,0,0.09,0.04,0.88,0.05,0.09,1.53,-66,-33,-22,0,0,0,0.04113276
10500,2023-01-20 11:09:13.081693,187396081,0,0.3,0.02,0.87,0.04,0.08,1.51,-87,-32,18,0,0,0,0.0441993
10532,2023-01-20 11:09:13.181680,187496075,0,0.3,0.02,0.87,0.04,0.08,1.56,-124,-32,53,0,0,0,0.0441993
10565,2023-01-20 11:09:13.281682,187596068,0,0.22,-0.1,0.72,0.05,0.09,1.59,-110,-30,64,0,0,0,0.03013008
10596,2023-01-20 11:09:13.381709,187696083,0,0.22,-0.1,0.72,0.05,0.09,1.73,-105,-32,41,0,0,0,0.03013008
10630,2023-01-20 11:09:13.481678,187796074,0,-0.01,-0.07,0.53,0.08,0.08,1.93,-102,-30,31,0,0,0,0.03617731
10661,2023-01-20 11:09:13.581642,187896067,0,-0.01,-0.07,0.53,0.08,0.08,1.99,-108,-28,45,0,0,0,0.03865246
10693,2023-01-20 11:09:13.681668,187996078,0,0.03,0.05,0.59,0.07,0.08,2.1,-103,-31,38,0,0,0,0.04272933
10726,2023-01-20 11:09:13.781690,188096076,0,0.03,0.05,0.59,0.07,0.08,2.34,-85,-29,20,0,0,0,0.05300567
10758,2023-01-20 11:09:13.881692,188196070,0,0.16,0.01,0.48,0.06,0.09,2.41,-85,-40,13,0,0,0,0.05634528
10791,2023-01-20 11:09:13.981708,188296082,0,0.16,0.01,0.48,0.06,0.09,2.23,-81,-27,7,0,0,0,0.04851795
10823,2023-01-20 11:09:14.081689,188396071,0,0.15,0.01,0.46,0.06,0.1,2.36,-68,-26,-14,0,0,0,0.05418571
10855,2023-01-20 11:09:14.181683,188496075,0,0.15,0.01,0.46,0.06,0.1,2.23,-79,-30,-14,0,0,0,0.04822324
10888,2023-01-20 11:09:14.281693,188596080,0,0.11,0.15,0.56,0.07,0.09,2.23,-71,-28,-11,0,0,0,0.04812735
10921,2023-01-20 11:09:14.381693,188696071,0,0.11,0.15,0.56,0.07,0.09,2.25,-68,-27,-14,0,0,0,0.04903705
10955,2023-01-20 11:09:14.481674,188796074,0,-0.03,-0.19,-0.23,0.08,0.09,2.11,-47,-22,-6,0,0,0,0.04320892
10986,2023-01-20 11:09:14.581648,188896077,0,-0.03,-0.19,-0.23,0.08,0.09,2.16,-46,-23,-18,0,0,0,0.0453396
11018,2023-01-20 11:09:14.681663,188996072,0,0.42,0,0.15,0.09,0.07,2.01,-41,-33,-14,0,0,0,0.0393181
11051,2023-01-20 11:09:14.781691,189096070,0,0.42,0,0.15,0.09,0.07,2,-51,-32,-25,0,0,0,0.03901468
11083,2023-01-20 11:09:14.881700,189196090,0,0.27,0,0.2,0.14,0.08,1.79,-44,-25,-29,0,0,0,0.03108032
11116,2023-01-20 11:09:14.981671,189296081,0,0.27,0,0.2,0.14,0.08,1.41,-39,-22,-25,0,0,0,0.01936337
11148,2023-01-20 11:09:15.081665,189396070,0,0.25,0.03,0.54,0.16,0.07,1.82,-50,-34,11,0,0,0,0.03209609
11180,2023-01-20 11:09:15.181688,189496083,0,0.25,0.03,0.54,0.16,0.07,1.92,-25,-21,-34,0,0,0,0.03571946
11213,2023-01-20 11:09:15.281694,189596072,0,0.14,0,0.57,0.19,0.08,2.02,-7,-19,-45,0,0,0,0.03949808
11247,2023-01-20 11:09:15.381713,189696072,0,0.14,0,0.57,0.19,0.08,2.11,-29,-34,-17,0,0,0,0.04312309
11281,2023-01-20 11:09:15.481697,189796091,0,0.17,0,0.48,0.21,0.09,2.18,-38,-20,-6,0,0,0,0.04613051
11314,2023-01-20 11:09:15.581637,189896078,0,0.17,0,0.48,0.21,0.09,1.89,-23,-21,-21,0,0,0,0.03484135
11346,2023-01-20 11:09:15.681658,189996072,0,0.35,0.02,0.5,0.21,0.08,1.88,-20,-29,-35,0,0,0,0.03454063
11379,2023-01-20 11:09:15.781712,190096081,0,0.35,0.02,0.5,0.21,0.08,1.81,-13,-26,-32,0,0,0,0.03199159
11411,2023-01-20 11:09:15.881710,190196071,0,-0.05,-0.04,0.38,0.25,0.09,1.96,-19,-35,-28,0,0,0,0.0373797
11444,2023-01-20 11:09:15.981721,190296082,0,-0.05,-0.04,0.38,0.25,0.09,1.77,-17,-22,-39,0,0,0,0.030435
11476,2023-01-20 11:09:16.081723,190396087,0,-0.01,0,0.61,0.26,0.09,1.79,-6,-23,-48,0,0,0,0.03115789
11508,2023-01-20 11:09:16.181708,190496075,0,-0.01,0,0.61,0.26,0.09,1.84,-1,-21,-45,0,0,0,0.0330075
11541,2023-01-20 11:09:16.281705,190596072,0,-0.11,0.06,0.47,0.26,0.08,1.65,1,-19,-42,0,0,0,0.02658131
11572,2023-01-20 11:09:16.381706,190696071,0,-0.11,0.06,0.47,0.26,0.08,1.65,-4,-27,-41,0,0,0,0.02656707
11606,2023-01-20 11:09:16.481691,190796070,0,-0.11,0.08,0.63,0.25,0.07,1.71,7,-21,-61,0,0,0,0.02843201
11637,2023-01-20 11:09:16.581676,190896073,0,-0.11,0.08,0.63,0.25,0.07,1.84,0,-25,-29,0,0,0,0.03307434
11669,2023-01-20 11:09:16.681684,190996072,0,-0.18,0.23,0.44,0.22,0.06,1.62,-24,-23,-11,0,0,0,0.02562734
11702,2023-01-20 11:09:16.781713,191096087,0,-0.18,0.23,0.44,0.22,0.06,1.68,-36,-34,1,0,0,0,0.02755026
11734,2023-01-20 11:09:16.881707,191196074,0,-0.46,0.21,0.26,0.2,0.06,1.78,-36,-41,2,0,0,0,0.03083421
11767,2023-01-20 11:09:16.981712,191296074,0,-0.46,0.21,0.26,0.2,0.06,1.83,-45,-56,12,0,0,0,0.03267629
11799,2023-01-20 11:09:17.081707,191396071,0,-0.58,0.41,0.29,0.14,0.07,2.1,-40,-66,0,0,0,0,0.04269969
11831,2023-01-20 11:09:17.181705,191496072,0,-0.58,0.41,0.29,0.14,0.07,1.92,-35,-79,11,0,0,0,0.03594423
11864,2023-01-20 11:09:17.281708,191596071,0,-0.59,0.48,0.13,0.04,0.1,1.74,-40,-104,11,0,0,0,0.03185015
11895,2023-01-20 11:09:17.381722,191696078,0,-0.59,0.48,0.13,0.04,0.1,1.65,-18,-109,11,0,0,0,0.03185015
11929,2023-01-20 11:09:17.481702,191796084,0,-0.6,0.51,0.51,-0.02,0.15,1.65,-3,-116,6,0,0,0,0.04657127
11960,2023-01-20 11:09:17.581656,191896072,0,-0.6,0.51,0.51,-0.02,0.15,1.33,-13,-138,24,0,0,0,0.04657127
11992,2023-01-20 11:09:17.681676,191996071,0,-0.29,0.65,0.24,-0.14,0.19,1.45,-10,-137,37,0,0,0,0.02893753
12025,2023-01-20 11:09:17.781714,192096075,0,-0.29,0.65,0.24,-0.14,0.19,1.6,19,-139,35,0,0,0,0.02893753
12057,2023-01-20 11:09:17.881715,192196073,0,-0.69,0.67,0.09,-0.21,0.26,1.6,19,-139,24,0,0,0,0.04721789
12090,2023-01-20 11:09:17.981717,192296079,0,-0.69,0.67,0.09,-0.21,0.26,1.59,34,-141,27,0,0,0,0.04721789
12123,2023-01-20 11:09:18.081701,192396080,0,-1.04,0.61,-0.06,-0.3,0.34,1.65,71,-130,-25,0,0,0,0.07218398
12155,2023-01-20 11:09:18.181679,192496077,0,-1.04,0.61,-0.06,-0.3,0.34,1.69,106,-123,-57,0,0,0,0.07218398
12188,2023-01-20 11:09:18.274343,192596070,0,-1.41,0.44,0.28,-0.43,0.41,1.85,110,-131,-103,0,0,0,0.1093145
12219,2023-01-20 11:09:18.365381,192696079,0,-1.41,0.44,0.28,-0.43,0.41,1.83,107,-118,-93,0,0,0,0.1093145
12253,2023-01-20 11:09:18.461918,192796071,0,-1.28,0.62,0.24,-0.49,0.53,1.88,90,-112,-126,0,0,0,0.09647486
12284,2023-01-20 11:09:18.561848,192896071,0,-1.28,0.62,0.24,-0.49,0.53,2.13,93,-113,-126,0,0,0,0.09647486
12317,2023-01-20 11:09:18.661821,192996071,0,-1.19,0.64,-0.04,-0.58,0.53,2.27,106,-106,-137,0,0,0,0.08401269
12350,2023-01-20 11:09:18.761825,193096074,0,-1.19,0.64,-0.04,-0.58,0.53,2.22,108,-91,-154,0,0,0,0.08401269
12382,2023-01-20 11:09:18.861809,193196092,0,-1.37,0.55,0.12,-0.63,0.53,2.09,100,-96,-132,0,0,0,0.09829475
12415,2023-01-20 11:09:18.961737,193296076,0,-1.37,0.55,0.12,-0.63,0.53,2.3,87,-88,-141,0,0,0,0.09829475
12447,2023-01-20 11:09:19.061722,193396068,0,-1.96,0.53,0.2,-0.68,0.52,2.33,83,-89,-116,0,0,0,0.1841278
12479,2023-01-20 11:09:19.161751,193496074,0,-1.96,0.53,0.2,-0.68,0.52,2.46,75,-79,-109,0,0,0,0.1841278
12512,2023-01-20 11:09:19.261823,193596077,0,-1.69,0.55,0.05,-0.75,0.5,2.64,35,-85,-84,0,0,0,0.1400877
12544,2023-01-20 11:09:19.361931,193696087,0,-1.69,0.55,0.05,-0.75,0.5,2.81,56,-71,-97,0,0,0,0.1400877
12579,2023-01-20 11:09:19.461859,193796072,0,-1.22,0.34,-0.07,-0.77,0.48,2.44,47,-69,-95,0,0,0,0.07221548
12610,2023-01-20 11:09:19.561710,193896076,0,-1.22,0.34,-0.07,-0.77,0.48,2.17,9,-78,-66,0,0,0,0.07221548
12643,2023-01-20 11:09:19.661668,193996072,0,-1.7,0.12,-0.09,-0.73,0.47,2.16,15,-72,-54,0,0,0,0.1278698
12677,2023-01-20 11:09:19.761703,194096072,0,-1.7,0.12,-0.09,-0.73,0.47,1.99,16,-72,-61,0,0,0,0.1278698
12709,2023-01-20 11:09:19.861708,194196071,0,-0.68,-0.26,-0.37,-0.79,0.46,2.37,3,-80,-60,0,0,0,0.05471163
12742,2023-01-20 11:09:19.961701,194296074,0,-0.68,-0.26,-0.37,-0.79,0.46,2.58,17,-71,-76,0,0,0,0.06461661
12775,2023-01-20 11:09:20.061706,194396076,0,-0.56,-0.06,-0.53,-0.78,0.42,2.69,24,-65,-59,0,0,0,0.07048169
12807,2023-01-20 11:09:20.161720,194496077,0,-0.56,-0.06,-0.53,-0.78,0.42,2.59,-1,-68,-65,0,0,0,0.0651091
12839,2023-01-20 11:09:20.261712,194596071,0,-0.85,-0.27,-0.42,-0.73,0.41,2.37,-15,-74,-54,0,0,0,0.05475263
12871,2023-01-20 11:09:20.361708,194696077,0,-0.85,-0.27,-0.42,-0.73,0.41,2.44,-6,-76,-69,0,0,0,0.05765607
12905,2023-01-20 11:09:20.461686,194796073,0,-1.16,-0.28,-0.45,-0.71,0.37,2.61,36,-66,-110,0,0,0,0.08499462
12938,2023-01-20 11:09:20.561663,194896072,0,-1.16,-0.28,-0.45,-0.71,0.37,2.32,-33,-74,-51,0,0,0,0.08499462
12971,2023-01-20 11:09:20.661683,194996088,0,-1.41,-0.36,-0.78,-0.75,0.37,2.27,-80,-74,22,0,0,0,0.1444204
13004,2023-01-20 11:09:20.761687,195096070,0,-1.41,-0.36,-0.78,-0.75,0.37,2.49,-58,-68,-1,0,0,0,0.1444204
13036,2023-01-20 11:09:20.861702,195196079,0,-1.21,-0.6,-0.78,-0.8,0.38,2.26,-27,-64,-32,0,0,0,0.1301537
13069,2023-01-20 11:09:20.961705,195296084,0,-1.21,-0.6,-0.78,-0.8,0.38,2.2,-26,-68,-23,0,0,0,0.1301537
13102,2023-01-20 11:09:21.061692,195396071,0,-0.65,-0.42,-0.93,-0.88,0.36,2.2,-38,-69,-47,0,0,0,0.0804303
13133,2023-01-20 11:09:21.161697,195496074,0,-0.65,-0.42,-0.93,-0.88,0.36,1.99,-36,-62,-10,0,0,0,0.0804303
13167,2023-01-20 11:09:21.261705,195596081,0,-0.76,-0.54,-0.73,-0.89,0.39,1.91,-34,-60,0,0,0,0,0.07765021
13199,2023-01-20 11:09:21.361696,195696072,0,-0.76,-0.54,-0.73,-0.89,0.39,1.48,-55,-64,-3,0,0,0,0.07765021
13233,2023-01-20 11:09:21.461698,195796102,0,-0.86,-0.33,-0.71,-0.88,0.37,1.46,-60,-62,10,0,0,0,0.07547764
13264,2023-01-20 11:09:21.561641,195896091,0,-0.86,-0.33,-0.71,-0.88,0.37,1.51,-57,-58,10,0,0,0,0.07547764
13297,2023-01-20 11:09:21.661631,195996068,0,-1.27,-0.31,-0.62,-0.89,0.38,1.54,-28,-53,-6,0,0,0,0.1165247
13330,2023-01-20 11:09:21.761686,196096072,0,-1.27,-0.31,-0.62,-0.89,0.38,1.42,-52,-61,-11,0,0,0,0.1165247
13362,2023-01-20 11:09:21.861711,196196080,0,-1.21,-0.23,-0.45,-0.92,0.38,1.27,-24,-54,-28,0,0,0,0.09652284
13395,2023-01-20 11:09:21.961700,196296073,0,-1.21,-0.23,-0.45,-0.92,0.38,1.4,-14,-58,-48,0,0,0,0.09652284
13428,2023-01-20 11:09:22.061693,196396080,0,-0.46,-0.69,-0.67,-0.98,0.39,1.55,-54,-55,-31,0,0,0,0.06382447
13459,2023-01-20 11:09:22.161677,196496085,0,-0.46,-0.69,-0.67,-0.98,0.39,1.34,-34,-55,-25,0,0,0,0.06382447
13493,2023-01-20 11:09:22.261667,196596071,0,-0.13,-0.25,-0.3,-1.03,0.34,1.44,-37,-60,-38,0,0,0,0.02007901
13525,2023-01-20 11:09:22.361688,196696072,0,-0.13,-0.25,-0.3,-1.03,0.34,1.53,-24,-54,-41,0,0,0,0.02285716
13559,2023-01-20 11:09:22.461691,196796083,0,-0.54,-0.5,-0.4,-0.99,0.35,1.52,-1,-55,-78,0,0,0,0.04097377
13590,2023-01-20 11:09:22.561657,196896074,0,-0.54,-0.5,-0.4,-0.99,0.35,1.39,10,-49,-82,0,0,0,0.04097377
13623,2023-01-20 11:09:22.661656,196996067,0,-0.25,-0.56,-0.6,-1,0.33,1.37,14,-53,-83,0,0,0,0.04236159
13656,2023-01-20 11:09:22.761694,197096081,0,-0.25,-0.56,-0.6,-1,0.33,1.42,1,-46,-82,0,0,0,0.04236159
13688,2023-01-20 11:09:22.861695,197196071,0,-0.18,-0.45,-0.52,-1.01,0.31,1.51,-4,-52,-75,0,0,0,0.02927006
13721,2023-01-20 11:09:22.961698,197296071,0,-0.18,-0.45,-0.52,-1.01,0.31,1.33,3,-58,-93,0,0,0,0.02927006
13754,2023-01-20 11:09:23.061711,197396081,0,-0.56,-0.27,-0.39,-0.99,0.31,1.34,12,-47,-65,0,0,0,0.03128649
13785,2023-01-20 11:09:23.161708,197496075,0,-0.56,-0.27,-0.39,-0.99,0.31,1.47,-1,-45,-50,0,0,0,0.03128649
13819,2023-01-20 11:09:23.261696,197596067,0,-0.65,-0.1,-0.2,-0.97,0.3,1.73,53,-45,-114,0,0,0,0.02915357
13851,2023-01-20 11:09:23.361701,197696081,0,-0.65,-0.1,-0.2,-0.97,0.3,1.81,72,-50,-139,0,0,0,0.03173141
13885,2023-01-20 11:09:23.461685,197796077,0,-0.38,-0.18,-0.2,-0.99,0.29,1.66,56,-51,-114,0,0,0,0.02671788
13916,2023-01-20 11:09:23.561682,197896087,0,-0.38,-0.18,-0.2,-0.99,0.29,1.68,31,-51,-80,0,0,0,0.02751817
13949,2023-01-20 11:09:23.661678,197996074,0,-0.26,-0.33,-0.39,-1.04,0.31,1.43,39,-44,-83,0,0,0,0.02028929
13982,2023-01-20 11:09:23.761700,198096073,0,-0.26,-0.33,-0.39,-1.04,0.31,1.48,3,-46,-41,0,0,0,0.02119955
14014,2023-01-20 11:09:23.861703,198196071,0,-0.51,-0.33,0.13,-1.04,0.29,1.64,5,-48,-56,0,0,0,0.02621456
14047,2023-01-20 11:09:23.961705,198296080,0,-0.51,-0.33,0.13,-1.04,0.29,1.46,31,-46,-67,0,0,0,0.02360704
14080,2023-01-20 11:09:24.061682,198396071,0,0.07,-0.21,-0.05,-1.12,0.24,1.59,23,-39,-65,0,0,0,0.02474811
14111,2023-01-20 11:09:24.161675,198496084,0,0.07,-0.21,-0.05,-1.12,0.24,1.68,11,-37,-31,0,0,0,0.02733192
14145,2023-01-20 11:09:24.261675,198596075,0,-0.34,-0.17,-0.12,-1.12,0.24,1.72,21,-44,-47,0,0,0,0.02871693
14177,2023-01-20 11:09:24.361698,198696071,0,-0.34,-0.17,-0.12,-1.12,0.24,1.67,31,-41,-57,0,0,0,0.02713106
14211,2023-01-20 11:09:24.461694,198796075,0,0.01,-0.57,-0.27,-1.12,0.23,1.62,26,-46,-55,0,0,0,0.02548119
14243,2023-01-20 11:09:24.561657,198896067,0,0.01,-0.57,-0.27,-1.12,0.23,1.75,16,-38,-44,0,0,0,0.02980362
14276,2023-01-20 11:09:24.661654,198996072,0,-0.37,-0.01,0.28,-1.08,0.16,1.4,24,-40,-32,0,0,0,0.01917678
14309,2023-01-20 11:09:24.761668,199096080,0,-0.37,-0.01,0.28,-1.08,0.16,1.39,19,-33,-54,0,0,0,0.01873052
14341,2023-01-20 11:09:24.861669,199196067,0,-0.49,-0.2,0,-1.07,0.17,1.12,31,-32,-27,0,0,0,0.01745464
14374,2023-01-20 11:09:24.961691,199296070,0,-0.49,-0.2,0,-1.07,0.17,1.02,16,-31,-17,0,0,0,0.01745464
14407,2023-01-20 11:09:25.061700,199396072,0,-0.63,-0.31,0,-1.05,0.16,0.93,11,-28,1,0,0,0,0.02961451
14438,2023-01-20 11:09:25.161720,199496091,0,-0.63,-0.31,0,-1.05,0.16,0.86,-11,-31,1,0,0,0,0.02961451
14472,2023-01-20 11:09:25.261706,199596071,0,-0.14,-0.07,0.09,-1.08,0.13,0.73,-8,-33,9,0,0,0,0.00526003
14504,2023-01-20 11:09:25.361727,199696083,0,-0.14,-0.07,0.09,-1.08,0.13,0.77,-7,-32,18,0,0,0,0.00580699
14538,2023-01-20 11:09:25.461708,199796082,0,-0.18,-0.03,-0.02,-1.04,0.13,0.51,-12,-32,2,0,0,0,0.003203817
14571,2023-01-20 11:09:25.561656,199896067,0,-0.18,-0.03,-0.02,-1.04,0.13,0.59,-1,-28,-9,0,0,0,0.003408048
14604,2023-01-20 11:09:25.661662,199996071,0,-0.63,-0.31,0.2,-1.04,0.13,0.99,-15,-26,33,0,0,0,0.03179983
14637,2023-01-20 11:09:25.761688,200096071,0,-0.63,-0.31,0.2,-1.04,0.13,0.76,-6,-22,-5,0,0,0,0.03179983
14669,2023-01-20 11:09:25.861698,200196068,0,-0.21,-0.05,0,-1.06,0.1,0.79,-25,-24,6,0,0,0,0.006153068
14702,2023-01-20 11:09:25.961710,200296074,0,-0.21,-0.05,0,-1.06,0.1,0.34,-47,-29,41,0,0,0,0.00395216
14735,2023-01-20 11:09:26.061694,200396072,0,-0.47,-0.12,-0.11,-1.03,0.11,0.41,-37,-23,38,0,0,0,0.01525412
14766,2023-01-20 11:09:26.161669,200496073,0,-0.47,-0.12,-0.11,-1.03,0.11,0.49,11,-17,-7,0,0,0,0.01525412
14800,2023-01-20 11:09:26.261672,200596070,0,-0.12,0.19,0.14,-1.04,0.09,0.7,-1,-25,2,0,0,0,0.00523744
14832,2023-01-20 11:09:26.361701,200696074,0,-0.12,0.19,0.14,-1.04,0.09,0.54,8,-19,-23,0,0,0,0.00523744
14866,2023-01-20 11:09:26.461693,200796074,0,-0.32,-0.18,0.02,-1,0.11,0.58,15,-28,-60,0,0,0,0.008853814
14897,2023-01-20 11:09:26.561671,200896083,0,-0.32,-0.18,0.02,-1,0.11,0.86,28,-19,-51,0,0,0,0.008853814
14930,2023-01-20 11:09:26.661651,200996072,0,-0.34,-0.24,-0.19,-0.94,0.11,0.81,31,-12,-42,0,0,0,0.01294832
14963,2023-01-20 11:09:26.761662,201096080,0,-0.34,-0.24,-0.19,-0.94,0.11,1.12,29,-19,-43,0,0,0,0.01294832
14995,2023-01-20 11:09:26.861679,201196077,0,-0.74,0.1,-0.19,-0.89,0.08,0.89,44,-28,-72,0,0,0,0.03474176
15028,2023-01-20 11:09:26.961711,201296078,0,-0.74,0.1,-0.19,-0.89,0.08,1.06,40,-21,-70,0,0,0,0.03474176
15061,2023-01-20 11:09:27.061710,201396071,0,-0.43,-0.13,-0.1,-0.95,0.08,0.97,58,-17,-77,0,0,0,0.01315603
15092,2023-01-20 11:09:27.161715,201496085,0,-0.43,-0.13,-0.1,-0.95,0.08,0.69,46,-14,-86,0,0,0,0.01315603
15126,2023-01-20 11:09:27.261690,201596071,0,-0.28,-0.15,-0.29,-0.96,0.07,0.47,39,-24,-66,0,0,0,0.01150331
15158,2023-01-20 11:09:27.361683,201696075,0,-0.28,-0.15,-0.29,-0.96,0.07,0.57,28,-12,-44,0,0,0,0.01150331
15192,2023-01-20 11:09:27.461700,201796091,0,-0.27,-0.17,0.02,-0.94,0.07,0.74,0,-12,-7,0,0,0,0.007024493
15223,2023-01-20 11:09:27.561692,201896074,0,-0.27,-0.17,0.02,-0.94,0.07,0.54,-2,-11,1,0,0,0,0.007024493
15256,2023-01-20 11:09:27.661702,201996077,0,-0.12,0.11,-0.17,-0.89,0.04,0.53,-7,-15,13,0,0,0,0.004037001
15289,2023-01-20 11:09:27.761716,202096085,0,-0.12,0.11,-0.17,-0.89,0.04,0.77,3,-14,-10,0,0,0,0.005756508
15321,2023-01-20 11:09:27.861724,202196091,0,-0.52,0.14,-0.31,-0.83,0.06,0.56,0,-12,-2,0,0,0,0.02329674
15355,2023-01-20 11:09:27.961723,202296090,0,-0.52,0.14,-0.31,-0.83,0.06,0.66,-8,-4,11,0,0,0,0.02329674
15387,2023-01-20 11:09:28.061726,202396089,0,-0.13,0.05,-0.05,-0.85,0.06,0.6,-18,-9,28,0,0,0,0.003564193
15418,2023-01-20 11:09:28.161716,202496073,0,-0.13,0.05,-0.05,-0.85,0.06,0.37,4,-7,-7,0,0,0,0.002035481
15452,2023-01-20 11:09:28.261714,202596072,0,0.01,-0.08,-0.22,-0.87,0.07,0.2,-4,-10,-5,0,0,0,0.004047196
15484,2023-01-20 11:09:28.361719,202696083,0,0.01,-0.08,-0.22,-0.87,0.07,0.07,-36,-11,48,0,0,0,0.004047196
15518,2023-01-20 11:09:28.456124,202796090,0,-0.1,-0.08,-0.12,-0.82,0.09,0.07,-54,-2,80,0,0,0,0.002755704
15549,2023-01-20 11:09:28.547036,202896074,0,-0.1,-0.08,-0.12,-0.82,0.09,0.7,-42,-5,62,0,0,0,0.004829578
15582,2023-01-20 11:09:28.641755,202996077,0,-0.18,0.14,-0.05,-0.81,0.08,0.34,-17,-10,35,0,0,0,0.003857822
15615,2023-01-20 11:09:28.741749,203096070,0,-0.18,0.14,-0.05,-0.81,0.08,-0.38,-69,-6,75,0,0,0,0.003857822
15647,2023-01-20 11:09:28.841750,203196071,0,-0.46,0.11,-0.27,-0.79,0.09,0.48,-53,0,57,0,0,0,0.01784254
15681,2023-01-20 11:09:28.941761,203296083,0,-0.46,0.11,-0.27,-0.79,0.09,0.66,-7,-9,5,0,0,0,0.01784254
15713,2023-01-20 11:09:29.041750,203396071,0,-0.44,0.13,-0.41,-0.8,0.11,0.54,10,-6,-13,0,0,0,0.02301246
15744,2023-01-20 11:09:29.141762,203496076,0,-0.44,0.13,-0.41,-0.8,0.11,0.46,11,-5,-22,0,0,0,0.02301246
15778,2023-01-20 11:09:29.241751,203596072,0,-0.35,0.01,-0.25,-0.82,0.12,0.38,-7,-7,16,0,0,0,0.01151814
15810,2023-01-20 11:09:29.341729,203696075,0,-0.35,0.01,-0.25,-0.82,0.12,0.25,-6,-3,4,0,0,0,0.01151814
15844,2023-01-20 11:09:29.441703,203796070,0,-0.56,-0.02,-0.41,-0.81,0.12,0.26,-1,-13,-5,0,0,0,0.02843915
15875,2023-01-20 11:09:29.541696,203896078,0,-0.56,-0.02,-0.41,-0.81,0.12,0.16,22,-1,-22,0,0,0,0.02843915
15909,2023-01-20 11:09:29.641726,203996071,0,0.04,-0.02,0.18,-0.88,0.11,0.13,8,-3,-15,0,0,0,0.00282954
15943,2023-01-20 11:09:29.741863,204096097,0,0.04,-0.02,0.18,-0.88,0.11,0.14,11,-3,3,0,0,0,0.00282954
15975,2023-01-20 11:09:29.841872,204196071,0,-0.51,0.05,0,-0.84,0.1,0.05,23,-5,0,0,0,0,0.01550431
16009,2023-01-20 11:09:29.941819,204296088,0,-0.51,0.05,0,-0.84,0.1,0.28,30,-6,-24,0,0,0,0.01550431
16041,2023-01-20 11:09:30.041755,204396084,0,-0.15,0.19,-0.03,-0.84,0.09,0.26,58,-4,-67,0,0,0,0.004314394
16072,2023-01-20 11:09:30.141712,204496086,0,-0.15,0.19,-0.03,-0.84,0.09,0.31,43,4,-43,0,0,0,0.004314394
16106,2023-01-20 11:09:30.241678,204596072,0,-0.11,0.06,-0.14,-0.84,0.1,0.15,26,-5,-29,0,0,0,0.002796032
16138,2023-01-20 11:09:30.341706,204696084,0,-0.11,0.06,-0.14,-0.84,0.1,0.19,22,-2,-27,0,0,0,0.002796032
16172,2023-01-20 11:09:30.441694,204796071,0,-0.3,0.07,-0.85,-0.83,0.1,0.24,34,1,-35,0,0,0,0.04716464
16205,2023-01-20 11:09:30.541685,204896080,0,-0.3,0.07,-0.85,-0.83,0.1,0.19,37,0,-25,0,0,0,0.04716464
16238,2023-01-20 11:09:30.641673,204996081,0,-0.4,0.04,-0.56,-0.84,0.1,0.38,37,-2,-23,0,0,0,0.02771395
16271,2023-01-20 11:09:30.741665,205096079,0,-0.4,0.04,-0.56,-0.84,0.1,0.48,33,-12,-31,0,0,0,0.02771395
16303,2023-01-20 11:09:30.841669,205196071,0,0.28,0,0.09,-0.89,0.1,0.66,65,0,-52,0,0,0,0.005700869
16380,2023-01-20 11:09:30.941724,205296091,0,0.28,0,0.09,-0.89,0.1,0.49,35,-5,-42,0,0,0,0.005700869
16412,2023-01-20 11:09:31.041717,205396067,0,-0.46,0.07,-0.46,-0.79,0.08,0.57,66,-5,-56,0,0,0,0.02530877
16443,2023-01-20 11:09:31.141721,205496077,0,-0.46,0.07,-0.46,-0.79,0.08,0.44,54,0,-50,0,0,0,0.02530877
16477,2023-01-20 11:09:31.241731,205596094,0,0.16,-0.06,0.2,-0.86,0.07,0.38,49,2,-38,0,0,0,0.004636113
16509,2023-01-20 11:09:31.341720,205696091,0,0.16,-0.06,0.2,-0.86,0.07,0.33,50,0,-39,0,0,0,0.004636113
16542,2023-01-20 11:09:31.441696,205796078,0,-0.24,0.29,-0.13,-0.8,0.04,0.32,44,0,-24,0,0,0,0.009994762
16573,2023-01-20 11:09:31.541686,205896084,0,-0.24,0.29,-0.13,-0.8,0.04,0.18,31,-3,-28,0,0,0,0.009994762
16606,2023-01-20 11:09:31.641667,205996067,0,-0.14,0.2,-0.14,-0.78,0.05,0.55,-4,1,38,0,0,0,0.005230317
16639,2023-01-20 11:09:31.741692,206096072,0,-0.14,0.2,-0.14,-0.78,0.05,0.31,-8,-1,37,0,0,0,0.005230317
16671,2023-01-20 11:09:31.841718,206196085,0,0.17,0.23,-0.3,-0.71,0.05,0.66,52,6,-28,0,0,0,0.01054859
16705,2023-01-20 11:09:31.941715,206296079,0,0.17,0.23,-0.3,-0.71,0.05,0.61,54,-2,-58,0,0,0,0.01054859
16737,2023-01-20 11:09:32.041709,206396071,0,0.8,0.5,-0.46,-0.64,0.03,0.41,53,3,-42,0,0,0,0.06350648
16768,2023-01-20 11:09:32.141729,206496090,0,0.8,0.5,-0.46,-0.64,0.03,0.63,28,-9,-4,0,0,0,0.06350648
16802,2023-01-20 11:09:32.241714,206596077,0,-0.04,0.23,-0.23,-0.47,0.05,0.47,-6,-1,30,0,0,0,0.00643393
16834,2023-01-20 11:09:32.341707,206696076,0,-0.04,0.23,-0.23,-0.47,0.05,0.35,16,0,24,0,0,0,0.00643393
16868,2023-01-20 11:09:32.441709,206796090,0,-0.18,0.08,0.06,-0.44,0.05,0.43,38,-7,-30,0,0,0,0.002830169
16899,2023-01-20 11:09:32.541674,206896075,0,-0.18,0.08,0.06,-0.44,0.05,0.62,68,-3,-63,0,0,0,0.003772628
16932,2023-01-20 11:09:32.641653,206996067,0,-0.27,0.09,0.06,-0.43,0.03,0.66,56,-2,-54,0,0,0,0.005240685
16965,2023-01-20 11:09:32.741663,207096080,0,-0.27,0.09,0.06,-0.43,0.03,0.72,38,-7,-36,0,0,0,0.005240685
16997,2023-01-20 11:09:32.841674,207196080,0,-0.14,0.04,0.14,-0.37,0.02,0.61,36,5,-17,0,0,0,0.003706303
17031,2023-01-20 11:09:32.941697,207296073,0,-0.14,0.04,0.14,-0.37,0.02,0.8,31,2,-24,0,0,0,0.006200211
17063,2023-01-20 11:09:33.041721,207396080,0,-0.18,0.15,-0.03,-0.3,0,0.71,50,3,-25,0,0,0,0.00490101
17094,2023-01-20 11:09:33.141719,207496077,0,-0.18,0.15,-0.03,-0.3,0,0.75,20,-3,-5,0,0,0,0.005562176
17128,2023-01-20 11:09:33.241700,207596071,0,-0.03,0,-0.21,-0.24,0,0.83,34,4,-7,0,0,0,0.006764177
17160,2023-01-20 11:09:33.341682,207696085,0,-0.03,0,-0.21,-0.24,0,0.59,50,-5,-38,0,0,0,0.003477103
17194,2023-01-20 11:09:33.441692,207796113,0,-0.14,0.04,0,-0.21,-0.02,0.79,55,1,-40,0,0,0,0.00618644
17225,2023-01-20 11:09:33.541655,207896074,0,-0.14,0.04,0,-0.21,-0.02,0.64,38,-2,-32,0,0,0,0.003970855
17258,2023-01-20 11:09:33.641674,207996083,0,-0.35,0.1,-0.01,-0.17,-0.03,0.6,47,-4,-41,0,0,0,0.007704627
17291,2023-01-20 11:09:33.741694,208096080,0,-0.35,0.1,-0.01,-0.17,-0.03,0.58,46,-1,-37,0,0,0,0.007704627
17323,2023-01-20 11:09:33.841701,208196071,0,-0.69,0.02,0.08,-0.19,-0.04,0.64,39,-5,-18,0,0,0,0.0281194
17357,2023-01-20 11:09:33.941718,208296081,0,-0.69,0.02,0.08,-0.19,-0.04,0.52,20,-7,-2,0,0,0,0.0281194
17389,2023-01-20 11:09:34.041721,208396079,0,-0.36,-0.16,-0.02,-0.22,-0.06,0.6,33,2,-9,0,0,0,0.009186586
17420,2023-01-20 11:09:34.141734,208496089,0,-0.36,-0.16,-0.02,-0.22,-0.06,0.44,35,0,-18,0,0,0,0.009186586
17454,2023-01-20 11:09:34.241726,208596081,0,-0.35,0.01,0.16,-0.17,-0.08,0.49,30,-3,-24,0,0,0,0.00889009
17486,2023-01-20 11:09:34.341719,208696075,0,-0.35,0.01,0.16,-0.17,-0.08,0.53,45,9,-12,0,0,0,0.00889009
17520,2023-01-20 11:09:34.441733,208796100,0,-0.38,-0.12,0.28,-0.18,-0.1,0.55,24,-3,-16,0,0,0,0.01402722
17551,2023-01-20 11:09:34.541692,208896083,0,-0.38,-0.12,0.28,-0.18,-0.1,0.43,23,1,-24,0,0,0,0.01402722
17584,2023-01-20 11:09:34.641683,208996080,0,-0.55,0.09,0.07,-0.12,-0.13,0.29,18,-5,-19,0,0,0,0.018452
17618,2023-01-20 11:09:34.741696,209096074,0,-0.55,0.09,0.07,-0.12,-0.13,0.37,21,5,0,0,0,0,0.018452
17650,2023-01-20 11:09:34.841714,209196079,0,-0.51,0.06,0.26,-0.12,-0.15,0.12,28,1,-7,0,0,0,0.01905682
17684,2023-01-20 11:09:34.941713,209296074,0,-0.51,0.06,0.26,-0.12,-0.15,0.23,21,0,-13,0,0,0,0.01905682
17716,2023-01-20 11:09:35.041716,209396074,0,-0.19,-0.07,0.37,-0.15,-0.17,0.25,36,-1,-17,0,0,0,0.01062147
17747,2023-01-20 11:09:35.141735,209496094,0,-0.19,-0.07,0.37,-0.15,-0.17,0.29,17,-6,-7,0,0,0,0.01062147
17781,2023-01-20 11:09:35.241696,209596068,0,-0.48,-0.02,0.15,-0.12,-0.19,0.25,-12,2,24,0,0,0,0.01487106
17813,2023-01-20 11:09:35.341680,209696082,0,-0.48,-0.02,0.15,-0.12,-0.19,0.16,8,-3,6,0,0,0,0.01487106
17847,2023-01-20 11:09:35.441687,209796100,0,-0.57,0.09,0.03,-0.09,-0.2,0.01,13,-2,-16,0,0,0,0.01920963
17880,2023-01-20 11:09:35.541681,209896076,0,-0.57,0.09,0.03,-0.09,-0.2,0.15,35,1,-27,0,0,0,0.01920963
17913,2023-01-20 11:09:35.641696,209996078,0,-0.42,0.07,0.25,-0.1,-0.22,0.25,44,2,-26,0,0,0,0.01427077
17946,2023-01-20 11:09:35.741724,210096097,0,-0.42,0.07,0.25,-0.1,-0.22,0.15,44,9,-37,0,0,0,0.01427077
17978,2023-01-20 11:09:35.841697,210196072,0,-0.55,0.05,0.02,-0.05,-0.23,0.14,24,-1,-1,0,0,0,0.01738476
18012,2023-01-20 11:09:35.941681,210296071,0,-0.55,0.05,0.02,-0.05,-0.23,0.2,27,5,-7,0,0,0,0.01738476
18044,2023-01-20 11:09:36.041685,210396074,0,-0.16,0.1,-0.15,-0.05,-0.23,0.18,32,2,-24,0,0,0,0.00350393
18075,2023-01-20 11:09:36.141712,210496078,0,-0.16,0.1,-0.15,-0.05,-0.23,0.14,53,2,-37,0,0,0,0.00350393
18109,2023-01-20 11:09:36.241715,210596068,0,-0.42,0.13,0.13,-0.02,-0.25,0.44,46,9,-35,0,0,0,0.01242218
18141,2023-01-20 11:09:36.341726,210696079,0,-0.42,0.13,0.13,-0.02,-0.25,0.16,59,4,-42,0,0,0,0.01242218
18175,2023-01-20 11:09:36.437982,210796101,0,-0.3,0.19,0.09,0,-0.25,0.29,71,9,-48,0,0,0,0.008142395
18206,2023-01-20 11:09:36.528947,210896085,0,-0.3,0.19,0.09,0,-0.25,0.29,54,2,-50,0,0,0,0.008142395
18239,2023-01-20 11:09:36.621890,210996071,0,-0.45,0.28,0.07,0.11,-0.12,0.22,43,-1,-47,0,0,0,0.01628922
18272,2023-01-20 11:09:36.721901,211096079,0,-0.45,0.28,0.07,0.11,-0.12,0.22,60,1,-55,0,0,0,0.01628922
18304,2023-01-20 11:09:36.821904,211196076,0,-0.4,0.08,0.09,0.11,-0.12,0.04,62,1,-77,0,0,0,0.01025459
18338,2023-01-20 11:09:36.921934,211296092,0,-0.4,0.08,0.09,0.11,-0.12,0.25,64,-1,-57,0,0,0,0.01025459
18370,2023-01-20 11:09:37.021921,211396072,0,-0.07,-0.04,0.1,0.08,-0.12,0.19,63,1,-52,0,0,0,0.001006303
18401,2023-01-20 11:09:37.121925,211496092,0,-0.07,-0.04,0.1,0.08,-0.12,0.34,58,5,-61,0,0,0,0.001142169
18435,2023-01-20 11:09:37.221880,211596067,0,-0.48,0.1,-0.25,0.11,-0.13,0.19,45,3,-39,0,0,0,0.01743113
18467,2023-01-20 11:09:37.321862,211696081,0,-0.48,0.1,-0.25,0.11,-0.13,0.23,45,-1,-40,0,0,0,0.01743113
18501,2023-01-20 11:09:37.424267,211796104,0,-0.39,0.08,0.11,0.11,-0.13,0.19,46,-1,-27,0,0,0,0.009705585
18532,2023-01-20 11:09:37.535254,211896078,0,-0.39,0.08,0.11,0.11,-0.13,0.33,39,1,-38,0,0,0,0.009705585
18565,2023-01-20 11:09:37.637891,211996071,0,0,-0.1,0.23,0,-0.26,0.22,21,-4,-21,0,0,0,0.003938096
18598,2023-01-20 11:09:37.728838,212096090,0,0,-0.1,0.23,0,-0.26,0.59,47,4,-22,0,0,0,0.003938096
18630,2023-01-20 11:09:37.821722,212196068,0,-0.31,0,0.15,0.13,-0.13,0.39,45,0,-36,0,0,0,0.00709613
18664,2023-01-20 11:09:37.921749,212296077,0,-0.31,0,0.15,0.13,-0.13,0.35,33,-3,-33,0,0,0,0.00709613
18696,2023-01-20 11:09:38.021763,212396079,0,-0.13,-0.03,0.01,0.11,-0.13,0.3,17,2,-14,0,0,0,0.001080364
18727,2023-01-20 11:09:38.121763,212496091,0,-0.13,-0.03,0.01,0.11,-0.13,0.4,19,4,-21,0,0,0,0.001588927
18761,2023-01-20 11:09:38.221745,212596086,0,-0.42,-0.04,0.31,0.13,-0.13,0.25,41,3,-30,0,0,0,0.01579317
18793,2023-01-20 11:09:38.321735,212696092,0,-0.42,-0.04,0.31,0.13,-0.13,0.38,38,-5,-30,0,0,0,0.01579317
18827,2023-01-20 11:09:38.421698,212796071,0,-0.46,-0.16,0.23,0.11,-0.13,0.4,39,6,-37,0,0,0,0.01697887
18858,2023-01-20 11:09:38.521684,212896073,0,-0.46,-0.16,0.23,0.11,-0.13,0.46,21,9,-16,0,0,0,0.01697887
18891,2023-01-20 11:09:38.621684,212996082,0,-0.22,-0.09,0.19,0.14,-0.14,0.38,22,0,-10,0,0,0,0.00562822
18924,2023-01-20 11:09:38.721696,213096082,0,-0.22,-0.09,0.19,0.14,-0.14,0.35,12,2,-1,0,0,0,0.00562822
18956,2023-01-20 11:09:38.821697,213196071,0,-0.28,0.03,0.12,0.15,-0.15,0.44,3,-1,-3,0,0,0,0.005503765
18990,2023-01-20 11:09:38.921729,213296091,0,-0.28,0.03,0.12,0.15,-0.15,0.22,0,-2,12,0,0,0,0.005503765
19022,2023-01-20 11:09:39.021717,213396071,0,-0.06,0.07,-0.12,0.15,-0.14,0.29,12,-3,10,0,0,0,0.001526304
19053,2023-01-20 11:09:39.121716,213496074,0,-0.06,0.07,-0.12,0.15,-0.14,0.22,0,0,3,0,0,0,0.001526304
19087,2023-01-20 11:09:39.221714,213596081,0,-0.17,-0.18,-0.17,0.16,-0.13,0.33,12,2,1,0,0,0,0.005598852
19119,2023-01-20 11:09:39.321691,213696082,0,-0.17,-0.18,-0.17,0.16,-0.13,0.29,14,4,-7,0,0,0,0.005598852
19153,2023-01-20 11:09:39.421696,213796105,0,-0.54,0.01,-0.05,0.15,-0.16,0.43,34,6,-19,0,0,0,0.01725498
19184,2023-01-20 11:09:39.521684,213896089,0,-0.54,0.01,-0.05,0.15,-0.16,0.52,14,0,17,0,0,0,0.01725498
19217,2023-01-20 11:09:39.621671,213996070,0,-0.24,-0.03,0,0.12,-0.16,0.41,17,6,-10,0,0,0,0.003574363
19251,2023-01-20 11:09:39.721684,214096071,0,-0.24,-0.03,0,0.12,-0.16,0.45,-2,6,8,0,0,0,0.003574363
19286,2023-01-20 11:09:39.821704,214196079,0,-0.23,-0.03,-0.01,0.09,-0.16,0.53,-13,-1,25,0,0,0,0.003316086
19320,2023-01-20 11:09:39.921719,214296082,0,-0.23,-0.03,-0.01,0.09,-0.16,0.39,-12,2,18,0,0,0,0.003316086
19352,2023-01-20 11:09:40.021724,214396079,0,-0.53,0.12,0.03,0.06,-0.18,0.35,-5,2,20,0,0,0,0.01703349
19383,2023-01-20 11:09:40.121736,214496095,0,-0.53,0.12,0.03,0.06,-0.18,0.3,15,3,6,0,0,0,0.01703349
19417,2023-01-20 11:09:40.221709,214596072,0,-1.01,-0.29,0.02,0.07,-0.16,0.23,-2,6,21,0,0,0,0.06294777
19449,2023-01-20 11:09:40.321710,214696075,0,-1.01,-0.29,0.02,0.07,-0.16,0.35,6,0,15,0,0,0,0.06294777
19483,2023-01-20 11:09:40.421710,214796081,0,-0.04,-0.01,-0.06,-0.01,-0.2,0.37,-24,4,35,0,0,0,0.001369316
19516,2023-01-20 11:09:40.521687,214896079,0,-0.04,-0.01,-0.06,-0.01,-0.2,0.32,-9,9,41,0,0,0,0.001014295
19549,2023-01-20 11:09:40.621675,214996079,0,-0.47,-0.05,0.1,0,-0.21,0.3,-31,2,52,0,0,0,0.01371614
19582,2023-01-20 11:09:40.721688,215096075,0,-0.47,-0.05,0.1,0,-0.21,0.24,-7,2,25,0,0,0,0.01371614
19614,2023-01-20 11:09:40.821700,215196072,0,-0.36,0.09,0.36,0,-0.21,0.33,-2,3,14,0,0,0,0.01533054
19648,2023-01-20 11:09:40.921718,215296078,0,-0.36,0.09,0.36,0,-0.21,0.13,-13,6,41,0,0,0,0.01533054
19680,2023-01-20 11:09:41.021727,215396078,0,-0.12,-0.17,0.33,0.03,-0.19,0.09,-17,7,43,0,0,0,0.008853484
19711,2023-01-20 11:09:41.121747,215496100,0,-0.12,-0.17,0.33,0.03,-0.19,0.09,-26,6,54,0,0,0,0.008853484
19745,2023-01-20 11:09:41.221711,215596072,0,-0.24,0,-0.1,0.06,-0.2,0.44,-11,8,43,0,0,0,0.003940743
19777,2023-01-20 11:09:41.321683,215696076,0,-0.24,0,-0.1,0.06,-0.2,0.31,-18,7,39,0,0,0,0.003940743
19811,2023-01-20 11:09:41.421662,215796078,0,-0.31,0.14,0.31,0.07,-0.2,0.68,-12,7,39,0,0,0,0.01265394
19842,2023-01-20 11:09:41.521667,215896075,0,-0.31,0.14,0.31,0.07,-0.2,0.38,-8,3,21,0,0,0,0.01265394
19875,2023-01-20 11:09:41.621671,215996071,0,-0.54,0.07,0.31,0.08,-0.2,0.42,-15,5,34,0,0,0,0.02251297
19908,2023-01-20 11:09:41.721688,216096080,0,-0.54,0.07,0.31,0.08,-0.2,0.49,-3,2,17,0,0,0,0.02251297
19940,2023-01-20 11:09:41.821684,216196071,0,-0.18,0.11,0.03,0.05,-0.2,0.59,8,3,5,0,0,0,0.00348358
19974,2023-01-20 11:09:41.921690,216296081,0,-0.18,0.11,0.03,0.05,-0.2,0.55,-8,7,24,0,0,0,0.00300585
20006,2023-01-20 11:09:42.021678,216396068,0,-0.13,0.13,0.37,0.08,-0.18,0.35,-11,9,30,0,0,0,0.009874367
20037,2023-01-20 11:09:42.121709,216496082,0,-0.13,0.13,0.37,0.08,-0.18,0.49,0,7,26,0,0,0,0.009874367
20071,2023-01-20 11:09:42.221709,216596071,0,-0.14,0.17,0.2,0.09,-0.19,0.43,-10,-2,24,0,0,0,0.005392049
20103,2023-01-20 11:09:42.321703,216696073,0,-0.14,0.17,0.2,0.09,-0.19,0.37,-4,-1,23,0,0,0,0.005392049
20137,2023-01-20 11:09:42.421707,216796087,0,-0.2,0.22,0.33,0.12,-0.18,0.44,4,6,17,0,0,0,0.01177263
20168,2023-01-20 11:09:42.521682,216896076,0,-0.2,0.22,0.33,0.12,-0.18,0.55,0,7,11,0,0,0,0.01177263
20201,2023-01-20 11:09:42.621664,216996067,0,-0.18,-0.02,0.36,0.12,-0.15,0.53,5,1,17,0,0,0,0.009531631
20234,2023-01-20 11:09:42.721693,217096087,0,-0.18,-0.02,0.36,0.12,-0.15,0.41,14,4,7,0,0,0,0.009531631
20266,2023-01-20 11:09:42.821689,217196072,0,-0.17,-0.04,0.19,0.11,-0.15,0.64,16,2,5,0,0,0,0.004030089
20300,2023-01-20 11:09:42.921720,217296086,0,-0.17,-0.04,0.19,0.11,-0.15,0.34,-7,0,23,0,0,0,0.003984869
20332,2023-01-20 11:09:43.021732,217396085,0,-0.21,0.01,0.28,0.12,-0.15,0.55,12,6,15,0,0,0,0.00726317
20363,2023-01-20 11:09:43.121726,217496080,0,-0.21,0.01,0.28,0.12,-0.15,0.44,2,3,7,0,0,0,0.00726317
20397,2023-01-20 11:09:43.221714,217596072,0,-0.46,0.02,0.33,0.14,-0.14,0.48,4,0,23,0,0,0,0.01901262
20429,2023-01-20 11:09:43.321714,217696085,0,-0.46,0.02,0.33,0.14,-0.14,0.36,10,3,22,0,0,0,0.01901262
20462,2023-01-20 11:09:43.421722,217796106,0,-0.14,0.05,0.12,0.13,-0.14,0.62,32,10,0,0,0,0,0.00373387
20493,2023-01-20 11:09:43.521682,217896076,0,-0.14,0.05,0.12,0.13,-0.14,0.66,38,3,-24,0,0,0,0.004254558
20526,2023-01-20 11:09:43.621676,217996076,0,-0.43,-0.23,0.14,0.15,-0.12,0.68,31,-5,-29,0,0,0,0.01545218
20559,2023-01-20 11:09:43.721689,218096078,0,-0.43,-0.23,0.14,0.15,-0.12,0.67,50,-6,-39,0,0,0,0.01545218
20591,2023-01-20 11:09:43.821690,218196072,0,-0.08,0.13,-0.12,0.13,-0.14,0.61,47,-5,-47,0,0,0,0.003649317
20625,2023-01-20 11:09:43.921707,218296100,0,-0.08,0.13,-0.12,0.13,-0.14,0.61,60,0,-56,0,0,0,0.003655957
20657,2023-01-20 11:09:44.021673,218396069,0,-0.23,-0.11,0.15,0.09,-0.13,0.69,34,0,-35,0,0,0,0.005329231
20688,2023-01-20 11:09:44.121701,218496074,0,-0.23,-0.11,0.15,0.09,-0.13,0.73,34,-3,-19,0,0,0,0.005329231
20722,2023-01-20 11:09:44.221722,218596080,0,-0.5,-0.27,0.31,0.02,-0.14,0.59,40,0,-30,0,0,0,0.02485478
20754,2023-01-20 11:09:44.321712,218696080,0,-0.5,-0.27,0.31,0.02,-0.14,0.72,48,-1,-51,0,0,0,0.02485478
20788,2023-01-20 11:09:44.421693,218796077,0,-0.37,-0.19,0.44,0,-0.16,0.75,47,-1,-43,0,0,0,0.02168667
20819,2023-01-20 11:09:44.521660,218896082,0,-0.37,-0.19,0.44,0,-0.16,0.57,63,1,-56,0,0,0,0.02168667
20852,2023-01-20 11:09:44.621625,218996068,0,-0.49,0.06,0.17,-0.01,-0.18,0.64,46,2,-46,0,0,0,0.01606578
20885,2023-01-20 11:09:44.721672,219096074,0,-0.49,0.06,0.17,-0.01,-0.18,0.77,60,7,-48,0,0,0,0.01606578
20917,2023-01-20 11:09:44.821706,219196074,0,-0.36,0,0.32,-0.02,-0.18,0.84,38,-1,-23,0,0,0,0.01347881
20952,2023-01-20 11:09:44.921730,219296088,0,-0.36,0,0.32,-0.02,-0.18,0.94,37,2,-17,0,0,0,0.01347881
20984,2023-01-20 11:09:45.021720,219396071,0,-0.23,0.07,0.38,-0.03,-0.18,0.62,31,0,-28,0,0,0,0.01167922
