LineNo,UTC_Approx,TimeUS,C,SV,SP,SH,SM,SVT,errRP,OFN,OFE,FS,TS,SS,GPS,PI
675,2023-01-20 11:08:47.421095,161675791,0,0.01,0.01,0,0,0,0.007563076,3.144728,-0.9072883,0,48,109375,0,0
1028,2023-01-20 11:08:47.516079,161775775,0,0.01,0.01,0,0,0,0.007637982,3.144728,-0.9072883,0,48,109375,0,0
1144,2023-01-20 11:08:47.630187,161892750,0,0.09,0.01,0,0,0,0.007582027,3.144728,-0.9072883,0,48,109375,0,0
1407,2023-01-20 11:08:47.738571,161995567,0,0.09,0.01,0,0,0,0.007658381,3.144728,-0.9072883,0,48,109375,0,0
1826,2023-01-20 11:08:47.842134,162096077,0,0.09,0.01,0,0,0,0.007606738,3.144728,-0.9072883,0,48,109375,0,0
1871,2023-01-20 11:08:47.941896,162196081,0,0.09,0.01,0,0,0,0.007683759,3.144728,-0.9072883,0,48,109375,0,0
1918,2023-01-20 11:08:48.041756,162296080,0,0.1,0.02,0,0,0,0.007656035,3.144728,-0.9072883,0,48,109375,0,0
1964,2023-01-20 11:08:48.141750,162396070,0,0.1,0.02,0,0,0,0.007732977,3.144728,-0.9072883,0,48,109375,0,0
2017,2023-01-20 11:08:48.241764,162496067,0,0.06,0.02,0,0,0,0.007699526,3.144728,-0.9072883,0,48,109375,0,0
2058,2023-01-20 11:08:48.341793,162596063,0,0.06,0.02,0,0,0,0.007776442,3.144728,-0.9072883,0,48,109375,0,0
2114,2023-01-20 11:08:48.438031,162696062,0,0.06,0.02,0,0,0,0.007742804,3.144728,-0.9072883,0,48,109375,0,0
2175,2023-01-20 11:08:48.528998,162796071,0,0.06,0.02,0,0,0,0.007818965,3.144728,-0.9072883,0,48,109375,0,0
2235,2023-01-20 11:08:48.621935,162896062,0,0.02,0.02,0,0,0,0.007798265,3.144728,-0.9072883,0,48,109375,0,0
2289,2023-01-20 11:08:48.721952,162996059,0,0.02,0.02,0,0,0,0.007875081,3.144728,-0.9072883,0,48,109375,0,0
2344,2023-01-20 11:08:48.821971,163096063,0,0.06,0.01,0,0,0,0.007859406,3.144728,-0.9072883,0,48,109375,0,0
2398,2023-01-20 11:08:48.921974,163196065,0,0.06,0.01,0,0,0,0.007936273,3.144728,-0.9072883,0,48,109375,0,0
2440,2023-01-20 11:08:49.021967,163296061,0,0.05,0.01,0,0,0,0.007930685,3.144728,-0.9072883,0,48,109375,0,0
2484,2023-01-20 11:08:49.121952,163396062,0,0.05,0.01,0,0,0,0.008007101,3.144728,-0.9072883,0,48,109375,0,0
2526,2023-01-20 11:08:49.224360,163496062,0,0.03,0.01,0,0,0,0.008020865,3.144728,-0.9072883,0,48,109375,0,0
2566,2023-01-20 11:08:49.335395,163596061,0,0.03,0.01,0,0,0,0.008097527,3.144728,-0.9072883,0,48,109375,0,0
2607,2023-01-20 11:08:49.441806,163696078,0,0.01,0.01,0,0,0,0.008124338,3.144728,-0.9072883,0,48,109375,0,0
2647,2023-01-20 11:08:49.541748,163796085,0,0.01,0.01,0,0,0,0.008200651,3.144728,-0.9072883,0,48,109375,0,0
2687,2023-01-20 11:08:49.637949,163896065,0,0.04,0.01,0,0,0,0.008235671,3.144728,-0.9072883,0,48,109375,0,0
2725,2023-01-20 11:08:49.728987,163996078,0,0.04,0.01,0,0,0,0.008311925,3.144728,-0.9072883,0,48,113471,0,0
2768,2023-01-20 11:08:49.821975,164096071,0,0.03,0.01,0,0,0,0.008352409,3.144728,-0.9072883,0,48,113471,0,0
2806,2023-01-20 11:08:49.921949,164196069,0,0.03,0.01,0,0,0,0.008428917,3.144728,-0.9072883,0,48,113471,0,0
2848,2023-01-20 11:08:50.021935,164296065,0,0.06,0.01,0,0,0,0.008475271,3.144728,-0.9072883,0,48,113471,0,0
2887,2023-01-20 11:08:50.121980,164396072,0,0.06,0.01,0,0,0,0.008551459,3.144728,-0.9072883,0,48,113471,0,0
2930,2023-01-20 11:08:50.221993,164496065,0,0.04,0.01,0,0,0,0.00860368,3.144728,-0.9072883,0,48,113471,0,0
2968,2023-01-20 11:08:50.321958,164596070,0,0.04,0.01,0,0,0,0.008680137,3.144728,-0.9072883,0,48,113471,0,0
3008,2023-01-20 11:08:50.421912,164696066,0,0.05,0.01,0,0,0,0.008736665,3.144728,-0.9072883,0,48,113471,0,0
3050,2023-01-20 11:08:50.521868,164796070,0,0.05,0.01,0,0,0,0.00881316,3.144728,-0.9072883,0,48,113471,0,0
3090,2023-01-20 11:08:50.621843,164896069,0,0.04,0.01,0,0,0,0.008874565,3.144728,-0.9072883,0,48,113471,0,0
3128,2023-01-20 11:08:50.721915,164996083,0,0.04,0.01,0,0,0,0.008950449,3.144728,-0.9072883,0,48,113471,0,0
3169,2023-01-20 11:08:50.821937,165096074,0,0.06,0.01,0,0.01,0,0.009014521,3.144728,-0.9072883,0,48,113471,0,0
3207,2023-01-20 11:08:50.921874,165196076,0,0.06,0.01,0,0.01,0,0.009090764,3.144728,-0.9072883,0,48,113471,0,0
3249,2023-01-20 11:08:51.021836,165296085,0,0.11,0.01,0,0,0,0.009156369,3.144728,-0.9072883,0,48,113471,0,0
3287,2023-01-20 11:08:51.121840,165396074,0,0.11,0.01,0,0.01,0,0.00923296,3.144728,-0.9072883,0,48,113471,0,0
3330,2023-01-20 11:08:51.221846,165496079,0,0.09,0.01,0,0,0,0.009300783,3.144728,-0.9072883,0,48,113471,0,0
3368,2023-01-20 11:08:51.321810,165596086,0,0.09,0.01,0,0,0,0.009376628,3.144728,-0.9072883,0,48,113471,0,0
3408,2023-01-20 11:08:51.421759,165696074,0,0.1,0.01,0,0.01,0,0.009445649,3.144728,-0.9072883,0,48,113471,0,0
3448,2023-01-20 11:08:51.521744,165796075,0,0.1,0.01,0,0,0,0.009522191,3.144728,-0.9072883,0,48,113471,0,0
3489,2023-01-20 11:08:51.621735,165896078,0,0.12,0.01,0,0,0,0.009591619,3.144728,-0.9072883,0,48,113471,0,0
3526,2023-01-20 11:08:51.721737,165996073,0,0.12,0.01,0,0.01,0,0.009668142,3.144728,-0.9072883,0,48,113471,0,0
3569,2023-01-20 11:08:51.821756,166096087,0,0.09,0.01,0,0,0,0.009738966,3.144728,-0.9072883,0,48,113471,0,0
3607,2023-01-20 11:08:51.921747,166196081,0,0.09,0.01,0,0,0,0.009815009,3.144728,-0.9072883,0,48,113471,0,0
3649,2023-01-20 11:08:52.021742,166296076,0,0.05,0.01,0,0,0,0.009886852,3.144728,-0.9072883,0,48,113471,0,0
3685,2023-01-20 11:08:52.121747,166396074,0,0.05,0.01,0,0,0,0.009963308,3.144728,-0.9072883,0,48,113471,0,0
3720,2023-01-20 11:08:52.221760,166496082,0,0.08,0,0,0,0,0.01003519,3.144728,-0.9072883,0,48,113471,0,0
3750,2023-01-20 11:08:52.321747,166596072,0,0.08,0,0.01,0,0,0.0101117,3.144728,-0.9072883,0,48,113471,0,0
3783,2023-01-20 11:08:52.421755,166696087,0,0.06,0,0.01,0.01,0,0.0101843,3.144728,-0.9072883,0,48,113471,0,0
3815,2023-01-20 11:08:52.521746,166796104,0,0.06,0,0.01,0,0,0.01026068,3.144728,-0.9072883,0,48,113471,0,0
3848,2023-01-20 11:08:52.621713,166896084,0,0.05,0,0.01,0,0,0.0103338,3.144728,-0.9072883,0,48,113471,0,0
3878,2023-01-20 11:08:52.721736,166996074,0,0.05,0,0.01,0,0,0.01041083,3.144728,-0.9072883,0,48,113471,0,0
3913,2023-01-20 11:08:52.821776,167096088,0,0.02,0,0.01,0,0,0.01048369,3.144728,-0.9072883,0,48,113471,0,0
3943,2023-01-20 11:08:52.921760,167196070,0,0.02,0,0.01,0.01,0,0.01056066,3.144728,-0.9072883,0,48,113471,0,0
3978,2023-01-20 11:08:53.021775,167296091,0,0.05,0,0.01,0,0,0.01063475,3.144728,-0.9072883,0,48,113471,0,0
4008,2023-01-20 11:08:53.121735,167396082,0,0.05,0,0.01,0,0,0.01071125,3.144728,-0.9072883,0,48,113471,0,0
4043,2023-01-20 11:08:53.221700,167496069,0,0.11,0,0.01,0.01,0,0.01078551,3.144728,-0.9072883,0,48,113471,0,0
4073,2023-01-20 11:08:53.321721,167596080,0,0.11,0,0.01,0,0,0.01086261,3.144728,-0.9072883,0,48,113471,0,0
4106,2023-01-20 11:08:53.421714,167696074,0,0.08,0,0.01,0,0,0.01093657,3.144728,-0.9072883,0,48,113471,0,0
4138,2023-01-20 11:08:53.521678,167796078,0,0.08,0,0.01,0.03,0,0.01101384,3.144728,-0.9072883,0,48,113471,0,0
4171,2023-01-20 11:08:53.621652,167896077,0,0.06,0,0.01,0.05,0,0.01108812,3.144728,-0.9072883,0,48,113471,0,0
4201,2023-01-20 11:08:53.721680,167996073,0,0.06,0,0.02,0.08,0,0.01116429,3.144728,-0.9072883,0,48,113471,0,0
4236,2023-01-20 11:08:53.821712,168096084,0,0.1,0,0.01,0.07,0,0.01123839,3.144728,-0.9072883,0,48,113471,0,0
4266,2023-01-20 11:08:53.921691,168196079,0,0.1,0,0.01,0.09,0,0.01131491,3.144728,-0.9072883,0,48,113471,0,0
4302,2023-01-20 11:08:54.021678,168296082,0,0.09,0,0.01,0.09,0,0.01138599,3.144728,-0.9072883,0,48,113471,0,0
4333,2023-01-20 11:08:54.121670,168396087,0,0.09,0,0,0.08,0,0.01146512,3.144728,-0.9072883,0,48,109375,0,0
4368,2023-01-20 11:08:54.221652,168496074,0,0.14,0,0.01,0.1,0,0.01154197,3.144728,-0.9072883,0,48,109375,0,0
4398,2023-01-20 11:08:54.321685,168596082,0,0.14,0,0.01,0.08,0,0.01161992,3.144728,-0.9072883,0,48,109375,0,0
4431,2023-01-20 11:08:54.421693,168696079,0,0.07,0,0.03,0.08,0,0.01168853,3.144728,-0.9072883,0,48,109375,0,0
4463,2023-01-20 11:08:54.521650,168796074,0,0.07,0,0.03,0.07,0,0.01176578,3.144728,-0.9072883,0,48,109375,0,0
4496,2023-01-20 11:08:54.621624,168896073,0,0.05,0,0.04,0.07,0,0.01183916,3.144728,-0.9072883,0,48,109375,0,0
4526,2023-01-20 11:08:54.721641,168996074,0,0.05,0,0.04,0.09,0,0.01191948,3.144728,-0.9072883,0,48,109375,0,0
4561,2023-01-20 11:08:54.821676,169096094,0,0.04,0.01,0.04,0.08,0,0.01199764,3.144728,-0.9072883,0,48,109375,0,0
4591,2023-01-20 11:08:54.921667,169196074,0,0.04,0.01,0.05,0.1,0,0.01210143,3.144728,-0.9072883,0,48,109375,0,0
4626,2023-01-20 11:08:55.021681,169296077,0,0.04,0.01,0.05,0.09,0,0.01220667,3.144728,-0.9072883,0,48,109375,0,0
4656,2023-01-20 11:08:55.121703,169396089,0,0.04,0.01,0.05,0.11,0,0.0123079,3.144728,-0.9072883,0,48,107327,0,0
4691,2023-01-20 11:08:55.221693,169496072,0,0.17,0,0.09,0.1,0,0.01241818,3.144728,-0.9072883,0,48,107327,0,0
4721,2023-01-20 11:08:55.321687,169596072,0,0.17,0,0.09,0.1,0,0.01253003,3.144728,-0.9072883,0,48,107327,0,0
4754,2023-01-20 11:08:55.421686,169696081,0,0.06,0.01,0.08,0.1,0,0.01264189,3.144728,-0.9072883,0,48,107327,0,0
4788,2023-01-20 11:08:55.521647,169796070,0,0.06,0.01,0.09,0.11,0,0.01270902,3.144728,-0.9072883,0,48,107327,0,0
4821,2023-01-20 11:08:55.621640,169896078,0,0.05,0.01,0.09,0.11,0,0.01272502,3.144728,-0.9072883,0,48,107327,0,0
4851,2023-01-20 11:08:55.721683,169996092,0,0.05,0.01,0.07,0.12,0,0.01277728,3.144728,-0.9072883,0,48,107327,0,0
4886,2023-01-20 11:08:55.821690,170096077,0,0.09,0.01,0.06,0.13,0,0.01283722,3.144728,-0.9072883,0,48,107327,0,0
4916,2023-01-20 11:08:55.921693,170196083,0,0.09,0.01,0.05,0.1,0,0.01290497,3.144728,-0.9072883,0,48,107327,0,0
4951,2023-01-20 11:08:56.021701,170296092,0,0.03,0.01,0.05,0.11,0,0.01295045,3.144728,-0.9072883,0,48,107327,0,0
4981,2023-01-20 11:08:56.121684,170396068,0,0.03,0.01,0.05,0.09,0,0.0130174,3.144728,-0.9072883,0,48,107327,0,0
5016,2023-01-20 11:08:56.221691,170496070,0,0.08,0.01,0.06,0.1,0,0.01308252,3.144728,-0.9072883,0,48,107327,0,0
5046,2023-01-20 11:08:56.321708,170596089,0,0.08,0.01,0.05,0.11,0,0.01314625,3.144728,-0.9072883,0,48,107327,0,0
5079,2023-01-20 11:08:56.421682,170696072,0,0.13,0.01,0.04,0.11,0,0.01319362,3.144728,-0.9072883,0,48,107327,0,0
5111,2023-01-20 11:08:56.521656,170796078,0,0.13,0.01,0.04,0.11,0,0.01325967,3.144728,-0.9072883,0,48,107327,0,0
5144,2023-01-20 11:08:56.621642,170896082,0,0.07,0.01,0.04,0.1,0,0.01331707,3.144728,-0.9072883,0,48,107327,0,0
5174,2023-01-20 11:08:56.721666,170996072,0,0.07,0.01,0.05,0.09,0,0.01341532,3.144728,-0.9072883,0,48,107327,0,0
5209,2023-01-20 11:08:56.821700,171096081,0,0.08,0.01,0.05,0.09,0,0.01348158,3.144728,-0.9072883,0,48,107327,0,0
5239,2023-01-20 11:08:56.921704,171196093,0,0.08,0.01,0.05,0.09,0,0.01357362,3.144728,-0.9072883,0,48,107327,0,0
5274,2023-01-20 11:08:57.021684,171296077,0,0.16,0.01,0.05,0.08,0,0.01361512,3.144728,-0.9072883,0,48,107327,0,0
5305,2023-01-20 11:08:57.121683,171396068,0,0.16,0.01,0.05,0.08,0,0.01367251,3.144728,-0.9072883,0,48,107327,0,0
5340,2023-01-20 11:08:57.221694,171496072,0,0.19,0.01,0.04,0.07,0,0.01372414,3.144728,-0.9072883,0,48,107327,0,0
5370,2023-01-20 11:08:57.321696,171596072,0,0.19,0.01,0.05,0.08,0,0.01381714,3.144728,-0.9072883,0,48,107327,0,0
5403,2023-01-20 11:08:57.421693,171696076,0,0.14,0.01,0.05,0.06,0,0.0138907,3.144728,-0.9072883,0,48,107327,0,0
5435,2023-01-20 11:08:57.521654,171796073,0,0.14,0.01,0.05,0.06,0,0.01400138,3.144728,-0.9072883,0,48,107327,0,0
5468,2023-01-20 11:08:57.621639,171896079,0,0.07,0.01,0.06,0.06,0,0.01404139,3.144728,-0.9072883,0,48,107327,0,0
5498,2023-01-20 11:08:57.721665,171996072,0,0.07,0.01,0.06,0.06,0,0.01409851,3.144728,-0.9072883,0,48,107327,0,0
5533,2023-01-20 11:08:57.821714,172096096,0,0.12,0.01,0.06,0.05,0,0.01412607,3.144728,-0.9072883,0,48,107327,0,0
5563,2023-01-20 11:08:57.921687,172196074,0,0.12,0.01,0.07,0.04,0,0.01418908,3.144728,-0.9072883,0,48,107327,0,0
5600,2023-01-20 11:08:58.021684,172296074,0,0.11,0.01,0.08,0,0,0.03362119,3.144728,-0.9072883,0,48,107327,0,0
5630,2023-01-20 11:08:58.121681,172396068,0,0.11,0.01,0.07,1.28,0,0.03382209,3.144728,-0.9072883,0,48,107327,0,0
5665,2023-01-20 11:08:58.221691,172496076,0,0.13,0.01,0.08,1.32,0,0.03666824,3.144728,-0.9072883,0,48,107327,0,0
5695,2023-01-20 11:08:58.321694,172596080,0,0.13,0.01,0.11,1.12,0,0.04025606,3.144728,-0.9072883,0,48,107327,0,0
5728,2023-01-20 11:08:58.421675,172696069,0,0.09,0.01,0.09,1,0,0.04183846,3.144728,-0.9072883,0,48,107327,0,0
5760,2023-01-20 11:08:58.521661,172796090,0,0.09,0.01,0.09,1,0,0.04355547,3.144728,-0.9072883,0,48,107327,0,0
5793,2023-01-20 11:08:58.621648,172896096,0,0.05,0.01,0.11,1.08,0,0.04225308,3.144728,-0.9072883,0,48,107327,0,0
5823,2023-01-20 11:08:58.721670,172996082,0,0.05,0.01,0.12,1.14,0,0.04269814,3.144728,-0.9072883,0,48,107327,0,0
5858,2023-01-20 11:08:58.821701,173096087,0,0.08,0.01,0.12,1.33,0,0.03930958,3.144728,-0.9072883,0,48,107327,0,0
5888,2023-01-20 11:08:58.921696,173196099,0,0.08,0.01,0.13,1.44,0,0.03861865,3.144728,-0.9072883,0,48,107327,0,0
5923,2023-01-20 11:08:59.019695,173296082,0,0.18,0,0.13,1.32,0,0.03479547,3.144728,-0.9072883,0,48,107327,0,0
5955,2023-01-20 11:08:59.110593,173396083,0,0.18,0,0.14,1.22,0,0.03330176,3.144728,-0.9072883,0,48,107327,0,0
5990,2023-01-20 11:08:59.201665,173496109,0,0.18,0,0.12,1.14,0,0.03211292,3.144728,-0.9072883,0,48,107327,0,0
6020,2023-01-20 11:08:59.301649,173596090,0,0.2,0,0.12,1.25,0,0.03216742,3.144728,-0.9072883,0,48,107327,0,0
6053,2023-01-20 11:08:59.401838,173696092,0,0.2,0,0.12,1.2,0,0.0354896,3.144728,-0.9072883,0,48,107327,0,0
6084,2023-01-20 11:08:59.512945,173796083,0,0.16,0,0.11,1.33,0,0.03503035,3.144728,-0.9072883,0,48,107327,0,0
6117,2023-01-20 11:08:59.619687,173896085,0,0.11,0,0.12,1.36,0,0.0350883,3.144728,-0.9072883,0,48,107327,0,0
6147,2023-01-20 11:08:59.710580,173996073,0,0.11,0,0.13,1.29,0,0.03875852,3.144728,-0.9072883,0,48,107327,0,0
6183,2023-01-20 11:08:59.801677,174096118,0,0.11,0,0.12,1.3,0,0.04125912,3.144728,-0.9072883,0,48,107327,0,0
6213,2023-01-20 11:08:59.901607,174196077,0,0.09,0,0.11,1.32,0,0.04087732,3.144728,-0.9072883,0,48,107327,0,0
6248,2023-01-20 11:09:00.001602,174296103,0,0.09,0,0.1,1.31,0,0.0399203,3.144728,-0.9072883,0,48,107327,0,0
6278,2023-01-20 11:09:00.101506,174396081,0,0.2,0,0.09,1.25,0,0.03512268,3.144728,-0.9072883,0,48,107327,0,0
6313,2023-01-20 11:09:00.201455,174496101,0,0.2,0,0.09,1.28,0,0.03346715,3.144728,-0.9072883,0,48,107327,0,0
6343,2023-01-20 11:09:00.301482,174596077,0,0.15,0,0.09,1.31,0,0.03079277,3.144728,-0.9072883,0,48,107327,0,0
6376,2023-01-20 11:09:00.401565,174696110,0,0.15,0,0.09,1.25,0,0.03010498,3.144728,-0.9072883,0,48,107327,0,0
6410,2023-01-20 11:09:00.501498,174796097,0,0.21,0,0.09,1.28,0,0.02850716,3.144728,-0.9072883,0,48,107327,0,0
6443,2023-01-20 11:09:00.601453,174896106,0,0.21,0,0.09,1.37,0,0.02886404,3.144728,-0.9072883,0,48,107327,0,0
6473,2023-01-20 11:09:00.701460,174996080,0,0.15,0,0.09,1.43,0,0.02870047,3.144728,-0.9072883,0,48,107327,0,0
6509,2023-01-20 11:09:00.801516,175096104,0,0.15,0,0.09,1.42,0,0.02887667,3.144728,-0.9072883,0,48,107327,0,0
6539,2023-01-20 11:09:00.901477,175196089,0,0.18,0,0.1,1.45,0,0.02807167,3.144728,-0.9072883,0,48,107327,0,0
6574,2023-01-20 11:09:01.001495,175296130,0,0.18,0,0.11,1.37,0,0.0276954,3.144728,-0.9072883,0,48,107327,0,0
6604,2023-01-20 11:09:01.101535,175396094,0,0.16,0,0.13,1.35,0,0.02580199,3.144728,-0.9072883,0,48,107327,0,0
6639,2023-01-20 11:09:01.201645,175496131,0,0.16,0,0.11,1.29,0,0.02608865,3.144728,-0.9072883,0,48,107327,0,0
6669,2023-01-20 11:09:01.301523,175596077,0,0.14,0,0.1,1.26,0,0.02682374,3.144728,-0.9072883,0,48,107327,0,0
6702,2023-01-20 11:09:01.401499,175696120,0,0.14,0,0.13,1.33,0,0.02791263,3.144728,-0.9072883,0,48,107327,0,0
6734,2023-01-20 11:09:01.501437,175796085,0,0.09,0,0.11,1.31,0,0.02817798,3.144728,-0.9072883,0,48,107327,0,0
6767,2023-01-20 11:09:01.601440,175896115,0,0.09,0,0.09,1.24,0,0.02921568,3.144728,-0.9072883,0,48,107327,0,0
6798,2023-01-20 11:09:01.701401,175996071,0,0.21,0,0.09,1.38,0,0.02982006,3.144728,-0.9072883,0,48,107327,0,0
6833,2023-01-20 11:09:01.801424,176096088,0,0.21,0,0.1,1.36,0,0.0298545,3.144728,-0.9072883,0,48,107327,0,0
6863,2023-01-20 11:09:01.901423,176196083,0,0.12,0,0.11,1.46,0,0.02908013,3.144728,-0.9072883,0,48,107327,0,0
6898,2023-01-20 11:09:02.001454,176296110,0,0.12,0,0.12,1.43,0,0.02817382,3.144728,-0.9072883,0,48,107327,0,0
6928,2023-01-20 11:09:02.101428,176396072,0,0.07,0,0.11,1.4,0,0.02678207,3.144728,-0.9072883,0,48,107327,0,0
6963,2023-01-20 11:09:02.201466,176496098,0,0.07,0,0.11,1.38,0,0.02605245,3.144728,-0.9072883,0,48,107327,0,0
6993,2023-01-20 11:09:02.301454,176596082,0,0.13,0,0.13,1.44,0,0.02469513,3.144728,-0.9072883,0,48,107327,0,0
7026,2023-01-20 11:09:02.401486,176696112,0,0.13,0,0.12,1.4,0,0.02419548,3.144728,-0.9072883,0,48,107327,0,0
7058,2023-01-20 11:09:02.501407,176796082,0,0.12,0,0.1,1.51,0,0.02328287,3.144728,-0.9072883,0,48,107327,0,0
7091,2023-01-20 11:09:02.601376,176896098,0,0.12,0,0.11,1.52,0,0.02312138,3.144728,-0.9072883,0,48,107327,0,0
7121,2023-01-20 11:09:02.701395,176996072,0,0.21,0,0.09,1.49,0,0.02214922,3.144728,-0.9072883,0,48,107327,0,0
7156,2023-01-20 11:09:02.801462,177096095,0,0.21,0,0.1,1.43,0,0.02107988,3.144728,-0.9072883,0,48,107327,0,0
7186,2023-01-20 11:09:02.901450,177196088,0,0.14,0,0.09,1.59,0,0.01898755,3.144728,-0.9072883,0,48,107327,0,0
7221,2023-01-20 11:09:03.001489,177296131,0,0.14,0,0.09,1.5,0,0.01834078,3.144728,-0.9072883,0,48,107327,0,0
7251,2023-01-20 11:09:03.101441,177396095,0,0.21,0,0.09,1.51,0,0.01652714,3.144728,-0.9072883,0,48,107327,8,0
7286,2023-01-20 11:09:03.201441,177496106,0,0.21,0,0.11,1.35,0,0.01618423,3.144728,-0.9072883,0,48,107327,8,0
7316,2023-01-20 11:09:03.301418,177596087,0,0.18,0,0.1,1.22,0,0.01609527,3.144728,-0.9072883,0,48,107327,0,0
7349,2023-01-20 11:09:03.401444,177696118,0,0.18,0,0.11,1.34,0,0.01609926,3.144728,-0.9072883,0,48,107327,0,0
7381,2023-01-20 11:09:03.501422,177796095,0,0.21,0,0.11,1.29,0,0.01571333,3.144728,-0.9072883,0,48,107327,0,0
7414,2023-01-20 11:09:03.601435,177896107,0,0.21,0,0.09,1.14,0,0.01535081,3.144728,-0.9072883,0,48,107327,0,0
7445,2023-01-20 11:09:03.701428,177996087,0,0.2,0,0.08,1.17,0,0.01500353,3.144728,-0.9072883,0,48,107327,0,0
7480,2023-01-20 11:09:03.801439,178096086,0,0.2,0,0.09,1.2,0,0.01499473,3.144728,-0.9072883,0,48,107327,0,0
7510,2023-01-20 11:09:03.901412,178196072,0,0.21,0,0.09,1.18,0,0.01498805,3.144728,-0.9072883,0,48,107327,0,0
7545,2023-01-20 11:09:04.001448,178296120,0,0.21,0,0.09,1.33,0,0.01534846,3.144728,-0.9072883,0,48,107327,0,0
7575,2023-01-20 11:09:04.101391,178396072,0,0.14,0,0.1,1.41,0,0.01514659,3.144728,-0.9072883,0,48,107327,0,0
7611,2023-01-20 11:09:04.201395,178496084,0,0.14,0,0.12,1.33,0,0.01510256,3.144728,-0.9072883,0,48,107327,0,0
7641,2023-01-20 11:09:04.301415,178596080,0,0.13,0,0.12,1.34,0,0.01481588,3.144728,-0.9072883,0,48,107327,0,0
7674,2023-01-20 11:09:04.401466,178696108,0,0.13,0,0.1,1.34,0,0.01488111,3.144728,-0.9072883,0,48,107327,0,0
7706,2023-01-20 11:09:04.501419,178796077,0,0.15,0,0.1,1.4,0,0.01490516,3.144728,-0.9072883,0,48,107327,0,0
7739,2023-01-20 11:09:04.601443,178896117,0,0.15,0,0.1,1.35,0,0.01506838,3.144728,-0.9072883,0,48,107327,0,0
7769,2023-01-20 11:09:04.701423,178996072,0,0.16,0,0.1,1.41,0,0.01492284,3.144728,-0.9072883,0,48,107327,0,0
7804,2023-01-20 11:09:04.801461,179096086,0,0.16,0,0.11,1.46,0,0.01495517,3.144728,-0.9072883,0,48,107327,0,0
7834,2023-01-20 11:09:04.901417,179196079,0,0.16,0,0.11,1.46,0,0.01500016,3.144728,-0.9072883,0,48,107327,8,0
7869,2023-01-20 11:09:05.001420,179296118,0,0.16,0,0.1,1.31,0,0.01620066,3.144728,-0.9072883,0,48,107327,8,0
7899,2023-01-20 11:09:05.101397,179396072,0,0.11,0,0.09,1.26,0,0.01782021,3.144728,-0.9072883,0,48,107327,0,0
7934,2023-01-20 11:09:05.201442,179496094,0,0.11,0,0.1,1.14,0,0.0182375,3.144728,-0.9072883,0,48,107327,0,0
7964,2023-01-20 11:09:05.301434,179596072,0,0.21,0,0.11,1.22,0,0.01582355,3.144728,-0.9072883,0,48,107327,0,0
7998,2023-01-20 11:09:05.401499,179696124,0,0.21,0,0.11,1.25,0,0.01491296,3.144728,-0.9072883,0,48,107327,0,0
8032,2023-01-20 11:09:05.501438,179796119,0,0.17,0,0.11,1.19,0,0.01498328,3.144728,-0.9072883,0,48,107327,0,0
8065,2023-01-20 11:09:05.601379,179896114,0,0.17,0,0.11,1.11,0,0.015257,3.144728,-0.9072883,0,48,107327,0,0
8095,2023-01-20 11:09:05.701420,179996095,0,0.07,0,0.1,1.01,0,0.015039,3.144728,-0.9072883,0,48,107327,0,0
8130,2023-01-20 11:09:05.801478,180096094,0,0.07,0,0.1,0.98,0,0.01482767,3.144728,-0.9072883,0,48,107327,0,0
8160,2023-01-20 11:09:05.901415,180196071,0,0.08,0,0.12,0.63,0,0.01477248,3.144728,-0.9072883,0,48,107327,0,0
8195,2023-01-20 11:09:06.001418,180296113,0,0.08,0,0.12,0.71,0,0.01486063,3.144728,-0.9072883,0,48,107327,0,0
8225,2023-01-20 11:09:06.101398,180396084,0,0.12,0,0.1,0.73,0,0.01490988,3.144728,-0.9072883,0,48,107327,0,0
8260,2023-01-20 11:09:06.201419,180496096,0,0.12,0,0.1,0.64,0,0.01520024,3.144728,-0.9072883,0,48,107327,0,0
8290,2023-01-20 11:09:06.301393,180596072,0,0.17,0,0.09,0.65,0,0.01527887,3.144728,-0.9072883,0,48,107327,0,0
8323,2023-01-20 11:09:06.401425,180696107,0,0.17,0,0.1,0.57,0,0.01586475,3.144728,-0.9072883,0,48,107327,0,0
8355,2023-01-20 11:09:06.501396,180796070,0,0.12,0,0.1,0.71,0,0.01679713,3.144728,-0.9072883,0,48,107327,0,0
8388,2023-01-20 11:09:06.601442,180896108,0,0.12,0,0.11,0.82,0,0.01748107,3.144728,-0.9072883,0,48,107327,0,0
8418,2023-01-20 11:09:06.701402,180996072,0,0.18,0,0.11,0.77,0,0.01806559,3.144728,-0.9072883,0,48,107327,0,0
8453,2023-01-20 11:09:06.801415,181096089,0,0.18,0,0.11,0.73,0,0.01824615,3.144728,-0.9072883,0,48,107327,0,0
8483,2023-01-20 11:09:06.901413,181196074,0,0.14,0,0.11,0.73,0,0.01843295,3.144728,-0.9072883,0,48,107327,0,0
8518,2023-01-20 11:09:07.001460,181296109,0,0.14,0,0.1,0.63,0,0.01871733,3.144728,-0.9072883,0,48,107327,0,0
8548,2023-01-20 11:09:07.101421,181396067,0,0.09,0,0.1,0.64,0,0.0188057,3.144728,-0.9072883,0,48,107327,0,0
8583,2023-01-20 11:09:07.201456,181496100,0,0.09,0,0.07,0.82,0,0.01913279,3.144728,-0.9072883,0,48,107327,0,0
8613,2023-01-20 11:09:07.301445,181596087,0,0.08,0,0.09,1,0,0.01901132,3.144728,-0.9072883,0,48,107327,0,0
8647,2023-01-20 11:09:07.401486,181696127,0,0.08,0,0.08,1.27,0,0.01830091,3.144728,-0.9072883,0,48,107327,0,0
8679,2023-01-20 11:09:07.501444,181796097,0,0.12,0,0.09,1.26,0,0.01776707,3.144728,-0.9072883,0,48,107327,0,0
8712,2023-01-20 11:09:07.601455,181896120,0,0.12,0,0.1,1.21,0,0.01730794,3.144728,-0.9072883,0,48,107327,0,0
8742,2023-01-20 11:09:07.701441,181996085,0,0.1,0,0.1,1.21,0,0.01631994,3.144728,-0.9072883,0,48,107327,0,0
8777,2023-01-20 11:09:07.801466,182096090,0,0.1,0,0.12,1.11,0,0.01580509,3.144728,-0.9072883,0,48,107327,0,0
8807,2023-01-20 11:09:07.901447,182196083,0,0.14,0,0.11,0.96,0,0.01522963,3.144728,-0.9072883,0,48,107327,0,0
8842,2023-01-20 11:09:08.001463,182296111,0,0.14,0,0.1,1.05,0,0.01498207,3.144728,-0.9072883,0,48,107327,0,0
8872,2023-01-20 11:09:08.101411,182396077,0,0.08,0,0.09,0.98,0,0.0147574,3.144728,-0.9072883,0,48,107327,0,0
8907,2023-01-20 11:09:08.201428,182496112,0,0.08,0,0.09,0.78,0,0.01508187,3.144728,-0.9072883,0,48,107327,0,0
8937,2023-01-20 11:09:08.301411,182596072,0,0.04,0,0.12,0.8,0,0.01501209,3.144728,-0.9072883,0,48,107327,0,0
8970,2023-01-20 11:09:08.401476,182696114,0,0.04,0,0.12,0.88,0,0.01478442,3.144728,-0.9072883,0,48,107327,0,0
9002,2023-01-20 11:09:08.501407,182796077,0,0.01,0,0.11,1.03,0,0.01435603,3.144728,-0.9072883,0,48,107327,0,0
9035,2023-01-20 11:09:08.601410,182896111,0,0.01,0,0.1,0.82,0,0.01440444,3.144728,-0.9072883,0,48,107327,0,0
9065,2023-01-20 11:09:08.701413,182996081,0,0.06,0,0.11,0.94,0,0.01422945,3.144728,-0.9072883,0,48,107327,0,0
9100,2023-01-20 11:09:08.801449,183096085,0,0.06,0,0.11,0.98,0,0.01435094,3.144728,-0.9072883,0,48,107327,0,0
9132,2023-01-20 11:09:08.901434,183196083,0,0.08,0,0.1,0.78,0,0.01415957,3.144728,-0.9072883,0,48,107327,0,0
9167,2023-01-20 11:09:09.001328,183296120,0,0.08,0,0.1,0.72,0,0.01431228,3.144728,-0.9072883,0,48,107327,0,0
9197,2023-01-20 11:09:09.092374,183396067,0,0.13,0,0.08,0.82,0,0.01437041,3.144728,-0.9072883,0,48,107327,0,0
9229,2023-01-20 11:09:09.183498,183496100,0,0.13,0,0.09,0.88,0,0.0146588,3.144728,-0.9072883,0,48,107327,0,0
9263,2023-01-20 11:09:09.281855,183596081,0,0.05,0,0.1,0.75,0,0.01456776,3.144728,-0.9072883,0,48,107327,0,0
9294,2023-01-20 11:09:09.381877,183696116,0,0.05,0,0.1,0.83,0,0.01463758,3.144728,-0.9072883,0,48,107327,0,0
9328,2023-01-20 11:09:09.481846,183796083,0,0.04,0,0.1,0.72,0,0.01432152,3.144728,-0.9072883,0,48,107327,0,0
9359,2023-01-20 11:09:09.581874,183896107,0,0.04,0,0.1,0.74,0,0.01419427,3.144728,-0.9072883,0,48,107327,0,0
9392,2023-01-20 11:09:09.681851,183996067,0,0.09,0,0.1,0.87,0,0.01381652,3.144728,-0.9072883,0,48,107327,0,0
9426,2023-01-20 11:09:09.781874,184096071,0,0.09,0,0.1,0.83,0,0.01370225,3.144728,-0.9072883,0,48,107327,0,0
9458,2023-01-20 11:09:09.881870,184196082,0,0.07,0,0.11,0.85,0,0.01333385,3.144728,-0.9072883,0,48,107327,0,0
9491,2023-01-20 11:09:09.981883,184296119,0,0.07,0,0.11,0.79,0,0.01328933,3.144728,-0.9072883,0,48,107327,0,0
9523,2023-01-20 11:09:10.081833,184396077,0,0.1,0,0.12,0.84,0,0.01298343,3.144728,-0.9072883,0,48,107327,0,0
9555,2023-01-20 11:09:10.181868,184496116,0,0.1,0,0.11,0.88,0,0.01308379,3.144728,-0.9072883,0,48,107327,0,0
9588,2023-01-20 11:09:10.281826,184596075,0,0.08,0,0.12,0.81,0,0.01285003,3.144728,-0.9072883,0,48,107327,0,0
9619,2023-01-20 11:09:10.381842,184696092,0,0.08,0,0.12,0.78,0,0.01288028,3.144728,-0.9072883,0,48,107327,0,0
9653,2023-01-20 11:09:10.481742,184796083,0,0.05,0,0.12,0.62,0,0.01270189,3.144728,-0.9072883,0,48,107327,0,0
9686,2023-01-20 11:09:10.581646,184896098,0,0.05,0,0.11,0.71,0,0.01274594,3.144728,-0.9072883,0,48,107327,0,0
9718,2023-01-20 11:09:10.681649,184996067,0,0.16,0,0.11,0.81,0,0.01257648,3.144728,-0.9072883,0,48,107327,0,0
9751,2023-01-20 11:09:10.781770,185096121,0,0.16,0,0.13,0.68,0,0.0126336,3.144728,-0.9072883,0,48,107327,0,0
9783,2023-01-20 11:09:10.881716,185196074,0,0.13,0,0.13,0.57,0,0.01248163,3.144728,-0.9072883,0,48,107327,0,0
9816,2023-01-20 11:09:10.981713,185296093,0,0.13,0,0.13,0.64,0,0.01259352,3.144728,-0.9072883,0,48,107327,0,0
9849,2023-01-20 11:09:11.081682,185396072,0,0.11,0,0.14,0.54,0,0.01252566,3.144728,-0.9072883,0,48,107327,0,0
9881,2023-01-20 11:09:11.181698,185496096,0,0.11,0,0.13,0.58,0,0.01268342,3.144728,-0.9072883,0,48,107327,0,0
9914,2023-01-20 11:09:11.281667,185596077,0,0.15,0,0.12,0.58,0,0.01262004,3.144728,-0.9072883,0,48,107327,0,0
9945,2023-01-20 11:09:11.381681,185696105,0,0.15,0,0.13,0.64,0,0.01264844,3.144728,-0.9072883,0,48,107327,0,0
9978,2023-01-20 11:09:11.481650,185796074,0,0.15,0,0.14,0.79,0,0.01250963,3.144728,-0.9072883,0,48,107327,0,0
10009,2023-01-20 11:09:11.581676,185896096,0,0.15,0,0.12,0.62,0,0.01268301,3.144728,-0.9072883,0,48,107327,0,0
10041,2023-01-20 11:09:11.681665,185996068,0,0.17,0,0.12,0.58,0,0.01246932,3.144728,-0.9072883,0,48,107327,0,0
10074,2023-01-20 11:09:11.781723,186096106,0,0.17,0,0.12,0.54,0,0.01244325,3.144728,-0.9072883,0,48,107327,0,0
10106,2023-01-20 11:09:11.881695,186196078,0,0.21,0,0.12,0.58,0,0.01223415,3.144728,-0.9072883,0,48,107327,0,0
10139,2023-01-20 11:09:11.981697,186296086,0,0.21,0,0.13,0.54,0,0.01226922,3.144728,-0.9072883,0,48,107327,0,0
10171,2023-01-20 11:09:12.081661,186396076,0,0.18,0,0.13,0.55,0,0.01213629,3.144728,-0.9072883,0,48,107327,0,0
10203,2023-01-20 11:09:12.181666,186496110,0,0.18,0,0.14,0.49,0,0.01219201,3.144728,-0.9072883,0,48,107327,0,0
10236,2023-01-20 11:09:12.281644,186596067,0,0.23,0,0.14,0.64,0,0.01208744,3.144728,-0.9072883,0,48,107327,0,0
10268,2023-01-20 11:09:12.381693,186696083,0,0.23,0,0.13,0.5,0,0.01216709,3.144728,-0.9072883,0,48,107327,0,0
10302,2023-01-20 11:09:12.481684,186796087,0,0.28,0,0.14,0.66,0,0.01203848,3.144728,-0.9072883,0,48,107327,0,0
10333,2023-01-20 11:09:12.581661,186896088,0,0.28,0,0.15,0.52,0,0.0120608,3.144728,-0.9072883,0,48,107327,0,0
10365,2023-01-20 11:09:12.681662,186996068,0,0.27,0,0.14,0.42,0,0.01198526,3.144728,-0.9072883,0,48,107327,0,0
10398,2023-01-20 11:09:12.781733,187096108,0,0.27,0,0.15,0.36,0,0.01197897,3.144728,-0.9072883,0,48,107327,0,0
10430,2023-01-20 11:09:12.881701,187196075,0,0.28,0,0.15,0.29,0,0.01185035,3.144728,-0.9072883,0,48,107327,0,0
10463,2023-01-20 11:09:12.981693,187296074,0,0.28,0,0.15,0.44,0,0.01189578,3.144728,-0.9072883,0,48,107327,0,0
10495,2023-01-20 11:09:13.081693,187396081,0,0.29,0,0.14,0.57,0,0.01183492,3.144728,-0.9072883,0,48,107327,0,0
10527,2023-01-20 11:09:13.181680,187496075,0,0.29,0,0.15,0.82,0,0.01193662,3.144728,-0.9072883,0,48,107327,0,0
10560,2023-01-20 11:09:13.281682,187596068,0,0.24,0,0.15,0.73,0,0.01185059,3.144728,-0.9072883,0,48,107327,0,0
10591,2023-01-20 11:09:13.381709,187696083,0,0.24,0,0.17,0.69,0,0.01185631,3.144728,-0.9072883,0,48,107327,0,0
10625,2023-01-20 11:09:13.481678,187796074,0,0.17,0,0.19,0.67,0,0.01172623,3.144728,-0.9072883,0,48,107327,0,0
10656,2023-01-20 11:09:13.581642,187896067,0,0.17,0,0.19,0.71,0,0.01178384,3.144728,-0.9072883,0,48,107327,0,0
10688,2023-01-20 11:09:13.681668,187996078,0,0.18,0,0.2,0.68,0,0.01169802,3.144728,-0.9072883,0,48,107327,0,0
10721,2023-01-20 11:09:13.781690,188096076,0,0.18,0,0.23,0.56,0,0.01170437,3.144728,-0.9072883,0,48,107327,0,0
10753,2023-01-20 11:09:13.881692,188196070,0,0.16,0,0.23,0.56,0,0.01153446,3.144728,-0.9072883,0,48,107327,0,0
10786,2023-01-20 11:09:13.981708,188296082,0,0.16,0,0.22,0.53,0,0.01141553,3.144728,-0.9072883,0,48,107327,0,0
10818,2023-01-20 11:09:14.081689,188396071,0,0.15,0,0.23,0.45,0,0.01124288,3.144728,-0.9072883,0,48,107327,0,0
10850,2023-01-20 11:09:14.181683,188496075,0,0.15,0,0.21,0.52,0,0.01125235,3.144728,-0.9072883,0,48,107327,0,0
10883,2023-01-20 11:09:14.281693,188596080,0,0.19,0,0.21,0.47,0,0.01120849,3.144728,-0.9072883,0,48,107327,0,0
10916,2023-01-20 11:09:14.381693,188696071,0,0.19,0,0.22,0.45,0,0.01125117,3.144728,-0.9072883,0,48,107327,0,0
10950,2023-01-20 11:09:14.481674,188796074,0,0.09,0,0.2,0.31,0,0.01128235,3.144728,-0.9072883,0,48,107327,0,0
10981,2023-01-20 11:09:14.581648,188896077,0,0.09,0,0.21,0.3,0,0.01139816,3.144728,-0.9072883,0,48,107327,0,0
11013,2023-01-20 11:09:14.681663,188996072,0,0.14,0,0.19,0.27,0,0.01148369,3.144728,-0.9072883,0,48,107327,0,0
11046,2023-01-20 11:09:14.781691,189096070,0,0.14,0,0.19,0.33,0,0.01160337,3.144728,-0.9072883,0,48,107327,0,0
11078,2023-01-20 11:09:14.881700,189196090,0,0.11,0,0.17,0.29,0,0.01163699,3.144728,-0.9072883,0,48,107327,0,0
11111,2023-01-20 11:09:14.981671,189296081,0,0.11,0,0.13,0.25,0,0.01171118,3.144728,-0.9072883,0,48,107327,0,0
11143,2023-01-20 11:09:15.081665,189396070,0,0.19,0,0.17,0.33,0,0.01179602,3.144728,-0.9072883,0,48,107327,0,0
11175,2023-01-20 11:09:15.181688,189496083,0,0.19,0,0.18,0.23,0,0.01188384,3.144728,-0.9072883,0,48,107327,0,0
11208,2023-01-20 11:09:15.281694,189596072,0,0.19,0.01,0.19,0.3,0,0.01196038,3.144728,-0.9072883,0,48,107327,0,0
11242,2023-01-20 11:09:15.381713,189696072,0,0.19,0.01,0.2,0.22,0,0.01214654,3.144728,-0.9072883,0,48,107327,0,0
11276,2023-01-20 11:09:15.481697,189796091,0,0.16,0.01,0.21,0.25,0,0.01220782,3.144728,-0.9072883,0,48,107327,0,0
11309,2023-01-20 11:09:15.581637,189896078,0,0.16,0.01,0.18,0.15,0,0.0124481,3.144728,-0.9072883,0,48,107327,0,0
11341,2023-01-20 11:09:15.681658,189996072,0,0.2,0.01,0.18,0.23,0,0.01248779,3.144728,-0.9072883,0,48,107327,0,0
11374,2023-01-20 11:09:15.781712,190096081,0,0.2,0.01,0.17,0.21,0,0.01258615,3.144728,-0.9072883,0,48,107327,0,0
11406,2023-01-20 11:09:15.881710,190196071,0,0.12,0.01,0.19,0.23,0,0.01269801,3.144728,-0.9072883,0,48,107327,0,0
11439,2023-01-20 11:09:15.981721,190296082,0,0.12,0.01,0.17,0.26,0,0.01290006,3.144728,-0.9072883,0,48,107327,0,0
11471,2023-01-20 11:09:16.081723,190396087,0,0.19,0.01,0.17,0.32,0,0.01301678,3.144728,-0.9072883,0,48,107327,0,0
11503,2023-01-20 11:09:16.181708,190496075,0,0.19,0.01,0.18,0.29,0,0.01317535,3.144728,-0.9072883,0,48,107327,0,0
11536,2023-01-20 11:09:16.281705,190596072,0,0.16,0.01,0.16,0.28,0,0.01330796,3.144728,-0.9072883,0,48,107327,0,0
11567,2023-01-20 11:09:16.381706,190696071,0,0.16,0.01,0.16,0.27,0,0.01352703,3.144728,-0.9072883,0,48,107327,0,0
11601,2023-01-20 11:09:16.481691,190796070,0,0.21,0.01,0.16,0.4,0,0.01364595,3.144728,-0.9072883,0,48,107327,0,0
11632,2023-01-20 11:09:16.581676,190896073,0,0.21,0.01,0.18,0.19,0,0.01382808,3.144728,-0.9072883,0,48,107327,0,0
11664,2023-01-20 11:09:16.681684,190996072,0,0.17,0.01,0.16,0.16,0,0.01398801,3.144728,-0.9072883,0,48,107327,0,0
11697,2023-01-20 11:09:16.781713,191096087,0,0.17,0.01,0.16,0.24,0,0.0143161,3.144728,-0.9072883,0,48,107327,0,0
11729,2023-01-20 11:09:16.881707,191196074,0,0.18,0,0.17,0.27,0,0.01435089,3.144728,-0.9072883,0,48,107327,0,0
11762,2023-01-20 11:09:16.981712,191296074,0,0.18,0,0.18,0.37,0,0.01449459,3.144728,-0.9072883,0,48,107327,0,0
11794,2023-01-20 11:09:17.081707,191396071,0,0.25,0,0.2,0.43,0,0.01455763,3.144728,-0.9072883,0,48,107327,0,0
11826,2023-01-20 11:09:17.181705,191496072,0,0.25,0,0.18,0.51,0,0.01478668,3.144728,-0.9072883,0,48,107327,0,0
11859,2023-01-20 11:09:17.281708,191596071,0,0.25,0,0.17,0.67,0,0.01513749,3.144728,-0.9072883,0,48,107327,0,0
11890,2023-01-20 11:09:17.381722,191696078,0,0.25,0,0.16,0.7,0,0.01567536,3.144728,-0.9072883,0,48,107327,0,0
11924,2023-01-20 11:09:17.481702,191796084,0,0.3,0.01,0.16,0.74,0,0.01601181,3.144728,-0.9072883,0,48,107327,0,0
11955,2023-01-20 11:09:17.581656,191896072,0,0.3,0.01,0.13,0.89,0,0.01615778,3.144728,-0.9072883,0,48,107327,0,0
11987,2023-01-20 11:09:17.681676,191996071,0,0.24,0.01,0.14,0.88,0,0.01624458,3.144728,-0.9072883,0,48,107327,0,0
12020,2023-01-20 11:09:17.781714,192096075,0,0.24,0.01,0.15,0.89,0,0.0163251,3.144728,-0.9072883,0,48,107327,0,0
12052,2023-01-20 11:09:17.881715,192196073,0,0.3,0.02,0.15,0.89,0,0.01634833,3.144728,-0.9072883,0,48,107327,0,0
12085,2023-01-20 11:09:17.981717,192296079,0,0.3,0.02,0.15,0.9,0,0.0167198,3.144728,-0.9072883,0,48,107327,0,0
12118,2023-01-20 11:09:18.081701,192396080,0,0.37,0.02,0.16,0.83,0,0.01696678,3.144728,-0.9072883,0,48,107327,0,0
12150,2023-01-20 11:09:18.181679,192496077,0,0.37,0.02,0.16,0.79,0,0.01731113,3.144728,-0.9072883,0,48,107327,0,0
12183,2023-01-20 11:09:18.274343,192596070,0,0.46,0.03,0.18,0.84,0,0.01697635,3.144728,-0.9072883,0,48,107327,0,0
12214,2023-01-20 11:09:18.365381,192696079,0,0.46,0.03,0.18,0.76,0,0.01719608,3.144728,-0.9072883,0,48,107327,0,0
12248,2023-01-20 11:09:18.461918,192796071,0,0.43,0.04,0.18,0.83,0,0.01685726,3.144728,-0.9072883,0,48,107327,0,0
12279,2023-01-20 11:09:18.561848,192896071,0,0.43,0.04,0.21,0.83,0,0.01670631,3.144728,-0.9072883,0,48,107327,0,0
12312,2023-01-20 11:09:18.661821,192996071,0,0.4,0.04,0.22,0.9,0,0.01639604,3.144728,-0.9072883,0,48,107327,0,0
12345,2023-01-20 11:09:18.761825,193096074,0,0.4,0.04,0.21,1.02,0,0.01674547,3.144728,-0.9072883,0,48,107327,0,0
12377,2023-01-20 11:09:18.861809,193196092,0,0.44,0.04,0.2,0.87,0,0.01625696,3.144728,-0.9072883,0,48,107327,0,0
12410,2023-01-20 11:09:18.961737,193296076,0,0.44,0.04,0.22,0.93,0,0.01645675,3.144728,-0.9072883,0,48,107327,0,0
12442,2023-01-20 11:09:19.061722,193396068,0,0.6,0.05,0.22,0.77,0,0.01614546,3.144728,-0.9072883,0,48,107327,0,0
12474,2023-01-20 11:09:19.161751,193496074,0,0.6,0.05,0.24,0.72,0,0.0161262,3.144728,-0.9072883,0,48,107327,0,0
12507,2023-01-20 11:09:19.261823,193596077,0,0.52,0.05,0.26,0.56,0,0.01586642,3.144728,-0.9072883,0,48,107327,0,0
12539,2023-01-20 11:09:19.361931,193696087,0,0.52,0.05,0.27,0.64,0,0.01600281,3.144728,-0.9072883,0,48,107327,0,0
12574,2023-01-20 11:09:19.461859,193796072,0,0.37,0.05,0.23,0.63,0,0.01568357,3.144728,-0.9072883,0,48,107327,0,0
12605,2023-01-20 11:09:19.561710,193896076,0,0.37,0.05,0.21,0.51,0,0.0156911,3.144728,-0.9072883,0,48,107327,0,0
12638,2023-01-20 11:09:19.661668,193996072,0,0.5,0.05,0.21,0.47,0,0.01507017,3.144728,-0.9072883,0,48,107327,0,0
12672,2023-01-20 11:09:19.761703,194096072,0,0.5,0.05,0.19,0.47,0,0.0148502,3.144728,-0.9072883,0,48,107327,0,0
12704,2023-01-20 11:09:19.861708,194196071,0,0.24,0.04,0.23,0.52,0,0.01410579,3.144728,-0.9072883,0,48,107327,0,0
12737,2023-01-20 11:09:19.961701,194296074,0,0.24,0.04,0.25,0.5,0,0.01382405,3.144728,-0.9072883,0,48,107327,0,0
12770,2023-01-20 11:09:20.061706,194396076,0,0.23,0.04,0.26,0.42,0,0.01315599,3.144728,-0.9072883,0,48,107327,0,0
12802,2023-01-20 11:09:20.161720,194496077,0,0.23,0.04,0.25,0.45,0,0.01294567,3.144728,-0.9072883,0,48,107327,0,0
12834,2023-01-20 11:09:20.261712,194596071,0,0.31,0.04,0.23,0.49,0,0.01248511,3.144728,-0.9072883,0,48,107327,0,0
12866,2023-01-20 11:09:20.361708,194696077,0,0.31,0.04,0.24,0.5,0,0.01243344,3.144728,-0.9072883,0,48,107327,0,0
12900,2023-01-20 11:09:20.461686,194796073,0,0.4,0.04,0.25,0.73,0,0.011933,3.144728,-0.9072883,0,48,107327,0,0
12933,2023-01-20 11:09:20.561663,194896072,0,0.4,0.04,0.22,0.49,0,0.01161763,3.144728,-0.9072883,0,48,107327,0,0
12966,2023-01-20 11:09:20.661683,194996088,0,0.53,0.04,0.22,0.52,0,0.01133824,3.144728,-0.9072883,0,48,107327,0,0
12999,2023-01-20 11:09:20.761687,195096070,0,0.53,0.04,0.24,0.44,0,0.01147785,3.144728,-0.9072883,0,48,107327,0,0
13031,2023-01-20 11:09:20.861702,195196079,0,0.5,0.04,0.22,0.42,0,0.01120095,3.144728,-0.9072883,0,48,107327,0,0
13064,2023-01-20 11:09:20.961705,195296084,0,0.5,0.04,0.21,0.44,0,0.01101887,3.144728,-0.9072883,0,48,107327,0,0
13097,2023-01-20 11:09:21.061692,195396071,0,0.39,0.04,0.21,0.45,0,0.0105774,3.144728,-0.9072883,0,48,107327,0,0
13128,2023-01-20 11:09:21.161697,195496074,0,0.39,0.04,0.19,0.41,0,0.01036783,3.144728,-0.9072883,0,48,107327,0,0
13162,2023-01-20 11:09:21.261705,195596081,0,0.39,0.04,0.18,0.39,0,0.01002419,3.144728,-0.9072883,0,48,107327,0,0
13194,2023-01-20 11:09:21.361696,195696072,0,0.39,0.04,0.14,0.42,0,0.01001959,3.144728,-0.9072883,0,48,107327,0,0
13228,2023-01-20 11:09:21.461698,195796102,0,0.38,0.04,0.14,0.4,0,0.00989849,3.144728,-0.9072883,0,48,107327,0,0
13259,2023-01-20 11:09:21.561641,195896091,0,0.38,0.04,0.14,0.38,0,0.009955594,3.144728,-0.9072883,0,48,107327,0,0
13292,2023-01-20 11:09:21.661631,195996068,0,0.47,0.05,0.15,0.35,0,0.009918494,3.144728,-0.9072883,0,48,107327,0,0
13325,2023-01-20 11:09:21.761686,196096072,0,0.47,0.05,0.14,0.4,0,0.009982602,3.144728,-0.9072883,0,48,107327,0,0
13357,2023-01-20 11:09:21.861711,196196080,0,0.43,0.05,0.12,0.35,0,0.009909158,3.144728,-0.9072883,0,48,107327,0,0
13390,2023-01-20 11:09:21.961700,196296073,0,0.43,0.05,0.13,0.38,0,0.009929952,3.144728,-0.9072883,0,48,107327,0,0
13423,2023-01-20 11:09:22.061693,196396080,0,0.35,0.04,0.15,0.36,0,0.009902023,3.144728,-0.9072883,0,48,107327,0,0
13454,2023-01-20 11:09:22.161677,196496085,0,0.35,0.04,0.13,0.36,0,0.01001543,3.144728,-0.9072883,0,48,107327,0,0
13488,2023-01-20 11:09:22.261667,196596071,0,0.14,0.04,0.14,0.39,0,0.01002906,3.144728,-0.9072883,0,48,107327,0,0
13520,2023-01-20 11:09:22.361688,196696072,0,0.14,0.04,0.15,0.36,0,0.01018072,3.144728,-0.9072883,0,48,107327,0,0
13554,2023-01-20 11:09:22.461691,196796083,0,0.28,0.04,0.14,0.51,0,0.01030735,3.144728,-0.9072883,0,48,107327,0,0
13585,2023-01-20 11:09:22.561657,196896074,0,0.28,0.04,0.13,0.54,0,0.01043253,3.144728,-0.9072883,0,48,107327,0,0
13618,2023-01-20 11:09:22.661656,196996067,0,0.28,0.04,0.13,0.55,0,0.01049502,3.144728,-0.9072883,0,48,107327,0,0
13651,2023-01-20 11:09:22.761694,197096081,0,0.28,0.04,0.13,0.54,0,0.01051596,3.144728,-0.9072883,0,48,107327,0,0
13683,2023-01-20 11:09:22.861695,197196071,0,0.23,0.04,0.14,0.5,0,0.01049702,3.144728,-0.9072883,0,48,107327,0,0
13716,2023-01-20 11:09:22.961698,197296071,0,0.23,0.04,0.13,0.61,0,0.01058046,3.144728,-0.9072883,0,48,107327,0,0
13749,2023-01-20 11:09:23.061711,197396081,0,0.24,0.04,0.13,0.43,0,0.01056246,3.144728,-0.9072883,0,48,107327,0,0
13780,2023-01-20 11:09:23.161708,197496075,0,0.24,0.04,0.14,0.33,0,0.0108189,3.144728,-0.9072883,0,48,107327,0,0
13814,2023-01-20 11:09:23.261696,197596067,0,0.23,0.04,0.17,0.76,0,0.01092394,3.144728,-0.9072883,0,48,107327,0,0
13846,2023-01-20 11:09:23.361701,197696081,0,0.23,0.04,0.17,0.92,0,0.01089332,3.144728,-0.9072883,0,48,107327,0,0
13880,2023-01-20 11:09:23.461685,197796077,0,0.15,0.04,0.16,0.76,0,0.01072439,3.144728,-0.9072883,0,48,107327,0,0
13911,2023-01-20 11:09:23.561682,197896087,0,0.15,0.04,0.16,0.53,0,0.01072041,3.144728,-0.9072883,0,48,107327,0,0
13944,2023-01-20 11:09:23.661678,197996074,0,0.19,0.04,0.14,0.55,0,0.01068343,3.144728,-0.9072883,0,48,107327,0,0
13977,2023-01-20 11:09:23.761700,198096073,0,0.19,0.04,0.14,0.3,0,0.01088785,3.144728,-0.9072883,0,48,107327,0,0
14009,2023-01-20 11:09:23.861703,198196071,0,0.21,0.05,0.16,0.37,0,0.0110546,3.144728,-0.9072883,0,48,107327,0,0
14042,2023-01-20 11:09:23.961705,198296080,0,0.21,0.05,0.14,0.45,0,0.01113748,3.144728,-0.9072883,0,48,107327,0,0
14075,2023-01-20 11:09:24.061682,198396071,0,0.07,0.04,0.15,0.43,0,0.01112198,3.144728,-0.9072883,0,48,107327,0,0
14106,2023-01-20 11:09:24.161675,198496084,0,0.07,0.04,0.16,0.24,0,0.01114795,3.144728,-0.9072883,0,48,107327,0,0
14140,2023-01-20 11:09:24.261675,198596075,0,0.13,0.05,0.16,0.31,0,0.01119363,3.144728,-0.9072883,0,48,107327,0,0
14172,2023-01-20 11:09:24.361698,198696071,0,0.13,0.05,0.16,0.38,0,0.01132793,3.144728,-0.9072883,0,48,107327,0,0
14206,2023-01-20 11:09:24.461694,198796075,0,0.21,0.04,0.15,0.36,0,0.01128366,3.144728,-0.9072883,0,48,107327,0,0
14238,2023-01-20 11:09:24.561657,198896067,0,0.21,0.04,0.17,0.29,0,0.01136802,3.144728,-0.9072883,0,48,107327,0,0
14271,2023-01-20 11:09:24.661654,198996072,0,0.15,0.04,0.13,0.27,0,0.01136285,3.144728,-0.9072883,0,48,107327,0,0
14304,2023-01-20 11:09:24.761668,199096080,0,0.15,0.04,0.13,0.36,0,0.01151557,3.144728,-0.9072883,0,48,107327,0,0
14336,2023-01-20 11:09:24.861669,199196067,0,0.18,0.05,0.11,0.21,0,0.01145742,3.144728,-0.9072883,0,48,107327,0,0
14369,2023-01-20 11:09:24.961691,199296070,0,0.18,0.05,0.1,0.21,0,0.01144358,3.144728,-0.9072883,0,48,107327,0,0
14402,2023-01-20 11:09:25.061700,199396072,0,0.23,0.04,0.09,0.18,0,0.01134969,3.144728,-0.9072883,0,48,107327,0,0
14433,2023-01-20 11:09:25.161720,199496091,0,0.23,0.04,0.08,0.2,0,0.0113707,3.144728,-0.9072883,0,48,107327,0,0
14467,2023-01-20 11:09:25.261706,199596071,0,0.06,0.04,0.07,0.22,0,0.01119269,3.144728,-0.9072883,0,48,107327,0,0
14499,2023-01-20 11:09:25.361727,199696083,0,0.06,0.04,0.07,0.21,0,0.01117263,3.144728,-0.9072883,0,48,107327,0,0
14533,2023-01-20 11:09:25.461708,199796082,0,0.06,0.04,0.05,0.21,0,0.01113302,3.144728,-0.9072883,0,48,107327,0,0
14566,2023-01-20 11:09:25.561656,199896067,0,0.06,0.04,0.05,0.18,0,0.01113191,3.144728,-0.9072883,0,48,107327,0,0
14599,2023-01-20 11:09:25.661662,199996071,0,0.24,0.04,0.09,0.22,0,0.01112494,3.144728,-0.9072883,0,48,107327,0,0
14632,2023-01-20 11:09:25.761688,200096071,0,0.24,0.04,0.07,0.14,0,0.01116268,3.144728,-0.9072883,0,48,107327,0,0
14664,2023-01-20 11:09:25.861698,200196068,0,0.07,0.04,0.07,0.16,0,0.01111177,3.144728,-0.9072883,0,48,107327,0,0
14697,2023-01-20 11:09:25.961710,200296074,0,0.07,0.04,0.03,0.31,0,0.01118248,3.144728,-0.9072883,0,48,107327,0,0
14730,2023-01-20 11:09:26.061694,200396072,0,0.16,0.04,0.04,0.25,0,0.01119418,3.144728,-0.9072883,0,48,107327,0,0
14761,2023-01-20 11:09:26.161669,200496073,0,0.16,0.04,0.04,0.11,0,0.01122117,3.144728,-0.9072883,0,48,107327,0,0
14795,2023-01-20 11:09:26.261672,200596070,0,0.09,0.04,0.06,0.17,0,0.0112276,3.144728,-0.9072883,0,48,107327,0,0
14827,2023-01-20 11:09:26.361701,200696074,0,0.09,0.04,0.05,0.15,0,0.01128939,3.144728,-0.9072883,0,48,107327,0,0
14861,2023-01-20 11:09:26.461693,200796074,0,0.12,0.04,0.05,0.4,0,0.01123852,3.144728,-0.9072883,0,48,107327,0,0
14892,2023-01-20 11:09:26.561671,200896083,0,0.12,0.04,0.08,0.34,0,0.01135684,3.144728,-0.9072883,0,48,107327,0,0
14925,2023-01-20 11:09:26.661651,200996072,0,0.15,0.04,0.08,0.28,0,0.01133629,3.144728,-0.9072883,0,48,107327,0,0
14958,2023-01-20 11:09:26.761662,201096080,0,0.15,0.04,0.11,0.28,0,0.01143826,3.144728,-0.9072883,0,48,107327,0,0
14990,2023-01-20 11:09:26.861679,201196077,0,0.25,0.04,0.08,0.48,0,0.01147582,3.144728,-0.9072883,0,48,107327,0,0
15023,2023-01-20 11:09:26.961711,201296078,0,0.25,0.04,0.1,0.46,0,0.01152132,3.144728,-0.9072883,0,48,107327,0,0
15056,2023-01-20 11:09:27.061710,201396071,0,0.15,0.04,0.09,0.51,0,0.01146113,3.144728,-0.9072883,0,48,107327,0,0
15087,2023-01-20 11:09:27.161715,201496085,0,0.15,0.04,0.06,0.57,0,0.01147171,3.144728,-0.9072883,0,48,107327,0,0
15121,2023-01-20 11:09:27.261690,201596071,0,0.14,0.04,0.04,0.44,0,0.01140915,3.144728,-0.9072883,0,48,107327,0,0
15153,2023-01-20 11:09:27.361683,201696075,0,0.14,0.04,0.05,0.29,0,0.01141121,3.144728,-0.9072883,0,48,107327,0,0
15187,2023-01-20 11:09:27.461700,201796091,0,0.11,0.04,0.07,0.08,0,0.01137948,3.144728,-0.9072883,0,48,107327,0,0
15218,2023-01-20 11:09:27.561692,201896074,0,0.11,0.04,0.05,0.07,0,0.01150507,3.144728,-0.9072883,0,48,107327,0,0
15251,2023-01-20 11:09:27.661702,201996077,0,0.08,0.03,0.05,0.1,0,0.01160274,3.144728,-0.9072883,0,48,107327,0,0
15284,2023-01-20 11:09:27.761716,202096085,0,0.08,0.03,0.07,0.09,0,0.01178071,3.144728,-0.9072883,0,48,107327,0,0
15316,2023-01-20 11:09:27.861724,202196091,0,0.21,0.04,0.05,0.08,0,0.01180877,3.144728,-0.9072883,0,48,107327,0,0
15350,2023-01-20 11:09:27.961723,202296090,0,0.21,0.04,0.06,0.07,0,0.01187937,3.144728,-0.9072883,0,48,107327,0,0
15382,2023-01-20 11:09:28.061726,202396089,0,0.05,0.03,0.05,0.19,0,0.01187419,3.144728,-0.9072883,0,48,107327,0,0
15413,2023-01-20 11:09:28.161716,202496073,0,0.05,0.03,0.03,0.05,0,0.01192278,3.144728,-0.9072883,0,48,107327,0,0
15447,2023-01-20 11:09:28.261714,202596072,0,0.08,0.03,0.02,0.06,0,0.01182066,3.144728,-0.9072883,0,48,107327,0,0
15479,2023-01-20 11:09:28.361719,202696083,0,0.08,0.03,0,0.32,0,0.0117781,3.144728,-0.9072883,0,48,107327,0,0
15513,2023-01-20 11:09:28.456124,202796090,0,0.06,0.03,0,0.53,0,0.01171838,3.144728,-0.9072883,0,48,107327,0,0
15544,2023-01-20 11:09:28.547036,202896074,0,0.06,0.03,0.06,0.41,0,0.011858,3.144728,-0.9072883,0,48,107327,0,0
15577,2023-01-20 11:09:28.641755,202996077,0,0.07,0.03,0.03,0.23,0,0.01179852,3.144728,-0.9072883,0,48,107327,0,0
15610,2023-01-20 11:09:28.741749,203096070,0,0.07,0.03,0.03,0.5,0,0.01179017,3.144728,-0.9072883,0,48,107327,0,0
15642,2023-01-20 11:09:28.841750,203196071,0,0.18,0.03,0.04,0.38,0,0.01192664,3.144728,-0.9072883,0,48,107327,0,0
15676,2023-01-20 11:09:28.941761,203296083,0,0.18,0.03,0.06,0.06,0,0.01207937,3.144728,-0.9072883,0,48,107327,0,0
15708,2023-01-20 11:09:29.041750,203396071,0,0.21,0.03,0.05,0.08,0,0.01203482,3.144728,-0.9072883,0,48,107327,0,0
15739,2023-01-20 11:09:29.141762,203496076,0,0.21,0.03,0.04,0.14,0,0.01204123,3.144728,-0.9072883,0,48,107327,0,0
15773,2023-01-20 11:09:29.241751,203596072,0,0.14,0.03,0.03,0.1,0,0.01195176,3.144728,-0.9072883,0,48,107327,0,0
15805,2023-01-20 11:09:29.341729,203696075,0,0.14,0.03,0.02,0.04,0,0.01199635,3.144728,-0.9072883,0,48,107327,0,0
15839,2023-01-20 11:09:29.441703,203796070,0,0.23,0.03,0.02,0.09,0,0.01197698,3.144728,-0.9072883,0,48,107327,0,0
15870,2023-01-20 11:09:29.541696,203896078,0,0.23,0.03,0.01,0.15,0,0.01201846,3.144728,-0.9072883,0,48,107327,0,0
15904,2023-01-20 11:09:29.641726,203996071,0,0.06,0.03,0.01,0.1,0,0.01188788,3.144728,-0.9072883,0,48,107327,0,0
15938,2023-01-20 11:09:29.741863,204096097,0,0.06,0.03,0.01,0.07,0,0.01190439,3.144728,-0.9072883,0,48,107327,0,0
15970,2023-01-20 11:09:29.841872,204196071,0,0.17,0.03,0,0.15,0,0.01185466,3.144728,-0.9072883,0,48,107327,0,0
16004,2023-01-20 11:09:29.941819,204296088,0,0.17,0.03,0.02,0.2,0,0.01198014,3.144728,-0.9072883,0,48,107327,0,0
16036,2023-01-20 11:09:30.041755,204396084,0,0.08,0.03,0.02,0.44,0,0.01186126,3.144728,-0.9072883,0,48,107327,0,0
16067,2023-01-20 11:09:30.141712,204496086,0,0.08,0.03,0.03,0.28,0,0.01188213,3.144728,-0.9072883,0,48,107327,0,0
16101,2023-01-20 11:09:30.241678,204596072,0,0.06,0.03,0.01,0.19,0,0.01175694,3.144728,-0.9072883,0,48,107327,0,0
16133,2023-01-20 11:09:30.341706,204696084,0,0.06,0.03,0.01,0.18,0,0.01187101,3.144728,-0.9072883,0,48,107327,0,0
16167,2023-01-20 11:09:30.441694,204796071,0,0.3,0.03,0.02,0.23,0,0.01185084,3.144728,-0.9072883,0,48,107327,0,0
16200,2023-01-20 11:09:30.541685,204896080,0,0.3,0.03,0.01,0.25,0,0.01193481,3.144728,-0.9072883,0,48,107327,0,0
16233,2023-01-20 11:09:30.641673,204996081,0,0.23,0.03,0.03,0.24,0,0.01186652,3.144728,-0.9072883,0,48,107327,0,0
16266,2023-01-20 11:09:30.741665,205096079,0,0.23,0.03,0.04,0.21,0,0.01192554,3.144728,-0.9072883,0,48,107327,0,0
16298,2023-01-20 11:09:30.841669,205196071,0,0.1,0.03,0.06,0.43,0,0.01182933,3.144728,-0.9072883,0,48,107327,0,0
16375,2023-01-20 11:09:30.941724,205296091,0,0.1,0.03,0.04,0.28,0,0.01187649,3.144728,-0.9072883,0,48,107327,0,0
16407,2023-01-20 11:09:31.041717,205396067,0,0.22,0.03,0.05,0.44,0,0.01179677,3.144728,-0.9072883,0,48,107327,0,0
16438,2023-01-20 11:09:31.141721,205496077,0,0.22,0.03,0.04,0.36,0,0.01189509,3.144728,-0.9072883,0,48,107327,0,0
16472,2023-01-20 11:09:31.241731,205596094,0,0.08,0.03,0.03,0.33,0,0.01185588,3.144728,-0.9072883,0,48,107327,0,0
16504,2023-01-20 11:09:31.341720,205696091,0,0.08,0.03,0.03,0.33,0,0.01189526,3.144728,-0.9072883,0,48,107327,0,0
16537,2023-01-20 11:09:31.441696,205796078,0,0.13,0.03,0.03,0.29,0,0.01182402,3.144728,-0.9072883,0,48,107327,0,0
16568,2023-01-20 11:09:31.541686,205896084,0,0.13,0.03,0.01,0.2,0,0.01191091,3.144728,-0.9072883,0,48,107327,0,0
16601,2023-01-20 11:09:31.641667,205996067,0,0.09,0.03,0.05,0.25,0,0.0118487,3.144728,-0.9072883,0,48,107327,0,0
16634,2023-01-20 11:09:31.741692,206096072,0,0.09,0.03,0.03,0.25,0,0.01208795,3.144728,-0.9072883,0,48,107327,0,0
16666,2023-01-20 11:09:31.841718,206196085,0,0.14,0.02,0.06,0.34,0,0.01210752,3.144728,-0.9072883,0,48,107327,0,0
16700,2023-01-20 11:09:31.941715,206296079,0,0.14,0.02,0.06,0.39,0,0.01221246,3.144728,-0.9072883,0,48,107327,0,0
16732,2023-01-20 11:09:32.041709,206396071,0,0.35,0.02,0.04,0.35,0,0.01202575,3.144728,-0.9072883,0,48,107327,0,0
16763,2023-01-20 11:09:32.141729,206496090,0,0.35,0.02,0.06,0.18,0,0.01206007,3.144728,-0.9072883,0,48,107327,0,0
16797,2023-01-20 11:09:32.241714,206596077,0,0.11,0.02,0.04,0.2,0,0.01210131,3.144728,-0.9072883,0,48,107327,0,0
16829,2023-01-20 11:09:32.341707,206696076,0,0.11,0.02,0.03,0.16,0,0.01242913,3.144728,-0.9072883,0,48,107327,0,0
16863,2023-01-20 11:09:32.441709,206796090,0,0.07,0.02,0.04,0.25,0,0.01248219,3.144728,-0.9072883,0,48,107327,0,0
16894,2023-01-20 11:09:32.541674,206896075,0,0.07,0.02,0.06,0.45,0,0.01248011,3.144728,-0.9072883,0,48,107327,0,0
16927,2023-01-20 11:09:32.641653,206996067,0,0.1,0.02,0.06,0.37,0,0.01220891,3.144728,-0.9072883,0,48,107327,0,0
16960,2023-01-20 11:09:32.741663,207096080,0,0.1,0.02,0.07,0.25,0,0.01211252,3.144728,-0.9072883,0,48,107327,0,0
16992,2023-01-20 11:09:32.841674,207196080,0,0.07,0.01,0.06,0.24,0,0.01200988,3.144728,-0.9072883,0,48,107327,0,0
17026,2023-01-20 11:09:32.941697,207296073,0,0.07,0.01,0.07,0.21,0,0.01205307,3.144728,-0.9072883,0,48,107327,0,0
17058,2023-01-20 11:09:33.041721,207396080,0,0.08,0.01,0.07,0.33,0,0.01198708,3.144728,-0.9072883,0,48,107327,0,0
17089,2023-01-20 11:09:33.141719,207496077,0,0.08,0.01,0.07,0.13,0,0.01205837,3.144728,-0.9072883,0,48,107327,0,0
17123,2023-01-20 11:09:33.241700,207596071,0,0.07,0.01,0.08,0.22,0,0.01215384,3.144728,-0.9072883,0,48,107327,0,0
17155,2023-01-20 11:09:33.341682,207696085,0,0.07,0.01,0.05,0.33,0,0.012194,3.144728,-0.9072883,0,48,107327,0,0
17189,2023-01-20 11:09:33.441692,207796113,0,0.04,0.01,0.07,0.36,0,0.01197959,3.144728,-0.9072883,0,48,107327,0,0
17220,2023-01-20 11:09:33.541655,207896074,0,0.04,0.01,0.06,0.25,0,0.01192356,3.144728,-0.9072883,0,48,107327,0,0
17253,2023-01-20 11:09:33.641674,207996083,0,0.12,0.01,0.05,0.31,0,0.01180804,3.144728,-0.9072883,0,48,107327,0,0
17286,2023-01-20 11:09:33.741694,208096080,0,0.12,0.01,0.05,0.3,0,0.01183429,3.144728,-0.9072883,0,48,107327,0,0
17318,2023-01-20 11:09:33.841701,208196071,0,0.23,0.01,0.06,0.26,0,0.0117138,3.144728,-0.9072883,0,48,107327,0,0
17352,2023-01-20 11:09:33.941718,208296081,0,0.23,0.01,0.05,0.13,0,0.01177085,3.144728,-0.9072883,0,48,107327,0,0
17384,2023-01-20 11:09:34.041721,208396079,0,0.13,0.01,0.05,0.22,0,0.01170698,3.144728,-0.9072883,0,48,107327,0,0
17415,2023-01-20 11:09:34.141734,208496089,0,0.13,0.01,0.04,0.23,0,0.01170915,3.144728,-0.9072883,0,48,107327,0,0
17449,2023-01-20 11:09:34.241726,208596081,0,0.13,0.01,0.04,0.2,0,0.01152251,3.144728,-0.9072883,0,48,107327,0,0
17481,2023-01-20 11:09:34.341719,208696075,0,0.13,0.01,0.05,0.3,0,0.01149733,3.144728,-0.9072883,0,48,107327,0,0
17515,2023-01-20 11:09:34.441733,208796100,0,0.16,0.01,0.05,0.16,0,0.011396,3.144728,-0.9072883,0,48,107327,0,0
17546,2023-01-20 11:09:34.541692,208896083,0,0.16,0.01,0.04,0.16,0,0.01141137,3.144728,-0.9072883,0,48,107327,0,0
17579,2023-01-20 11:09:34.641683,208996080,0,0.19,0.01,0.02,0.12,0,0.01136285,3.144728,-0.9072883,0,48,107327,0,0
17613,2023-01-20 11:09:34.741696,209096074,0,0.19,0.01,0.03,0.14,0,0.011406,3.144728,-0.9072883,0,48,107327,0,0
17645,2023-01-20 11:09:34.841714,209196079,0,0.19,0.01,0.01,0.18,0,0.0113208,3.144728,-0.9072883,0,48,107327,0,0
17679,2023-01-20 11:09:34.941713,209296074,0,0.19,0.01,0.02,0.14,0,0.01138551,3.144728,-0.9072883,0,48,107327,0,0
17711,2023-01-20 11:09:35.041716,209396074,0,0.14,0.01,0.02,0.23,0,0.01127783,3.144728,-0.9072883,0,48,107327,0,0
17742,2023-01-20 11:09:35.141735,209496094,0,0.14,0.01,0.02,0.11,0,0.01128732,3.144728,-0.9072883,0,48,107327,0,0
17776,2023-01-20 11:09:35.241696,209596068,0,0.17,0.01,0.02,0.16,0,0.01122272,3.144728,-0.9072883,0,48,107327,0,0
17808,2023-01-20 11:09:35.341680,209696082,0,0.17,0.01,0.01,0.05,0,0.01133777,3.144728,-0.9072883,0,48,107327,0,0
17842,2023-01-20 11:09:35.441687,209796100,0,0.19,0.01,0,0.1,0,0.01124763,3.144728,-0.9072883,0,48,107327,0,0
17875,2023-01-20 11:09:35.541681,209896076,0,0.19,0.01,0.01,0.23,0,0.01124915,3.144728,-0.9072883,0,48,107327,0,0
17908,2023-01-20 11:09:35.641696,209996078,0,0.16,0.01,0.02,0.29,0,0.01115556,3.144728,-0.9072883,0,48,107327,0,0
17941,2023-01-20 11:09:35.741724,210096097,0,0.16,0.01,0.01,0.29,0,0.01116802,3.144728,-0.9072883,0,48,107327,0,0
17973,2023-01-20 11:09:35.841697,210196072,0,0.18,0.01,0.01,0.16,0,0.01108824,3.144728,-0.9072883,0,48,107327,0,0
18007,2023-01-20 11:09:35.941681,210296071,0,0.18,0.01,0.02,0.18,0,0.01120422,3.144728,-0.9072883,0,48,107327,0,0
18039,2023-01-20 11:09:36.041685,210396074,0,0.08,0.01,0.01,0.21,0,0.01113273,3.144728,-0.9072883,0,48,107327,0,0
18070,2023-01-20 11:09:36.141712,210496078,0,0.08,0.01,0.01,0.35,0,0.01118602,3.144728,-0.9072883,0,48,107327,0,0
18104,2023-01-20 11:09:36.241715,210596068,0,0.15,0.01,0.04,0.31,0,0.01119281,3.144728,-0.9072883,0,48,107327,0,0
18136,2023-01-20 11:09:36.341726,210696079,0,0.15,0.01,0.01,0.39,0,0.01130094,3.144728,-0.9072883,0,48,107327,0,0
18170,2023-01-20 11:09:36.437982,210796101,0,0.12,0.01,0.02,0.47,0,0.01126384,3.144728,-0.9072883,0,48,107327,0,0
18201,2023-01-20 11:09:36.528947,210896085,0,0.12,0.01,0.02,0.36,0,0.01139907,3.144728,-0.9072883,0,48,107327,0,0
18234,2023-01-20 11:09:36.621890,210996071,0,0.18,0,0.02,0.31,0,0.01140116,3.144728,-0.9072883,0,48,107327,0,0
18267,2023-01-20 11:09:36.721901,211096079,0,0.18,0,0.02,0.39,0,0.01152989,3.144728,-0.9072883,0,48,107327,0,0
18299,2023-01-20 11:09:36.821904,211196076,0,0.14,0,0,0.51,0,0.01153821,3.144728,-0.9072883,0,48,107327,0,0
18333,2023-01-20 11:09:36.921934,211296092,0,0.14,0,0.02,0.42,0,0.01159397,3.144728,-0.9072883,0,48,107327,0,0
18365,2023-01-20 11:09:37.021921,211396072,0,0.04,0,0.01,0.41,0,0.01155378,3.144728,-0.9072883,0,48,107327,0,0
18396,2023-01-20 11:09:37.121925,211496092,0,0.04,0,0.03,0.41,0,0.01165337,3.144728,-0.9072883,0,48,107327,0,0
18430,2023-01-20 11:09:37.221880,211596067,0,0.18,0,0.01,0.3,0,0.01163398,3.144728,-0.9072883,0,48,107327,0,0
18462,2023-01-20 11:09:37.321862,211696081,0,0.18,0,0.02,0.3,0,0.01173244,3.144728,-0.9072883,0,48,107327,0,0
18496,2023-01-20 11:09:37.424267,211796104,0,0.13,0,0.01,0.3,0,0.01167073,3.144728,-0.9072883,0,48,107327,0,0
18527,2023-01-20 11:09:37.535254,211896078,0,0.13,0,0.03,0.26,0,0.01173235,3.144728,-0.9072883,0,48,107327,0,0
18560,2023-01-20 11:09:37.637891,211996071,0,0.08,0.01,0.02,0.14,0,0.01168605,3.144728,-0.9072883,0,48,107327,0,0
18593,2023-01-20 11:09:37.728838,212096090,0,0.08,0.01,0.05,0.31,0,0.01173632,3.144728,-0.9072883,0,48,107327,0,0
18625,2023-01-20 11:09:37.821722,212196068,0,0.11,0,0.03,0.3,0,0.0116477,3.144728,-0.9072883,0,48,107327,0,0
18659,2023-01-20 11:09:37.921749,212296077,0,0.11,0,0.03,0.22,0,0.01166571,3.144728,-0.9072883,0,48,107327,0,0
18691,2023-01-20 11:09:38.021763,212396079,0,0.04,0,0.03,0.11,0,0.01156696,3.144728,-0.9072883,0,48,107327,0,0
18722,2023-01-20 11:09:38.121763,212496091,0,0.04,0,0.03,0.14,0,0.01156422,3.144728,-0.9072883,0,48,107327,0,0
18756,2023-01-20 11:09:38.221745,212596086,0,0.17,0,0.02,0.27,0,0.01153352,3.144728,-0.9072883,0,48,107327,0,0
18788,2023-01-20 11:09:38.321735,212696092,0,0.17,0,0.03,0.25,0,0.01154191,3.144728,-0.9072883,0,48,107327,0,0
18822,2023-01-20 11:09:38.421698,212796071,0,0.18,0,0.03,0.26,0,0.01137887,3.144728,-0.9072883,0,48,107327,0,0
18853,2023-01-20 11:09:38.521684,212896073,0,0.18,0,0.04,0.14,0,0.01137164,3.144728,-0.9072883,0,48,107327,0,0
18886,2023-01-20 11:09:38.621684,212996082,0,0.1,0,0.03,0.14,0,0.0112736,3.144728,-0.9072883,0,48,107327,0,0
18919,2023-01-20 11:09:38.721696,213096082,0,0.1,0,0.03,0.08,0,0.01123631,3.144728,-0.9072883,0,48,107327,0,0
18951,2023-01-20 11:09:38.821697,213196071,0,0.1,0,0.04,0.02,0,0.01111616,3.144728,-0.9072883,0,48,107327,0,0
18985,2023-01-20 11:09:38.921729,213296091,0,0.1,0,0.02,0.08,0,0.01116719,3.144728,-0.9072883,0,48,107327,0,0
19017,2023-01-20 11:09:39.021717,213396071,0,0.05,0,0.02,0.08,0,0.01106493,3.144728,-0.9072883,0,48,107327,0,0
19048,2023-01-20 11:09:39.121716,213496074,0,0.05,0,0.02,0.02,0,0.01111981,3.144728,-0.9072883,0,48,107327,0,0
19082,2023-01-20 11:09:39.221714,213596081,0,0.1,0,0.03,0.08,0,0.01105471,3.144728,-0.9072883,0,48,107327,0,0
19114,2023-01-20 11:09:39.321691,213696082,0,0.1,0,0.02,0.09,0,0.01110686,3.144728,-0.9072883,0,48,107327,0,0
19148,2023-01-20 11:09:39.421696,213796105,0,0.18,0,0.04,0.22,0,0.01102714,3.144728,-0.9072883,0,48,107327,0,0
19179,2023-01-20 11:09:39.521684,213896089,0,0.18,0,0.05,0.11,0,0.01100879,3.144728,-0.9072883,0,48,107327,0,0
19212,2023-01-20 11:09:39.621671,213996070,0,0.08,0,0.04,0.11,0,0.01094517,3.144728,-0.9072883,0,48,107327,0,0
19246,2023-01-20 11:09:39.721684,214096071,0,0.08,0,0.04,0.05,0,0.01094436,3.144728,-0.9072883,0,48,107327,0,0
19281,2023-01-20 11:09:39.821704,214196079,0,0.08,0,0.05,0.16,0,0.01089759,3.144728,-0.9072883,0,48,107327,0,0
19315,2023-01-20 11:09:39.921719,214296082,0,0.08,0,0.03,0.12,0,0.01093621,3.144728,-0.9072883,0,48,107327,0,0
19347,2023-01-20 11:09:40.021724,214396079,0,0.18,0,0.03,0.13,0,0.0108741,3.144728,-0.9072883,0,48,107327,0,0
19378,2023-01-20 11:09:40.121736,214496095,0,0.18,0,0.03,0.1,0,0.01094403,3.144728,-0.9072883,0,48,107327,0,0
19412,2023-01-20 11:09:40.221709,214596072,0,0.35,0,0.02,0.14,0,0.01090428,3.144728,-0.9072883,0,48,107327,0,0
19444,2023-01-20 11:09:40.321710,214696075,0,0.35,0,0.03,0.1,0,0.01089672,3.144728,-0.9072883,0,48,107327,0,0
19478,2023-01-20 11:09:40.421710,214796081,0,0.02,0,0.03,0.23,0,0.01074897,3.144728,-0.9072883,0,48,107327,0,0
19511,2023-01-20 11:09:40.521687,214896079,0,0.02,0,0.03,0.27,0,0.01063844,3.144728,-0.9072883,0,48,107327,0,0
19544,2023-01-20 11:09:40.621675,214996079,0,0.16,0.01,0.02,0.35,0,0.01053317,3.144728,-0.9072883,0,48,107327,0,0
19577,2023-01-20 11:09:40.721688,215096075,0,0.16,0.01,0.02,0.16,0,0.01059324,3.144728,-0.9072883,0,48,107327,0,0
19609,2023-01-20 11:09:40.821700,215196072,0,0.17,0,0.03,0.09,0,0.01049573,3.144728,-0.9072883,0,48,107327,0,0
19643,2023-01-20 11:09:40.921718,215296078,0,0.17,0,0.01,0.27,0,0.010487,3.144728,-0.9072883,0,48,107327,0,0
19675,2023-01-20 11:09:41.021727,215396078,0,0.13,0,0,0.29,0,0.01041236,3.144728,-0.9072883,0,48,107327,0,0
