LineNo,UTC_Approx,TimeUS,C,NI,FIX,FIY,AFI,HAGL,offset,RI,rng,Herr,eAng,eVel,ePos
681,2023-01-20 11:08:47.421095,161675791,0,0,0,0,0,0.76,0.19,0,0,0.5,8.080534E-05,0.004965502,0.01700681
1034,2023-01-20 11:08:47.516079,161775775,0,0,0,0,0,0.76,0.19,0,0,0.5,8.184354E-05,0.002769518,0.006145599
1150,2023-01-20 11:08:47.630187,161892750,0,0,0,0,0,0.75,0.19,0,0,0.5,0.0003251142,0.01696024,0.03865555
1413,2023-01-20 11:08:47.738571,161995567,0,0,0,0,0,0.75,0.19,0,0,0.5,0.0002833942,0.01082169,0.02119144
1832,2023-01-20 11:08:47.842134,162096077,0,0,0,0,0,0.76,0.19,0,0,0.5,0.0002077479,0.01090296,0.0212764
1877,2023-01-20 11:08:47.941896,162196081,0,0,0,0,0,0.77,0.19,0,0,0.5,0.0001457909,0.007324279,0.01488235
1924,2023-01-20 11:08:48.041756,162296080,0,0,0,0,0,0.77,0.19,0,0,0.5,0.0002486793,0.01668025,0.03486268
1970,2023-01-20 11:08:48.141750,162396070,0,0,0,0,0,0.77,0.19,0,0,0.5,0.0002395592,0.01039766,0.01684862
2023,2023-01-20 11:08:48.241764,162496067,0,0,0,0,0,0.77,0.19,0,0,0.5,0.0003337595,0.02271436,0.04538694
2064,2023-01-20 11:08:48.341793,162596063,0,0,0,0,0,0.77,0.19,0,0,0.5,0.0002009985,0.01392113,0.02376552
2120,2023-01-20 11:08:48.438031,162696062,0,0,0,0,0,0.77,0.19,0,0,0.5,7.466341E-05,0.005639125,0.009938649
2181,2023-01-20 11:08:48.528998,162796071,0,0,0,0,0,0.77,0.19,0,0,0.5,0.0001166931,0.006029002,0.008386723
2241,2023-01-20 11:08:48.621935,162896062,0,0,0,0,0,0.77,0.19,0,0,0.5,7.226798E-05,0.008488069,0.01657147
2295,2023-01-20 11:08:48.721952,162996059,0,0,0,0,0,0.77,0.19,0,0,0.5,7.067295E-05,0.006802485,0.0123106
2350,2023-01-20 11:08:48.821971,163096063,0,0,0,0,0,0.77,0.19,0,0,0.5,0.0001437584,0.02407366,0.0293108
2404,2023-01-20 11:08:48.921974,163196065,0,0,0,0,0,0.77,0.19,0,0,0.5,0.000127412,0.01799193,0.02725793
2446,2023-01-20 11:08:49.021967,163296061,0,0,0,0,0,0.76,0.19,0,0,0.5,4.502382E-05,0.005193183,0.01783293
2490,2023-01-20 11:08:49.121952,163396062,0,0,0,0,0,0.76,0.19,0,0,0.5,7.122954E-05,0.003964622,0.01376191
2532,2023-01-20 11:08:49.224360,163496062,0,0,0,0,0,0.76,0.19,0,0,0.5,0.0001496929,0.01466981,0.02526827
2572,2023-01-20 11:08:49.335395,163596061,0,0,0,0,0,0.76,0.19,0,0,0.5,0.0001128899,0.008799878,0.01077506
2613,2023-01-20 11:08:49.441806,163696078,0,0,0,0,0,0.76,0.19,0,0,0.5,8.46995E-05,0.007057092,0.0163318
2653,2023-01-20 11:08:49.541748,163796085,0,0,0,0,0,0.76,0.19,0,0,0.5,3.981E-05,0.003319668,0.006736165
2693,2023-01-20 11:08:49.637949,163896065,0,0,0,0,0,0.75,0.19,0,0,0.5,8.081434E-05,0.01210807,0.02206907
2731,2023-01-20 11:08:49.728987,163996078,0,0,0,0,0,0.75,0.19,0,0,0.5,6.057074E-05,0.006540558,0.009466966
2774,2023-01-20 11:08:49.821975,164096071,0,0,0,0,0,0.75,0.19,0,0,0.5,5.491225E-05,0.01310719,0.01653503
2812,2023-01-20 11:08:49.921949,164196069,0,0,0,0,0,0.75,0.19,0,0,0.5,4.233569E-05,0.009047785,0.01181529
2854,2023-01-20 11:08:50.021935,164296065,0,0,0,0,0,0.75,0.19,0,0,0.5,6.548584E-05,0.02805218,0.03184379
2893,2023-01-20 11:08:50.121980,164396072,0,0,0,0,0,0.75,0.19,0,0,0.5,8.238199E-05,0.02106075,0.03245277
2936,2023-01-20 11:08:50.221993,164496065,0,0,0,0,0,0.74,0.19,0,0,0.5,5.838491E-05,0.0296199,0.03802679
2974,2023-01-20 11:08:50.321958,164596070,0,0,0,0,0,0.74,0.19,0,0,0.5,3.126704E-05,0.02116137,0.03587927
3014,2023-01-20 11:08:50.421912,164696066,0,0,0,0,0,0.73,0.19,0,0,0.5,3.151167E-05,0.01878355,0.03179383
3056,2023-01-20 11:08:50.521868,164796070,0,0,0,0,0,0.72,0.19,0,0,0.5,4.742746E-05,0.01310575,0.02858558
3096,2023-01-20 11:08:50.621843,164896069,0,0,0,0,0,0.71,0.19,0,0,0.5,8.195553E-05,0.00686826,0.02126025
3134,2023-01-20 11:08:50.721915,164996083,0,0,0,0,0,0.71,0.19,0,0,0.5,5.275697E-05,0.004516448,0.01679609
3175,2023-01-20 11:08:50.821937,165096074,0,0,0,0,0,0.69,0.19,0,0,0.5,9.197413E-05,0.01166751,0.02923432
3213,2023-01-20 11:08:50.921874,165196076,0,0,0,0,0,0.69,0.19,0,0,0.5,0.0001466259,0.007385946,0.01755244
3255,2023-01-20 11:08:51.021836,165296085,0,0,0,0,0,0.65,0.19,0,0,0.5,0.0001357443,0.02665466,0.05487567
3293,2023-01-20 11:08:51.121840,165396074,0,0,0,0,0,0.65,0.19,0,0,0.5,0.0001314171,0.01716222,0.0326396
3336,2023-01-20 11:08:51.221846,165496079,0,0,0,0,0,0.62,0.19,0,0,0.5,0.0001062247,0.02227625,0.05195096
3374,2023-01-20 11:08:51.321810,165596086,0,0,0,0,0,0.61,0.19,0,0,0.5,5.42745E-05,0.01368321,0.03085416
3414,2023-01-20 11:08:51.421759,165696074,0,0,0,0,0,0.58,0.19,0,0,0.5,9.258113E-05,0.02216979,0.05365057
3454,2023-01-20 11:08:51.521744,165796075,0,0,0,0,0,0.57,0.19,0,0,0.5,0.00010741,0.01403723,0.03323756
3495,2023-01-20 11:08:51.621735,165896078,0,0,0,0,0,0.54,0.19,0,0,0.5,8.875746E-05,0.03310135,0.06016443
3532,2023-01-20 11:08:51.721737,165996073,0,0,0,0,0,0.54,0.19,0,0,0.5,0.0001130501,0.0232332,0.0455174
3575,2023-01-20 11:08:51.821756,166096087,0,0,0,0,0,0.5,0.19,0,0,0.5,7.202025E-05,0.01738526,0.04268366
3613,2023-01-20 11:08:51.921747,166196081,0,0,0,0,0,0.5,0.19,0,0,0.5,7.545784E-05,0.01138287,0.03064034
3655,2023-01-20 11:08:52.021742,166296076,0,0,0,0,0,0.48,0.19,0,0,0.5,8.919774E-05,0.0133779,0.03129904
3691,2023-01-20 11:08:52.121747,166396074,0,0,0,0,0,0.47,0.19,0,0,0.5,8.264277E-05,0.008623525,0.02205498
3726,2023-01-20 11:08:52.221760,166496082,0,0,0,0,0,0.45,0.19,0,0,0.5,5.807049E-05,0.02516691,0.04713319
3756,2023-01-20 11:08:52.321747,166596072,0,0,0,0,0,0.44,0.19,0,0,0.5,5.579144E-05,0.01689646,0.03734533
3789,2023-01-20 11:08:52.421755,166696087,0,0,0,0,0,0.44,0.19,0,0,0.5,0.0001015325,0.02753807,0.0529348
3821,2023-01-20 11:08:52.521746,166796104,0,0,0,0,0,0.43,0.19,0,0,0.5,0.0001031821,0.0183445,0.04366883
3854,2023-01-20 11:08:52.621713,166896084,0,0,0,0,0,0.42,0.19,0,0,0.5,9.389852E-05,0.02417974,0.05003662
3884,2023-01-20 11:08:52.721736,166996074,0,0,0,0,0,0.42,0.19,0,0,0.5,9.842262E-05,0.01572117,0.04156512
3919,2023-01-20 11:08:52.821776,167096088,0,0,0,0,0,0.41,0.19,0,0,0.5,9.373748E-05,0.00693349,0.02427721
3949,2023-01-20 11:08:52.921760,167196070,0,0,0,0,0,0.41,0.19,0,0,0.5,0.0001331371,0.005133749,0.02518126
3984,2023-01-20 11:08:53.021775,167296091,0,0,0,0,0,0.39,0.19,0,0,0.5,9.75105E-05,0.00928542,0.01490991
4014,2023-01-20 11:08:53.121735,167396082,0,0,0,0,0,0.39,0.19,0,0,0.5,0.0001000484,0.008088681,0.01860873
4049,2023-01-20 11:08:53.221700,167496069,0,0,0,0,0,0.38,0.19,0,0,0.5,0.0001285262,0.0204012,0.04185251
4079,2023-01-20 11:08:53.321721,167596080,0,0,0,0,0,0.38,0.19,0,0,0.5,0.0001032601,0.01308365,0.03485006
4112,2023-01-20 11:08:53.421714,167696074,0,0,0,0,0,0.36,0.19,0,0,0.5,0.0001049433,0.02204462,0.04626928
4144,2023-01-20 11:08:53.521678,167796078,0,0,0,0,0,0.36,0.19,0,0,0.5,0.0002558815,0.01339092,0.03563743
4177,2023-01-20 11:08:53.621652,167896077,0,0,0,0,0,0.34,0.19,0,0,0.5,0.0004742261,0.009702234,0.02305738
4207,2023-01-20 11:08:53.721680,167996073,0,0,0,0,0,0.34,0.19,0,0,0.5,0.0007853056,0.005214212,0.01927882
4242,2023-01-20 11:08:53.821712,168096084,0,0,0,0,0,0.32,0.19,0,0,0.5,0.0008786868,0.01871775,0.03121991
4272,2023-01-20 11:08:53.921691,168196079,0,0,0,0,0,0.32,0.19,0,0,0.5,0.001016023,0.01443693,0.02246449
4308,2023-01-20 11:08:54.021678,168296082,0,0,0,0,0,0.31,0.19,0,0,0.5,0.001094429,0.007080293,0.01588076
4339,2023-01-20 11:08:54.121670,168396087,0,0,0,0,0,0.3,0.19,0,0,0.5,0.00107775,0.004302947,0.01101634
4374,2023-01-20 11:08:54.221652,168496074,0,0,0,0,0,0.29,0.19,0,0,0.5,0.001159541,0.0287171,0.05932122
4404,2023-01-20 11:08:54.321685,168596082,0,0,0,0,0,0.33,0.19,0,0,0.5,0.001104955,0.01766659,0.04130376
4437,2023-01-20 11:08:54.421693,168696079,0,0,0,0,0,0.39,0.19,0,0,0.5,0.001078587,0.02266295,0.0529831
4469,2023-01-20 11:08:54.521650,168796074,0,0,0,0,0,0.45,0.19,0,0,0.5,0.0009569704,0.01446088,0.04492773
4502,2023-01-20 11:08:54.621624,168896073,0,0,0,0,0,0.52,0.19,0,0,0.5,0.0008644504,0.01441347,0.04572995
4532,2023-01-20 11:08:54.721641,168996074,0,0,0,0,0,0.58,0.19,0,0,0.5,0.0009559108,0.01332943,0.04885315
4567,2023-01-20 11:08:54.821676,169096094,0,0,0,0,0,0.65,0.19,0,0,0.5,0.0009694209,0.02031323,0.06731001
4597,2023-01-20 11:08:54.921667,169196074,0,0,0,0,0,0.72,0.19,0,0,0.5,0.001102341,0.01733202,0.06389112
4632,2023-01-20 11:08:55.021681,169296077,0,0,0,0,0,0.77,0.19,0,0,0.5,0.001102046,0.02357442,0.07262604
4662,2023-01-20 11:08:55.121703,169396089,0,0,0,0,0,0.83,0.19,0,0,0.5,0.001175526,0.01869569,0.06400848
4697,2023-01-20 11:08:55.221693,169496072,0,0,0,0,0,0.98,0.19,0,0,0.5,0.001280095,0.03093737,0.1384221
4727,2023-01-20 11:08:55.321687,169596072,0,0,0,0,0,1.09,0.19,0,0,0.5,0.001260571,0.02849922,0.1503709
4760,2023-01-20 11:08:55.421686,169696081,0,0,0,0,0,1.21,0.19,0,0,0.5,0.001244977,0.0306185,0.1637509
4794,2023-01-20 11:08:55.521647,169796070,0,0,0,0,0,1.31,0.19,0,0,0.5,0.001290326,0.02772842,0.1579265
4827,2023-01-20 11:08:55.621640,169896078,0,0,0,0,0,1.42,0.19,0,0,0.5,0.001318356,0.02833991,0.1589844
4857,2023-01-20 11:08:55.721683,169996092,0,0,0,0,0,1.5,0.19,0,0,0.5,0.001369725,0.0235606,0.1356527
4892,2023-01-20 11:08:55.821690,170096077,0,0,0,0,0,1.59,0.19,0,0,0.5,0.001480744,0.02862492,0.1312236
4922,2023-01-20 11:08:55.921693,170196083,0,0,0,0,0,1.66,0.19,0,0,0.5,0.00139624,0.02153516,0.09974418
4957,2023-01-20 11:08:56.021701,170296092,0,0,0,0,0,1.73,0.19,0,0,0.5,0.001316806,0.0221792,0.08867464
4987,2023-01-20 11:08:56.121684,170396068,0,0,0,0,0,1.8,0.19,0,0,0.5,0.001191957,0.01629891,0.06515387
5022,2023-01-20 11:08:56.221691,170496070,0,0,0,0,0,1.88,0.19,0,0,0.5,0.001146521,0.01135471,0.05359993
5052,2023-01-20 11:08:56.321708,170596089,0,0,0,0,0,1.94,0.19,0,0,0.5,0.001241166,0.00790171,0.03898966
5085,2023-01-20 11:08:56.421682,170696072,0,0,0,0,0,1.99,0.19,0,0,0.5,0.001384005,0.02935897,0.07341222
5117,2023-01-20 11:08:56.521656,170796078,0,0,0,0,0,2.05,0.19,0,0,0.5,0.001438958,0.02063154,0.04874661
5150,2023-01-20 11:08:56.621642,170896082,0,0,0,0,0,2.12,0.19,0,0,0.5,0.001395045,0.02077391,0.05180282
5180,2023-01-20 11:08:56.721666,170996072,0,0,0,0,0,2.19,0.19,0,0,0.5,0.001232436,0.01394598,0.03268538
5215,2023-01-20 11:08:56.821700,171096081,0,0,0,0,0,2.27,0.19,0,0,0.5,0.00109078,0.008726873,0.02294513
5245,2023-01-20 11:08:56.921704,171196093,0,0,0,0,0,2.35,0.19,0,0,0.5,0.001049072,0.005212224,0.01135286
5280,2023-01-20 11:08:57.021684,171296077,0,0,0,0,0,2.43,0.19,0,0,0.5,0.00106681,0.03174347,0.07670745
5311,2023-01-20 11:08:57.121683,171396068,0,0,0,0,0,2.51,0.19,0,0,0.5,0.001057398,0.02132711,0.04970275
5346,2023-01-20 11:08:57.221694,171496072,0,0,0,0,0,2.59,0.19,0,0,0.5,0.001304238,0.05470096,0.1334865
5376,2023-01-20 11:08:57.321696,171596072,0,0,0,0,0,2.66,0.19,0,0,0.5,0.001255915,0.03592654,0.08794568
5409,2023-01-20 11:08:57.421693,171696076,0,0,0,0,0,2.74,0.19,0,0,0.5,0.00127352,0.05548457,0.1386578
5441,2023-01-20 11:08:57.521654,171796073,0,0,0,0,0,2.82,0.19,0,0,0.5,0.001053724,0.03519974,0.08867003
5474,2023-01-20 11:08:57.621639,171896079,0,0,0,0,0,2.9,0.19,0,0,0.5,0.0008985683,0.03796741,0.100004
5504,2023-01-20 11:08:57.721665,171996072,0,0,0,0,0,2.99,0.19,0,0,0.5,0.0007589277,0.02239938,0.05908624
5539,2023-01-20 11:08:57.821714,172096096,0,0,0,0,0,3.09,0.19,0,0,0.5,0.0007308623,0.03661344,0.09572603
5569,2023-01-20 11:08:57.921687,172196074,0,0,0,0,0,3.2,0.19,0,0,0.5,0.0006193469,0.02101506,0.05420223
5606,2023-01-20 11:08:58.021684,172296074,0,0,0,0,0,3.32,0.19,0,0,0.5,0.002408036,0.0224308,0.06031465
5636,2023-01-20 11:08:58.121681,172396068,0,0,0,0,0,3.44,0.19,0,0,0.5,0.002619354,0.01139071,0.03118375
5671,2023-01-20 11:08:58.221691,172496076,0,0,0,0,0,3.57,0.19,0,0,0.5,0.008800291,0.02476516,0.0524141
5701,2023-01-20 11:08:58.321694,172596080,0,0,0,0,0,3.7,0.19,0,0,0.5,0.007373169,0.01938764,0.04520196
5734,2023-01-20 11:08:58.421675,172696069,0,0,0,0,0,3.83,0.19,0,0,0.5,0.01298193,0.03233417,0.06469543
5766,2023-01-20 11:08:58.521661,172796090,0,0,0,0,0,3.94,0.19,0,0,0.5,0.009688683,0.02427159,0.05469892
5799,2023-01-20 11:08:58.621648,172896096,0,0,0,0,0,4.04,0.19,0,0,0.5,0.005506103,0.0287211,0.05800147
5829,2023-01-20 11:08:58.721670,172996082,0,0,0,0,0,4.15,0.19,0,0,0.5,0.002159702,0.02244474,0.05554558
5864,2023-01-20 11:08:58.821701,173096087,0,0,0,0,0,4.24,0.19,0,0,0.5,0.01046822,0.0387623,0.07037365
5894,2023-01-20 11:08:58.921696,173196099,0,0,0,0,0,4.33,0.19,0,0,0.5,0.009930799,0.03060176,0.0663785
5929,2023-01-20 11:08:59.019695,173296082,0,0,0,0,0,4.42,0.19,0,0,0.5,0.05681631,0.1272366,0.1492996
5961,2023-01-20 11:08:59.110593,173396083,0,0,0,0,0,4.52,0.19,0,0,0.5,0.04932566,0.09383065,0.1227098
5996,2023-01-20 11:08:59.201665,173496109,0,0,0,0,0,4.61,0.19,0,0,0.5,0.02144875,0.06533165,0.1004111
6026,2023-01-20 11:08:59.301649,173596090,0,0,0,0,0,4.7,0.19,0,0,0.5,0.02370576,0.1227348,0.1694565
6059,2023-01-20 11:08:59.401838,173696092,0,0,0,0,0,4.78,0.19,0,0,0.5,0.007970986,0.0813764,0.1296618
6090,2023-01-20 11:08:59.512945,173796083,0,0,0,0,0,4.87,0.19,0,0,0.5,0.01777845,0.1209604,0.171569
6123,2023-01-20 11:08:59.619687,173896085,0,0,0,0,0,4.96,0.19,0,0,0.5,0.01519574,0.1332239,0.1822523
6153,2023-01-20 11:08:59.710580,173996073,0,0,0,0,0,5.04,0.19,0,0,0.5,0.007673643,0.08505249,0.1325087
6189,2023-01-20 11:08:59.801677,174096118,0,0,0,0,0,5.11,0.19,0,0,0.5,0.001575252,0.05030061,0.09383848
6219,2023-01-20 11:08:59.901607,174196077,0,0,0,0,0,5.19,0.19,0,0,0.5,0.0174678,0.04462096,0.07123069
6254,2023-01-20 11:09:00.001602,174296103,0,0,0,0,0,5.26,0.19,0,0,0.5,0.008981046,0.02624466,0.0456873
6284,2023-01-20 11:09:00.101506,174396081,0,0,0,0,0,5.34,0.19,0,0,0.5,0.02439992,0.0778935,0.101781
6319,2023-01-20 11:09:00.201455,174496101,0,0,0,0,0,5.4,0.19,0,0,0.5,0.0115315,0.04482641,0.06727277
6349,2023-01-20 11:09:00.301482,174596077,0,0,0,0,0,5.47,0.19,0,0,0.5,0.02387584,0.08120733,0.1024593
6382,2023-01-20 11:09:00.401565,174696110,0,0,0,0,0,5.53,0.19,0,0,0.5,0.01066758,0.04608029,0.06748553
6416,2023-01-20 11:09:00.501498,174796097,0,0,0,0,0,5.6,0.19,0,0,0.5,0.04605102,0.1407855,0.1433845
6449,2023-01-20 11:09:00.601453,174896106,0,0,0,0,0,5.65,0.19,0,0,0.5,0.02334955,0.09064425,0.1020497
6479,2023-01-20 11:09:00.701460,174996080,0,0,0,0,0,5.72,0.19,0,0,0.5,0.02843974,0.123556,0.1352245
6515,2023-01-20 11:09:00.801516,175096104,0,0,0,0,0,5.78,0.19,0,0,0.5,0.0108666,0.0772413,0.09473576
6545,2023-01-20 11:09:00.901477,175196089,0,0,0,0,0,5.87,0.19,0,0,0.5,0.02097345,0.1157343,0.1309002
6580,2023-01-20 11:09:01.001495,175296130,0,0,0,0,0,5.95,0.19,0,0,0.5,0.009152139,0.07431639,0.09259523
6610,2023-01-20 11:09:01.101535,175396094,0,0,0,0,0,6.05,0.19,0,0,0.5,0.01776316,0.09898399,0.126704
6645,2023-01-20 11:09:01.201645,175496131,0,0,0,0,0,6.14,0.19,0,0,0.5,0.007974299,0.06001578,0.08627906
6675,2023-01-20 11:09:01.301523,175596077,0,0,0,0,0,6.24,0.19,0,0,0.5,0.008012537,0.06306771,0.09341761
6708,2023-01-20 11:09:01.401499,175696120,0,0,0,0,0,6.33,0.19,0,0,0.5,0.002812419,0.04221388,0.06500944
6740,2023-01-20 11:09:01.501437,175796085,0,0,0,0,0,6.42,0.19,0,0,0.5,0.006208527,0.06667537,0.09367034
6773,2023-01-20 11:09:01.601440,175896115,0,0,0,0,0,6.5,0.19,0,0,0.5,0.002861362,0.05258198,0.07243575
6804,2023-01-20 11:09:01.701401,175996071,0,0,0,0,0,6.58,0.19,0,0,0.5,0.008078587,0.08489893,0.124167
6839,2023-01-20 11:09:01.801424,176096088,0,0,0,0,0,6.65,0.19,0,0,0.5,0.003946228,0.06211646,0.09253091
6869,2023-01-20 11:09:01.901423,176196083,0,0,0,0,0,6.74,0.19,0,0,0.5,0.004484443,0.07676277,0.1140016
6904,2023-01-20 11:09:02.001454,176296110,0,0,0,0,0,6.82,0.19,0,0,0.5,0.00170828,0.05890217,0.08676086
6934,2023-01-20 11:09:02.101428,176396072,0,0,0,0,0,6.9,0.19,0,0,0.5,0.002885359,0.06706012,0.09988725
6969,2023-01-20 11:09:02.201466,176496098,0,0,0,0,0,6.98,0.19,0,0,0.5,0.001244796,0.05417917,0.07881265
6999,2023-01-20 11:09:02.301454,176596082,0,0,0,0,0,7.07,0.19,0,0,0.5,0.008210032,0.08540039,0.1222411
7032,2023-01-20 11:09:02.401486,176696112,0,0,0,0,0,7.15,0.19,0,0,0.5,0.00435303,0.06584487,0.09458479
7064,2023-01-20 11:09:02.501407,176796082,0,0,0,0,0,7.24,0.19,0,0,0.5,0.004833364,0.07316471,0.1093629
7097,2023-01-20 11:09:02.601376,176896098,0,0,0,0,0,7.32,0.19,0,0,0.5,0.001789943,0.05532287,0.08239306
7127,2023-01-20 11:09:02.701395,176996072,0,0,0,0,0,7.42,0.19,0,0,0.5,0.01473461,0.09745301,0.1248559
7162,2023-01-20 11:09:02.801462,177096095,0,0,0,0,0,7.51,0.19,0,0,0.5,0.007862635,0.07397442,0.09904266
7192,2023-01-20 11:09:02.901450,177196088,0,0,0,0,0,7.61,0.19,0,0,0.5,0.0115483,0.09022217,0.1170509
7227,2023-01-20 11:09:03.001489,177296131,0,0,0,0,0,7.7,0.19,0,0,0.5,0.004819244,0.06652741,0.09290561
7257,2023-01-20 11:09:03.101441,177396095,0,0,0,0,0,7.81,0.19,0,0,0.5,0.01708634,0.1053945,0.1386839
7292,2023-01-20 11:09:03.201441,177496106,0,0,0,0,0,7.91,0.19,0,0,0.5,0.0084842,0.07360594,0.1045069
7322,2023-01-20 11:09:03.301418,177596087,0,0,0,0,0,8.04,0.19,0,0,0.5,0.01036861,0.08319708,0.1189151
7355,2023-01-20 11:09:03.401444,177696118,0,0,0,0,0,8.14,0.19,0,0,0.5,0.003947672,0.05622085,0.08697271
7387,2023-01-20 11:09:03.501422,177796095,0,0,0,0,0,8.27,0.19,0,0,0.5,0.006982038,0.06734972,0.1029171
7420,2023-01-20 11:09:03.601435,177896107,0,0,0,0,0,8.37,0.19,0,0,0.5,0.002943823,0.04648944,0.07696947
7451,2023-01-20 11:09:03.701428,177996087,0,0,0,0,0,8.49,0.19,0,0,0.5,0.001782374,0.03959797,0.06764966
7486,2023-01-20 11:09:03.801439,178096086,0,0,0,0,0,8.59,0.19,0,0,0.5,0.0004482141,0.02512678,0.0477308
7516,2023-01-20 11:09:03.901412,178196072,0,0,0,0,0,8.72,0.19,0,0,0.5,0.0008323535,0.0250554,0.04603156
7551,2023-01-20 11:09:04.001448,178296120,0,0,0,0,0,8.81,0.19,0,0,0.5,0.0005423264,0.01327732,0.02860676
7581,2023-01-20 11:09:04.101391,178396072,0,0,0,0,0,8.93,0.19,0,0,0.5,0.002058076,0.02022352,0.03713635
7617,2023-01-20 11:09:04.201395,178496084,0,0,0,0,0,9.03,0.19,0,0,0.5,0.001137053,0.01210704,0.02497339
7647,2023-01-20 11:09:04.301415,178596080,0,0,0,0,0,9.15,0.19,0,0,0.5,0.0003151312,0.007992444,0.01573005
7680,2023-01-20 11:09:04.401466,178696108,0,0,0,0,0,9.26,0.19,0,0,0.5,0.0003735911,0.006905456,0.01660797
7712,2023-01-20 11:09:04.501419,178796077,0,0,0,0,0,9.37,0.19,0,0,0.5,0.004254163,0.03246843,0.05990766
7745,2023-01-20 11:09:04.601443,178896117,0,0,0,0,0,9.47,0.19,0,0,0.5,0.00234407,0.02284343,0.04754021
7775,2023-01-20 11:09:04.701423,178996072,0,0,0,0,0,9.59,0.19,0,0,0.5,0.0004611198,0.01308222,0.02745291
7810,2023-01-20 11:09:04.801461,179096086,0,0,0,0,0,9.7,0.19,0,0,0.5,0.0005359986,0.01005119,0.02469414
7840,2023-01-20 11:09:04.901417,179196079,0,0,0,0,0,9.83,0.19,0,0,0.5,0.001344992,0.002584745,0.006782829
7875,2023-01-20 11:09:05.001420,179296118,0,0,0,0,0,9.94,0.19,0,0,0.5,0.0008065228,0.007173794,0.01734119
7905,2023-01-20 11:09:05.101397,179396072,0,0,0,0,0,10.06,0.19,0,0,0.5,0.001141429,0.008633433,0.01762216
7940,2023-01-20 11:09:05.201442,179496094,0,0,0,0,0,10.16,0.19,0,0,0.5,0.0005961958,0.008759113,0.02233006
7970,2023-01-20 11:09:05.301434,179596072,0,0,0,0,0,10.28,0.19,0,0,0.5,0.0007856881,0.01062061,0.02142905
8004,2023-01-20 11:09:05.401499,179696124,0,0,0,0,0,10.38,0.19,0,0,0.5,0.0004631292,0.009964989,0.02208685
8038,2023-01-20 11:09:05.501438,179796119,0,0,0,0,0,10.48,0.19,0,0,0.5,0.001667917,0.02984511,0.06271715
8071,2023-01-20 11:09:05.601379,179896114,0,0,0,0,0,10.56,0.19,0,0,0.5,0.0009551792,0.02085112,0.04646594
8101,2023-01-20 11:09:05.701420,179996095,0,0,0,0,0,10.64,0.19,0,0,0.5,0.0004362877,0.01118794,0.0284046
8136,2023-01-20 11:09:05.801478,180096094,0,0,0,0,0,10.7,0.19,0,0,0.5,0.006563037,0.009235058,0.02811417
8166,2023-01-20 11:09:05.901415,180196071,0,0,0,0,0,10.76,0.19,0,0,0.5,0.009270019,0.01396589,0.03343793
8201,2023-01-20 11:09:06.001418,180296113,0,0,0,0,0,10.81,0.19,0,0,0.5,0.02019789,0.01538561,0.03158993
8231,2023-01-20 11:09:06.101398,180396084,0,0,0,0,0,10.84,0.19,0,0,0.5,0.02929503,0.01710252,0.03556878
8266,2023-01-20 11:09:06.201419,180496096,0,0,0,0,0,10.86,0.19,0,0,0.5,0.03664939,0.02009143,0.03880138
8296,2023-01-20 11:09:06.301393,180596072,0,0,0,0,0,10.86,0.19,0,0,0.5,0.04510361,0.04634817,0.08347423
8329,2023-01-20 11:09:06.401425,180696107,0,0,0,0,0,10.87,0.19,0,0,0.5,0.04812102,0.0400694,0.07235124
8361,2023-01-20 11:09:06.501396,180796070,0,0,0,0,0,10.88,0.19,0,0,0.5,0.05299147,0.0280415,0.05211734
8394,2023-01-20 11:09:06.601442,180896108,0,0,0,0,0,10.88,0.19,0,0,0.5,0.06224064,0.03003847,0.04985054
8424,2023-01-20 11:09:06.701402,180996072,0,0,0,0,0,10.89,0.19,0,0,0.5,0.06538147,0.02340016,0.03425104
8459,2023-01-20 11:09:06.801415,181096089,0,0,0,0,0,10.89,0.19,0,0,0.5,0.06326878,0.02992346,0.03314707
8489,2023-01-20 11:09:06.901413,181196074,0,0,0,0,0,10.9,0.19,0,0,0.5,0.05802152,0.03593791,0.02552396
8524,2023-01-20 11:09:07.001460,181296109,0,0,0,0,0,10.89,0.19,0,0,0.5,0.04940054,0.03793507,0.02746427
8554,2023-01-20 11:09:07.101421,181396067,0,0,0,0,0,10.89,0.19,0,0,0.5,0.04560295,0.04916291,0.04101202
8589,2023-01-20 11:09:07.201456,181496100,0,0,0,0,0,10.87,0.19,0,0,0.5,0.04731821,0.04978999,0.0444486
8619,2023-01-20 11:09:07.301445,181596087,0,0,0,0,0,10.86,0.19,0,0,0.5,0.02429354,0.03834298,0.0440459
8653,2023-01-20 11:09:07.401486,181696127,0,0,0,0,0,10.85,0.19,0,0,0.5,0.005015446,0.02163059,0.04014909
8685,2023-01-20 11:09:07.501444,181796097,0,0,0,0,0,10.86,0.19,0,0,0.5,0.002323182,0.01087934,0.03169666
8718,2023-01-20 11:09:07.601455,181896120,0,0,0,0,0,10.86,0.19,0,0,0.5,0.00295123,0.006716206,0.02828896
8748,2023-01-20 11:09:07.701441,181996085,0,0,0,0,0,10.9,0.19,0,0,0.5,0.001436958,0.006297316,0.01811328
8783,2023-01-20 11:09:07.801466,182096090,0,0,0,0,0,10.93,0.19,0,0,0.5,0.0004530329,0.01081182,0.01657437
8813,2023-01-20 11:09:07.901447,182196083,0,0,0,0,0,10.99,0.19,0,0,0.5,0.02383173,0.01432624,0.01226772
8848,2023-01-20 11:09:08.001463,182296111,0,0,0,0,0,11.03,0.19,0,0,0.5,0.01800754,0.01360708,0.01793947
8878,2023-01-20 11:09:08.101411,182396077,0,0,0,0,0,11.07,0.19,0,0,0.5,0.03771393,0.01719854,0.03467837
8913,2023-01-20 11:09:08.201428,182496112,0,0,0,0,0,11.12,0.19,0,0,0.5,0.04584212,0.02010081,0.03026139
8943,2023-01-20 11:09:08.301411,182596072,0,0,0,0,0,11.18,0.19,0,0,0.5,0.04890294,0.02606055,0.03038882
8976,2023-01-20 11:09:08.401476,182696114,0,0,0,0,0,11.24,0.19,0,0,0.5,0.04904937,0.02388605,0.02270011
9008,2023-01-20 11:09:08.501407,182796077,0,0,0,0,0,11.3,0.19,0,0,0.5,0.02346105,0.01332203,0.01657549
9041,2023-01-20 11:09:08.601410,182896111,0,0,0,0,0,11.37,0.19,0,0,0.5,0.02467764,0.01539117,0.01947698
9071,2023-01-20 11:09:08.701413,182996081,0,0,0,0,0,11.45,0.19,0,0,0.5,0.03349422,0.01749204,0.01822594
9106,2023-01-20 11:09:08.801449,183096085,0,0,0,0,0,11.53,0.19,0,0,0.5,0.04065099,0.0184832,0.01977613
9138,2023-01-20 11:09:08.901434,183196083,0,0,0,0,0,11.63,0.19,0,0,0.5,0.03569552,0.01904291,0.02576912
9173,2023-01-20 11:09:09.001328,183296120,0,0,0,0,0,11.71,0.19,0,0,0.5,0.03013998,0.0165187,0.02534544
9203,2023-01-20 11:09:09.092374,183396067,0,0,0,0,0,11.81,0.19,0,0,0.5,0.02933628,0.02210049,0.04048776
9235,2023-01-20 11:09:09.183498,183496100,0,0,0,0,0,11.89,0.19,0,0,0.5,0.03286209,0.01905417,0.03540504
9269,2023-01-20 11:09:09.281855,183596081,0,0,0,0,0,11.99,0.19,0,0,0.5,0.03262181,0.02100604,0.04025681
9300,2023-01-20 11:09:09.381877,183696116,0,0,0,0,0,12.08,0.19,0,0,0.5,0.03067825,0.01680845,0.03535284
9334,2023-01-20 11:09:09.481846,183796083,0,0,0,0,0,12.17,0.19,0,0,0.5,0.02641976,0.01903362,0.043561
9365,2023-01-20 11:09:09.581874,183896107,0,0,0,0,0,12.27,0.19,0,0,0.5,0.02425754,0.01652805,0.03702828
9398,2023-01-20 11:09:09.681851,183996067,0,0,0,0,0,12.38,0.19,0,0,0.5,0.02558837,0.01663474,0.03588175
9432,2023-01-20 11:09:09.781874,184096071,0,0,0,0,0,12.49,0.19,0,0,0.5,0.02542101,0.0156846,0.02853846
9464,2023-01-20 11:09:09.881870,184196082,0,0,0,0,0,12.61,0.19,0,0,0.5,0.025087,0.01084765,0.02508287
9497,2023-01-20 11:09:09.981883,184296119,0,0,0,0,0,12.72,0.19,0,0,0.5,0.02309754,0.01085007,0.0181618
9529,2023-01-20 11:09:10.081833,184396077,0,0,0,0,0,12.86,0.19,0,0,0.5,0.02110326,0.009527857,0.03662058
9561,2023-01-20 11:09:10.181868,184496116,0,0,0,0,0,12.98,0.19,0,0,0.5,0.02239437,0.005935995,0.02408126
9594,2023-01-20 11:09:10.281826,184596075,0,0,0,0,0,13.11,0.19,0,0,0.5,0.02049848,0.009917536,0.03281358
9625,2023-01-20 11:09:10.381842,184696092,0,0,0,0,0,13.24,0.19,0,0,0.5,0.0189195,0.006038915,0.02093117
9659,2023-01-20 11:09:10.481742,184796083,0,0,0,0,0,13.38,0.19,0,0,0.5,0.01500451,0.007887568,0.01845486
9692,2023-01-20 11:09:10.581646,184896098,0,0,0,0,0,13.51,0.19,0,0,0.5,0.01447804,0.008669196,0.01096673
9724,2023-01-20 11:09:10.681649,184996067,0,0,0,0,0,13.67,0.19,0,0,0.5,0.01672211,0.01195688,0.01593871
9757,2023-01-20 11:09:10.781770,185096121,0,0,0,0,0,13.81,0.19,0,0,0.5,0.01613459,0.0119315,0.01019304
9789,2023-01-20 11:09:10.881716,185196074,0,0,0,0,0,13.96,0.19,0,0,0.5,0.01272144,0.01277529,0.02556274
9822,2023-01-20 11:09:10.981713,185296093,0,0,0,0,0,14.1,0.19,0,0,0.5,0.01191172,0.01242276,0.01939189
9855,2023-01-20 11:09:11.081682,185396072,0,0,0,0,0,14.26,0.19,0,0,0.5,0.009054421,0.01452847,0.03570074
9887,2023-01-20 11:09:11.181698,185496096,0,0,0,0,0,14.4,0.19,0,0,0.5,0.009109787,0.01026541,0.0243515
9920,2023-01-20 11:09:11.281667,185596077,0,0,0,0,0,14.56,0.19,0,0,0.5,0.007658117,0.02352649,0.05252137
9951,2023-01-20 11:09:11.381681,185696105,0,0,0,0,0,14.69,0.19,0,0,0.5,0.008255933,0.01414244,0.03458324
9984,2023-01-20 11:09:11.481650,185796074,0,0,0,0,0,14.85,0.19,0,0,0.5,0.01181078,0.01141735,0.03837118
10015,2023-01-20 11:09:11.581676,185896096,0,0,0,0,0,14.98,0.19,0,0,0.5,0.01082221,0.004886862,0.02104864
10047,2023-01-20 11:09:11.681665,185996068,0,0,0,0,0,15.13,0.19,0,0,0.5,0.007773583,0.01402873,0.03500234
10080,2023-01-20 11:09:11.781723,186096106,0,0,0,0,0,15.26,0.19,0,0,0.5,0.006674313,0.007718204,0.01853369
10112,2023-01-20 11:09:11.881695,186196078,0,0,0,0,0,15.42,0.19,0,0,0.5,0.006560832,0.01811707,0.03848123
10145,2023-01-20 11:09:11.981697,186296086,0,0,0,0,0,15.55,0.19,0,0,0.5,0.006795765,0.01309951,0.02540562
10177,2023-01-20 11:09:12.081661,186396076,0,0,0,0,0,15.71,0.19,0,0,0.5,0.006649469,0.01852866,0.03990803
10209,2023-01-20 11:09:12.181666,186496110,0,0,0,0,0,15.84,0.19,0,0,0.5,0.006235977,0.01318852,0.02633059
10242,2023-01-20 11:09:12.281644,186596067,0,0,0,0,0,15.99,0.19,0,0,0.5,0.00637299,0.02235718,0.04716578
10274,2023-01-20 11:09:12.381693,186696083,0,0,0,0,0,16.12,0.19,0,0,0.5,0.005861225,0.01582932,0.03041044
10308,2023-01-20 11:09:12.481684,186796087,0,0,0,0,0,16.29,0.19,0,0,0.5,0.007211416,0.02479625,0.05211192
10339,2023-01-20 11:09:12.581661,186896088,0,0,0,0,0,16.42,0.19,0,0,0.5,0.006787694,0.01797736,0.03629074
10371,2023-01-20 11:09:12.681662,186996068,0,0,0,0,0,16.59,0.19,0,0,0.5,0.004684389,0.0273327,0.05888796
10404,2023-01-20 11:09:12.781733,187096108,0,0,0,0,0,16.72,0.19,0,0,0.5,0.003293006,0.01808655,0.03905884
10436,2023-01-20 11:09:12.881701,187196075,0,0,0,0,0,16.89,0.19,0,0,0.5,0.001980403,0.02177536,0.05260158
10469,2023-01-20 11:09:12.981693,187296074,0,0,0,0,0,17.01,0.19,0,0,0.5,0.0006333463,0.01346223,0.03268365
10501,2023-01-20 11:09:13.081693,187396081,0,0,0,0,0,17.17,0.19,0,0,0.5,0.004688463,0.02810142,0.05693402
10533,2023-01-20 11:09:13.181680,187496075,0,0,0,0,0,17.28,0.19,0,0,0.5,0.009026728,0.01998018,0.0336177
10566,2023-01-20 11:09:13.281682,187596068,0,0,0,0,0,17.4,0.19,0,0,0.5,0.01232849,0.03197101,0.05219759
10597,2023-01-20 11:09:13.381709,187696083,0,0,0,0,0,17.48,0.19,0,0,0.5,0.01194661,0.02186194,0.03147307
10631,2023-01-20 11:09:13.481678,187796074,0,0,0,0,0,17.57,0.19,0,0,0.5,0.01042954,0.02007267,0.03874114
10662,2023-01-20 11:09:13.581642,187896067,0,0,0,0,0,17.63,0.19,0,0,0.5,0.01038136,0.01460966,0.02892813
10694,2023-01-20 11:09:13.681668,187996078,0,0,0,0,0,17.7,0.19,0,0,0.5,0.01048731,0.01556261,0.04768491
10727,2023-01-20 11:09:13.781690,188096076,0,0,0,0,0,17.74,0.19,0,0,0.5,0.00949155,0.01011686,0.04328858
10759,2023-01-20 11:09:13.881692,188196070,0,0,0,0,0,17.8,0.19,0,0,0.5,0.009301011,0.02132736,0.06405091
10792,2023-01-20 11:09:13.981708,188296082,0,0,0,0,0,17.82,0.19,0,0,0.5,0.008218694,0.01315936,0.04829184
10824,2023-01-20 11:09:14.081689,188396071,0,0,0,0,0,17.86,0.19,0,0,0.5,0.007064193,0.02201418,0.06572624
10856,2023-01-20 11:09:14.181683,188496075,0,0,0,0,0,17.86,0.19,0,0,0.5,0.006419544,0.0136773,0.04658598
10889,2023-01-20 11:09:14.281693,188596080,0,0,0,0,0,17.88,0.19,0,0,0.5,0.005982607,0.01805277,0.05769178
10922,2023-01-20 11:09:14.381693,188696071,0,0,0,0,0,17.88,0.19,0,0,0.5,0.005558593,0.01008019,0.04049905
10956,2023-01-20 11:09:14.481674,188796074,0,0,0,0,0,17.86,0.19,0,0,0.5,0.004833,0.003003733,0.01921373
10987,2023-01-20 11:09:14.581648,188896077,0,0,0,0,0,17.85,0.19,0,0,0.5,0.003720452,0.004682322,0.01783133
11019,2023-01-20 11:09:14.681663,188996072,0,0,0,0,0,17.84,0.19,0,0,0.5,0.004430667,0.01103198,0.01886424
11052,2023-01-20 11:09:14.781691,189096070,0,0,0,0,0,17.81,0.19,0,0,0.5,0.003763761,0.006078103,0.005120001
11084,2023-01-20 11:09:14.881700,189196090,0,0,0,0,0,17.79,0.19,0,0,0.5,0.003539167,0.01148403,0.02368129
11117,2023-01-20 11:09:14.981671,189296081,0,0,0,0,0,17.75,0.19,0,0,0.5,0.002512149,0.009051026,0.02720566
11149,2023-01-20 11:09:15.081665,189396070,0,0,0,0,0,17.75,0.19,0,0,0.5,0.004216715,0.01104524,0.02870691
11181,2023-01-20 11:09:15.181688,189496083,0,0,0,0,0,17.73,0.19,0,0,0.5,0.002719269,0.007060797,0.02018742
11214,2023-01-20 11:09:15.281694,189596072,0,0,0,0,0,17.73,0.19,0,0,0.5,0.0006724773,0.006127102,0.01578791
11248,2023-01-20 11:09:15.381713,189696072,0,0,0,0,0,17.72,0.19,0,0,0.5,0.0006880997,0.007871281,0.008835496
11282,2023-01-20 11:09:15.481697,189796091,0,0,0,0,0,17.73,0.19,0,0,0.5,0.001989967,0.004087599,0.01572124
11315,2023-01-20 11:09:15.581637,189896078,0,0,0,0,0,17.72,0.19,0,0,0.5,0.001669548,0.00778396,0.006790031
11347,2023-01-20 11:09:15.681658,189996072,0,0,0,0,0,17.72,0.19,0,0,0.5,0.001673674,0.01018389,0.03180313
11380,2023-01-20 11:09:15.781712,190096081,0,0,0,0,0,17.71,0.19,0,0,0.5,0.0007664626,0.007332887,0.01541664
11412,2023-01-20 11:09:15.881710,190196071,0,0,0,0,0,17.71,0.19,0,0,0.5,0.0004345765,0.009031261,0.007377213
11445,2023-01-20 11:09:15.981721,190296082,0,0,0,0,0,17.69,0.19,0,0,0.5,0.0004557839,0.01388678,0.0210006
11477,2023-01-20 11:09:16.081723,190396087,0,0,0,0,0,17.7,0.19,0,0,0.5,0.001455881,0.01530644,0.01701427
11509,2023-01-20 11:09:16.181708,190496075,0,0,0,0,0,17.69,0.19,0,0,0.5,0.001962845,0.01850455,0.02843155
11542,2023-01-20 11:09:16.281705,190596072,0,0,0,0,0,17.69,0.19,0,0,0.5,0.002557815,0.02469403,0.03771703
11573,2023-01-20 11:09:16.381706,190696071,0,0,0,0,0,17.67,0.19,0,0,0.5,0.002054735,0.02415811,0.04459947
11607,2023-01-20 11:09:16.481691,190796070,0,0,0,0,0,17.68,0.19,0,0,0.5,0.003135722,0.02890302,0.04886088
11638,2023-01-20 11:09:16.581676,190896073,0,0,0,0,0,17.68,0.19,0,0,0.5,0.002202119,0.0261211,0.04812903
11670,2023-01-20 11:09:16.681684,190996072,0,0,0,0,0,17.68,0.19,0,0,0.5,0.0009180426,0.03416612,0.06523398
11703,2023-01-20 11:09:16.781713,191096087,0,0,0,0,0,17.68,0.19,0,0,0.5,0.001694056,0.02668665,0.05635036
11735,2023-01-20 11:09:16.881707,191196074,0,0,0,0,0,17.69,0.19,0,0,0.5,0.003445235,0.04449009,0.09228962
11768,2023-01-20 11:09:16.981712,191296074,0,0,0,0,0,17.7,0.19,0,0,0.5,0.006726101,0.03169681,0.06839485
11800,2023-01-20 11:09:17.081707,191396071,0,0,0,0,0,17.72,0.19,0,0,0.5,0.009682301,0.055335,0.1155483
11832,2023-01-20 11:09:17.181705,191496072,0,0,0,0,0,17.73,0.19,0,0,0.5,0.01325627,0.03637029,0.0754618
11865,2023-01-20 11:09:17.281708,191596071,0,0,0,0,0,17.74,0.19,0,0,0.5,0.01889966,0.05371893,0.1100863
11896,2023-01-20 11:09:17.381722,191696078,0,0,0,0,0,17.74,0.19,0,0,0.5,0.02277724,0.033178,0.0664783
11930,2023-01-20 11:09:17.481702,191796084,0,0,0,0,0,17.76,0.19,0,0,0.5,0.02594084,0.05530339,0.1058169
11961,2023-01-20 11:09:17.581656,191896072,0,0,0,0,0,17.76,0.19,0,0,0.5,0.03141288,0.03618867,0.06008126
11993,2023-01-20 11:09:17.681676,191996071,0,0,0,0,0,17.77,0.19,0,0,0.5,0.03749556,0.06044538,0.09049799
12026,2023-01-20 11:09:17.781714,192096075,0,0,0,0,0,17.79,0.19,0,0,0.5,0.03869892,0.04238693,0.04927598
12058,2023-01-20 11:09:17.881715,192196073,0,0,0,0,0,17.8,0.19,0,0,0.5,0.0405767,0.0820875,0.1090512
12091,2023-01-20 11:09:17.981717,192296079,0,0,0,0,0,17.82,0.19,0,0,0.5,0.03903803,0.06071552,0.05873113
12124,2023-01-20 11:09:18.081701,192396080,0,0,0,0,0,17.83,0.19,0,0,0.5,0.03866336,0.1088583,0.148938
12156,2023-01-20 11:09:18.181679,192496077,0,0,0,0,0,17.85,0.19,0,0,0.5,0.0333503,0.07659242,0.08518456
12189,2023-01-20 11:09:18.274343,192596070,0,0,0,0,0,17.87,0.19,0,0,0.5,0.03414227,0.1341804,0.2040237
12220,2023-01-20 11:09:18.365381,192696079,0,0,0,0,0,17.9,0.19,0,0,0.5,0.02807583,0.09266581,0.122857
12254,2023-01-20 11:09:18.461918,192796071,0,0,0,0,0,17.93,0.19,0,0,0.5,0.02808927,0.1644874,0.266299
12285,2023-01-20 11:09:18.561848,192896071,0,0,0,0,0,17.97,0.19,0,0,0.5,0.02301774,0.1114042,0.1649668
12318,2023-01-20 11:09:18.661821,192996071,0,0,0,0,0,18.02,0.19,0,0,0.5,0.02495939,0.1799087,0.2997049
12351,2023-01-20 11:09:18.761825,193096074,0,0,0,0,0,18.07,0.19,0,0,0.5,0.01314259,0.1086203,0.1926005
12383,2023-01-20 11:09:18.861809,193196092,0,0,0,0,0,18.13,0.19,0,0,0.5,0.01765565,0.1874557,0.3359339
12416,2023-01-20 11:09:18.961737,193296076,0,0,0,0,0,18.2,0.19,0,0,0.5,0.01549221,0.1196829,0.2091155
12448,2023-01-20 11:09:19.061722,193396068,0,0,0,0,0,18.28,0.19,0,0,0.5,0.02373022,0.2372928,0.4172715
12480,2023-01-20 11:09:19.161751,193496074,0,0,0,0,0,18.37,0.19,0,0,0.5,0.01855249,0.1485775,0.2617187
12513,2023-01-20 11:09:19.261823,193596077,0,0,0,0,0,18.47,0.19,0,0,0.5,0.023278,0.2426165,0.4280376
12545,2023-01-20 11:09:19.361931,193696087,0,0,0,0,0,18.58,0.19,0,0,0.5,0.01653348,0.1449808,0.2629574
12580,2023-01-20 11:09:19.461859,193796072,0,0,0,0,0,18.67,0.19,0,0,0.5,0.01813478,0.2006554,0.3655622
12611,2023-01-20 11:09:19.561710,193896076,0,0,0,0,0,18.77,0.19,0,0,0.5,0.01303875,0.1119082,0.2083392
12644,2023-01-20 11:09:19.661668,193996072,0,0,0,0,0,18.85,0.19,0,0,0.5,0.01983031,0.2158443,0.3871501
12678,2023-01-20 11:09:19.761703,194096072,0,0,0,0,0,18.94,0.19,0,0,0.5,0.01544655,0.1201902,0.2194904
12710,2023-01-20 11:09:19.861708,194196071,0,0,0,0,0,19.01,0.19,0,0,0.5,0.01383335,0.1274528,0.244221
12743,2023-01-20 11:09:19.961701,194296074,0,0,0,0,0,19.11,0.19,0,0,0.5,0.01002027,0.06308203,0.119883
12776,2023-01-20 11:09:20.061706,194396076,0,0,0,0,0,19.18,0.19,0,0,0.5,0.01045629,0.07906554,0.1540226
12808,2023-01-20 11:09:20.161720,194496077,0,0,0,0,0,19.28,0.19,0,0,0.5,0.009103762,0.04228483,0.07193187
12840,2023-01-20 11:09:20.261712,194596071,0,0,0,0,0,19.35,0.19,0,0,0.5,0.01272116,0.08938127,0.1677785
12872,2023-01-20 11:09:20.361708,194696077,0,0,0,0,0,19.44,0.19,0,0,0.5,0.01186662,0.05456955,0.09595031
12906,2023-01-20 11:09:20.461686,194796073,0,0,0,0,0,19.5,0.19,0,0,0.5,0.01457272,0.1051977,0.2039822
12939,2023-01-20 11:09:20.561663,194896072,0,0,0,0,0,19.59,0.19,0,0,0.5,0.01306606,0.06058027,0.1140513
12972,2023-01-20 11:09:20.661683,194996088,0,0,0,0,0,19.64,0.19,0,0,0.5,0.01637588,0.1279868,0.251482
13005,2023-01-20 11:09:20.761687,195096070,0,0,0,0,0,19.74,0.19,0,0,0.5,0.01381411,0.07371752,0.1402594
13037,2023-01-20 11:09:20.861702,195196079,0,0,0,0,0,19.78,0.19,0,0,0.5,0.01379967,0.1362944,0.2757638
13070,2023-01-20 11:09:20.961705,195296084,0,0,0,0,0,19.87,0.19,0,0,0.5,0.01126877,0.08447556,0.1631787
13103,2023-01-20 11:09:21.061692,195396071,0,0,0,0,0,19.9,0.19,0,0,0.5,0.01157296,0.1068369,0.2146221
13134,2023-01-20 11:09:21.161697,195496074,0,0,0,0,0,19.98,0.19,0,0,0.5,0.01017491,0.08117292,0.1451418
13168,2023-01-20 11:09:21.261705,195596081,0,0,0,0,0,20.01,0.19,0,0,0.5,0.0100603,0.1110698,0.218432
13200,2023-01-20 11:09:21.361696,195696072,0,0,0,0,0,20.08,0.19,0,0,0.5,0.01009089,0.08995052,0.1618935
13234,2023-01-20 11:09:21.461698,195796102,0,0,0,0,0,20.1,0.19,0,0,0.5,0.01124329,0.09955335,0.2072722
13265,2023-01-20 11:09:21.561641,195896091,0,0,0,0,0,20.18,0.19,0,0,0.5,0.01059929,0.08106998,0.1480069
13298,2023-01-20 11:09:21.661631,195996068,0,0,0,0,0,20.21,0.19,0,0,0.5,0.009873825,0.08775173,0.2031348
13331,2023-01-20 11:09:21.761686,196096072,0,0,0,0,0,20.29,0.19,0,0,0.5,0.00969637,0.06494949,0.1247908
13363,2023-01-20 11:09:21.861711,196196080,0,0,0,0,0,20.32,0.19,0,0,0.5,0.009116267,0.07070141,0.1843825
13396,2023-01-20 11:09:21.961700,196296073,0,0,0,0,0,20.39,0.19,0,0,0.5,0.008672373,0.05217027,0.1017255
13429,2023-01-20 11:09:22.061693,196396080,0,0,0,0,0,20.43,0.19,0,0,0.5,0.009233154,0.084906,0.1602963
13460,2023-01-20 11:09:22.161677,196496085,0,0,0,0,0,20.51,0.19,0,0,0.5,0.008868603,0.08359752,0.1347302
13494,2023-01-20 11:09:22.261667,196596071,0,0,0,0,0,20.58,0.19,0,0,0.5,0.008981558,0.08911942,0.1314323
13526,2023-01-20 11:09:22.361688,196696072,0,0,0,0,0,20.67,0.19,0,0,0.5,0.008513647,0.09757739,0.1545548
13560,2023-01-20 11:09:22.461691,196796083,0,0,0,0,0,20.74,0.19,0,0,0.5,0.008077751,0.08482593,0.1254745
13591,2023-01-20 11:09:22.561657,196896074,0,0,0,0,0,20.82,0.19,0,0,0.5,0.007697946,0.09172176,0.1466667
13624,2023-01-20 11:09:22.661656,196996067,0,0,0,0,0,20.88,0.19,0,0,0.5,0.007756845,0.09427855,0.1506957
13657,2023-01-20 11:09:22.761694,197096081,0,0,0,0,0,20.97,0.19,0,0,0.5,0.007695641,0.0970113,0.1638811
13689,2023-01-20 11:09:22.861695,197196071,0,0,0,0,0,21.04,0.19,0,0,0.5,0.00785921,0.09497767,0.153706
13722,2023-01-20 11:09:22.961698,197296071,0,0,0,0,0,21.13,0.19,0,0,0.5,0.008456987,0.09828065,0.1675411
13755,2023-01-20 11:09:23.061711,197396081,0,0,0,0,0,21.2,0.19,0,0,0.5,0.006590921,0.06302275,0.1007804
13786,2023-01-20 11:09:23.161708,197496075,0,0,0,0,0,21.31,0.19,0,0,0.5,0.005735186,0.07194872,0.1211299
13820,2023-01-20 11:09:23.261696,197596067,0,0,0,0,0,21.4,0.19,0,0,0.5,0.004514326,0.03019221,0.04266653
13852,2023-01-20 11:09:23.361701,197696081,0,0,0,0,0,21.5,0.19,0,0,0.5,0.005266659,0.05375563,0.07363753
13886,2023-01-20 11:09:23.461685,197796077,0,0,0,0,0,21.59,0.19,0,0,0.5,0.005359672,0.03718996,0.0323109
13917,2023-01-20 11:09:23.561682,197896087,0,0,0,0,0,21.7,0.19,0,0,0.5,0.005599742,0.0579818,0.08294429
13950,2023-01-20 11:09:23.661678,197996074,0,0,0,0,0,21.78,0.19,0,0,0.5,0.004980613,0.0479171,0.059484
13983,2023-01-20 11:09:23.761700,198096073,0,0,0,0,0,21.89,0.19,0,0,0.5,0.004702366,0.0599561,0.09727203
14015,2023-01-20 11:09:23.861703,198196071,0,0,0,0,0,22.01,0.19,0,0,0.5,0.003821395,0.03647713,0.03796294
14048,2023-01-20 11:09:23.961705,198296080,0,0,0,0,0,22.11,0.19,0,0,0.5,0.00392295,0.04967317,0.07638172
14081,2023-01-20 11:09:24.061682,198396071,0,0,0,0,0,22.22,0.19,0,0,0.5,0.004275318,0.05952172,0.08355319
14112,2023-01-20 11:09:24.161675,198496084,0,0,0,0,0,22.34,0.19,0,0,0.5,0.003868039,0.06606417,0.1201466
14146,2023-01-20 11:09:24.261675,198596075,0,0,0,0,0,22.45,0.19,0,0,0.5,0.003330454,0.04630222,0.06499919
14178,2023-01-20 11:09:24.361698,198696071,0,0,0,0,0,22.56,0.19,0,0,0.5,0.003394676,0.05732137,0.1057692
14212,2023-01-20 11:09:24.461694,198796075,0,0,0,0,0,22.65,0.19,0,0,0.5,0.004071465,0.06267688,0.1003736
14244,2023-01-20 11:09:24.561657,198896067,0,0,0,0,0,22.76,0.19,0,0,0.5,0.004012336,0.06427688,0.122531
14277,2023-01-20 11:09:24.661654,198996072,0,0,0,0,0,22.87,0.19,0,0,0.5,0.002943997,0.04063515,0.06090507
14310,2023-01-20 11:09:24.761668,199096080,0,0,0,0,0,22.97,0.19,0,0,0.5,0.002966429,0.05028236,0.09681603
14342,2023-01-20 11:09:24.861669,199196067,0,0,0,0,0,23.06,0.19,0,0,0.5,0.001998277,0.02136099,0.02501827
14375,2023-01-20 11:09:24.961691,199296070,0,0,0,0,0,23.14,0.19,0,0,0.5,0.001825427,0.03381056,0.07043064
14408,2023-01-20 11:09:25.061700,199396072,0,0,0,0,0,23.22,0.19,0,0,0.5,0.001177125,0.009698923,0.034008
14439,2023-01-20 11:09:25.161720,199496091,0,0,0,0,0,23.31,0.19,0,0,0.5,0.001421657,0.016679,0.04745299
14473,2023-01-20 11:09:25.261706,199596071,0,0,0,0,0,23.39,0.19,0,0,0.5,0.001722096,0.01401957,0.03823676
14505,2023-01-20 11:09:25.361727,199696083,0,0,0,0,0,23.46,0.19,0,0,0.5,0.001827337,0.02630503,0.07263287
14539,2023-01-20 11:09:25.461708,199796082,0,0,0,0,0,23.53,0.19,0,0,0.5,0.001921995,0.01733356,0.05932679
14572,2023-01-20 11:09:25.561656,199896067,0,0,0,0,0,23.59,0.19,0,0,0.5,0.001975327,0.02945204,0.08723429
14605,2023-01-20 11:09:25.661662,199996071,0,0,0,0,0,23.68,0.19,0,0,0.5,0.001295767,0.009556643,0.04101789
14638,2023-01-20 11:09:25.761688,200096071,0,0,0,0,0,23.76,0.19,0,0,0.5,0.001219836,0.01269697,0.05168884
14670,2023-01-20 11:09:25.861698,200196068,0,0,0,0,0,23.84,0.19,0,0,0.5,0.001539171,0.006329761,0.04069858
14703,2023-01-20 11:09:25.961710,200296074,0,0,0,0,0,23.91,0.19,0,0,0.5,0.001989962,0.01814202,0.07041381
14736,2023-01-20 11:09:26.061694,200396072,0,0,0,0,0,23.97,0.19,0,0,0.5,0.001772931,0.009183735,0.05978638
14767,2023-01-20 11:09:26.161669,200496073,0,0,0,0,0,24.04,0.19,0,0,0.5,0.001259071,0.01313446,0.06800099
14801,2023-01-20 11:09:26.261672,200596070,0,0,0,0,0,24.12,0.19,0,0,0.5,0.001049757,0.01960547,0.06557284
14833,2023-01-20 11:09:26.361701,200696074,0,0,0,0,0,24.19,0.19,0,0,0.5,0.001267,0.02810248,0.08294887
14867,2023-01-20 11:09:26.461693,200796074,0,0,0,0,0,24.25,0.19,0,0,0.5,0.001892643,0.01102325,0.05120351
14898,2023-01-20 11:09:26.561671,200896083,0,0,0,0,0,24.33,0.19,0,0,0.5,0.00190078,0.02555617,0.06728022
14931,2023-01-20 11:09:26.661651,200996072,0,0,0,0,0,24.39,0.19,0,0,0.5,0.001340402,0.01013918,0.04705228
14964,2023-01-20 11:09:26.761662,201096080,0,0,0,0,0,24.48,0.19,0,0,0.5,0.001165688,0.02049935,0.05228983
14996,2023-01-20 11:09:26.861679,201196077,0,0,0,0,0,24.54,0.19,0,0,0.5,0.001344388,0.02995566,0.0877318
15029,2023-01-20 11:09:26.961711,201296078,0,0,0,0,0,24.63,0.19,0,0,0.5,0.001419331,0.01675957,0.04286045
15062,2023-01-20 11:09:27.061710,201396071,0,0,0,0,0,24.71,0.19,0,0,0.5,0.001284596,0.01822324,0.06521123
15093,2023-01-20 11:09:27.161715,201496085,0,0,0,0,0,24.78,0.19,0,0,0.5,0.001415017,0.01636277,0.03861786
15127,2023-01-20 11:09:27.261690,201596071,0,0,0,0,0,24.84,0.19,0,0,0.5,0.001716181,0.0131702,0.06132788
15159,2023-01-20 11:09:27.361683,201696075,0,0,0,0,0,24.93,0.19,0,0,0.5,0.001459134,0.02020031,0.05675806
15193,2023-01-20 11:09:27.461700,201796091,0,0,0,0,0,25.03,0.19,0,0,0.5,0.001239106,0.00788349,0.04215613
15224,2023-01-20 11:09:27.561692,201896074,0,0,0,0,0,25.12,0.19,0,0,0.5,0.001013888,0.01392063,0.04945122
15257,2023-01-20 11:09:27.661702,201996077,0,0,0,0,0,25.21,0.19,0,0,0.5,0.0007582675,0.0134938,0.0501629
15290,2023-01-20 11:09:27.761716,202096085,0,0,0,0,0,25.32,0.19,0,0,0.5,0.0007416298,0.02120126,0.06612957
15322,2023-01-20 11:09:27.861724,202196091,0,0,0,0,0,25.4,0.19,0,0,0.5,0.001007256,0.02426665,0.06749193
15356,2023-01-20 11:09:27.961723,202296090,0,0,0,0,0,25.51,0.19,0,0,0.5,0.0007787415,0.01549665,0.05478789
15388,2023-01-20 11:09:28.061726,202396089,0,0,0,0,0,25.61,0.19,0,0,0.5,0.0006996936,0.01528052,0.05090524
15419,2023-01-20 11:09:28.161716,202496073,0,0,0,0,0,25.7,0.19,0,0,0.5,0.0005112746,0.01735144,0.06402478
15453,2023-01-20 11:09:28.261714,202596072,0,0,0,0,0,25.77,0.19,0,0,0.5,0.0008234012,0.0200582,0.06855601
15485,2023-01-20 11:09:28.361719,202696083,0,0,0,0,0,25.85,0.19,0,0,0.5,0.0009348934,0.02228003,0.08548508
15519,2023-01-20 11:09:28.456124,202796090,0,0,0,0,0,25.93,0.19,0,0,0.5,0.001082261,0.01377951,0.06770324
15550,2023-01-20 11:09:28.547036,202896074,0,0,0,0,0,26.04,0.19,0,0,0.5,0.001086395,0.01424983,0.07113133
15583,2023-01-20 11:09:28.641755,202996077,0,0,0,0,0,26.13,0.19,0,0,0.5,0.0008850544,0.006837166,0.0485012
15616,2023-01-20 11:09:28.741749,203096070,0,0,0,0,0,26.21,0.19,0,0,0.5,0.0009265598,0.008309849,0.07095302
15648,2023-01-20 11:09:28.841750,203196071,0,0,0,0,0,26.29,0.19,0,0,0.5,0.001311418,0.01904782,0.05397687
15682,2023-01-20 11:09:28.941761,203296083,0,0,0,0,0,26.39,0.19,0,0,0.5,0.0009818304,0.00584357,0.04540885
15714,2023-01-20 11:09:29.041750,203396071,0,0,0,0,0,26.46,0.19,0,0,0.5,0.0009626057,0.02074758,0.05657765
15745,2023-01-20 11:09:29.141762,203496076,0,0,0,0,0,26.54,0.19,0,0,0.5,0.0007200525,0.01293258,0.04665548
15779,2023-01-20 11:09:29.241751,203596072,0,0,0,0,0,26.61,0.19,0,0,0.5,0.0008417621,0.01627499,0.0490276
15811,2023-01-20 11:09:29.341729,203696075,0,0,0,0,0,26.69,0.19,0,0,0.5,0.0006769089,0.009905753,0.04327223
15845,2023-01-20 11:09:29.441703,203796070,0,0,0,0,0,26.75,0.19,0,0,0.5,0.001250245,0.02241944,0.06389885
15876,2023-01-20 11:09:29.541696,203896078,0,0,0,0,0,26.82,0.19,0,0,0.5,0.0008142175,0.009804416,0.04437106
15910,2023-01-20 11:09:29.641726,203996071,0,0,0,0,0,26.91,0.19,0,0,0.5,0.0004881867,0.01214682,0.03712801
15944,2023-01-20 11:09:29.741863,204096097,0,0,0,0,0,26.99,0.19,0,0,0.5,0.0002166459,0.01991131,0.05686067
15976,2023-01-20 11:09:29.841872,204196071,0,0,0,0,0,27.07,0.19,0,0,0.5,0.0008846236,0.01608899,0.04645203
16010,2023-01-20 11:09:29.941819,204296088,0,0,0,0,0,27.16,0.19,0,0,0.5,0.0006936825,0.0114214,0.03469963
16042,2023-01-20 11:09:30.041755,204396084,0,0,0,0,0,27.24,0.19,0,0,0.5,0.000925321,0.02645558,0.05266663
16073,2023-01-20 11:09:30.141712,204496086,0,0,0,0,0,27.32,0.19,0,0,0.5,0.0008503077,0.02883362,0.05665845
16107,2023-01-20 11:09:30.241678,204596072,0,0,0,0,0,27.4,0.19,0,0,0.5,0.000701363,0.02659439,0.05265078
16139,2023-01-20 11:09:30.341706,204696084,0,0,0,0,0,27.49,0.19,0,0,0.5,0.000502169,0.02858428,0.06274101
16173,2023-01-20 11:09:30.441694,204796071,0,0,0,0,0,27.53,0.19,0,0,0.5,0.0007118279,0.02718798,0.07615954
16206,2023-01-20 11:09:30.541685,204896080,0,0,0,0,0,27.61,0.19,0,0,0.5,0.0005774532,0.02522057,0.06665959
16239,2023-01-20 11:09:30.641673,204996081,0,0,0,0,0,27.68,0.19,0,0,0.5,0.000880276,0.02544342,0.07628862
16272,2023-01-20 11:09:30.741665,205096079,0,0,0,0,0,27.77,0.19,0,0,0.5,0.0006601372,0.01717644,0.04755948
16304,2023-01-20 11:09:30.841669,205196071,0,0,0,0,0,27.88,0.19,0,0,0.5,0.0007778691,0.03799203,0.06584677
16381,2023-01-20 11:09:30.941724,205296091,0,0,0,0,0,27.98,0.19,0,0,0.5,0.000840811,0.03915603,0.08051933
16413,2023-01-20 11:09:31.041717,205396067,0,0,0,0,0,28.06,0.19,0,0,0.5,0.0007830267,0.01737302,0.03020998
16444,2023-01-20 11:09:31.141721,205496077,0,0,0,0,0,28.16,0.19,0,0,0.5,0.0007688146,0.02166314,0.04046028
16478,2023-01-20 11:09:31.241731,205596094,0,0,0,0,0,28.28,0.19,0,0,0.5,0.0006011909,0.03113048,0.05312336
16510,2023-01-20 11:09:31.341720,205696091,0,0,0,0,0,28.38,0.19,0,0,0.5,0.0006478026,0.03342234,0.07098196
16543,2023-01-20 11:09:31.441696,205796078,0,0,0,0,0,28.48,0.19,0,0,0.5,0.00095739,0.02794934,0.0462647
16574,2023-01-20 11:09:31.541686,205896084,0,0,0,0,0,28.58,0.19,0,0,0.5,0.000787727,0.02559143,0.05357118
16607,2023-01-20 11:09:31.641667,205996067,0,0,0,0,0,28.69,0.19,0,0,0.5,0.0008333739,0.02212749,0.04443134
16640,2023-01-20 11:09:31.741692,206096072,0,0,0,0,0,28.81,0.19,0,0,0.5,0.0006003361,0.01341684,0.04184332
16672,2023-01-20 11:09:31.841718,206196085,0,0,0,0,0,28.9,0.19,0,0,0.5,0.0008274592,0.03344126,0.07348585
16706,2023-01-20 11:09:31.941715,206296079,0,0,0,0,0,29.01,0.19,0,0,0.5,0.0009364806,0.03271047,0.07596599
16738,2023-01-20 11:09:32.041709,206396071,0,0,0,0,0,29.08,0.19,0,0,0.5,0.002595528,0.09331435,0.1944216
16769,2023-01-20 11:09:32.141729,206496090,0,0,0,0,0,29.19,0.19,0,0,0.5,0.001868581,0.06866361,0.1567121
16803,2023-01-20 11:09:32.241714,206596077,0,0,0,0,0,29.28,0.19,0,0,0.5,0.0007933358,0.04926557,0.1198037
16835,2023-01-20 11:09:32.341707,206696076,0,0,0,0,0,29.39,0.19,0,0,0.5,0.000431913,0.0331651,0.0968809
16869,2023-01-20 11:09:32.441709,206796090,0,0,0,0,0,29.49,0.19,0,0,0.5,0.0007017251,0.0188441,0.05449059
16900,2023-01-20 11:09:32.541674,206896075,0,0,0,0,0,29.58,0.19,0,0,0.5,0.0006354175,0.01980387,0.0567215
16933,2023-01-20 11:09:32.641653,206996067,0,0,0,0,0,29.69,0.19,0,0,0.5,0.0009736937,0.01381159,0.02797281
16966,2023-01-20 11:09:32.741663,207096080,0,0,0,0,0,29.79,0.19,0,0,0.5,0.0007728197,0.01107675,0.03446783
16998,2023-01-20 11:09:32.841674,207196080,0,0,0,0,0,29.9,0.19,0,0,0.5,0.0005984314,0.01055744,0.03089033
17032,2023-01-20 11:09:32.941697,207296073,0,0,0,0,0,30.01,0.19,0,0,0.5,0.0004166232,0.009826921,0.03926037
17064,2023-01-20 11:09:33.041721,207396080,0,0,0,0,0,30.11,0.19,0,0,0.5,0.0007532267,0.0124822,0.03142694
17095,2023-01-20 11:09:33.141719,207496077,0,0,0,0,0,30.22,0.19,0,0,0.5,0.0005398407,0.008103182,0.03488265
17129,2023-01-20 11:09:33.241700,207596071,0,0,0,0,0,30.32,0.19,0,0,0.5,0.0004453147,0.004922598,0.0288778
17161,2023-01-20 11:09:33.341682,207696085,0,0,0,0,0,30.41,0.19,0,0,0.5,0.0004536543,0.009713951,0.0383748
17195,2023-01-20 11:09:33.441692,207796113,0,0,0,0,0,30.51,0.19,0,0,0.5,0.0006035159,0.005562489,0.02822605
17226,2023-01-20 11:09:33.541655,207896074,0,0,0,0,0,30.6,0.19,0,0,0.5,0.0005258662,0.009599123,0.03806169
17259,2023-01-20 11:09:33.641674,207996083,0,0,0,0,0,30.69,0.19,0,0,0.5,0.0008976793,0.01245377,0.02324581
17292,2023-01-20 11:09:33.741694,208096080,0,0,0,0,0,30.78,0.19,0,0,0.5,0.0006921147,0.003979254,0.0186666
17324,2023-01-20 11:09:33.841701,208196071,0,0,0,0,0,30.88,0.19,0,0,0.5,0.001469873,0.03995443,0.07970271
17358,2023-01-20 11:09:33.941718,208296081,0,0,0,0,0,30.97,0.19,0,0,0.5,0.001079419,0.02332692,0.04329148
17390,2023-01-20 11:09:34.041721,208396079,0,0,0,0,0,31.07,0.19,0,0,0.5,0.0009588787,0.03792758,0.07897559
17421,2023-01-20 11:09:34.141734,208496089,0,0,0,0,0,31.16,0.19,0,0,0.5,0.0004650288,0.02198157,0.04656046
17455,2023-01-20 11:09:34.241726,208596081,0,0,0,0,0,31.25,0.19,0,0,0.5,0.0007050949,0.02985927,0.0635302
17487,2023-01-20 11:09:34.341719,208696075,0,0,0,0,0,31.34,0.19,0,0,0.5,0.0006230694,0.01544782,0.03454787
17521,2023-01-20 11:09:34.441733,208796100,0,0,0,0,0,31.45,0.19,0,0,0.5,0.000734995,0.03125826,0.06879847
17552,2023-01-20 11:09:34.541692,208896083,0,0,0,0,0,31.53,0.19,0,0,0.5,0.0004407978,0.0176411,0.04054109
17585,2023-01-20 11:09:34.641683,208996080,0,0,0,0,0,31.62,0.19,0,0,0.5,0.001215793,0.03316707,0.06686823
17619,2023-01-20 11:09:34.741696,209096074,0,0,0,0,0,31.7,0.19,0,0,0.5,0.0007869306,0.01725738,0.0315802
17651,2023-01-20 11:09:34.841714,209196079,0,0,0,0,0,31.79,0.19,0,0,0.5,0.001160522,0.03461057,0.06658391
17685,2023-01-20 11:09:34.941713,209296074,0,0,0,0,0,31.87,0.19,0,0,0.5,0.0007157794,0.01596555,0.02832486
17717,2023-01-20 11:09:35.041716,209396074,0,0,0,0,0,31.96,0.19,0,0,0.5,0.0005180964,0.01844031,0.0384183
17748,2023-01-20 11:09:35.141735,209496094,0,0,0,0,0,32.05,0.19,0,0,0.5,0.0001975049,0.01044313,0.02630077
17782,2023-01-20 11:09:35.241696,209596068,0,0,0,0,0,32.14,0.19,0,0,0.5,0.001055051,0.03002943,0.05594742
17814,2023-01-20 11:09:35.341680,209696082,0,0,0,0,0,32.22,0.19,0,0,0.5,0.0008291011,0.01660934,0.0310789
17848,2023-01-20 11:09:35.441687,209796100,0,0,0,0,0,32.29,0.19,0,0,0.5,0.001405279,0.03535643,0.06929493
17881,2023-01-20 11:09:35.541681,209896076,0,0,0,0,0,32.36,0.19,0,0,0.5,0.0008143705,0.01419649,0.03229821
17914,2023-01-20 11:09:35.641696,209996078,0,0,0,0,0,32.45,0.19,0,0,0.5,0.0009953914,0.025417,0.05140569
17947,2023-01-20 11:09:35.741724,210096097,0,0,0,0,0,32.52,0.19,0,0,0.5,0.0007850833,0.005721414,0.01874523
17979,2023-01-20 11:09:35.841697,210196072,0,0,0,0,0,32.6,0.19,0,0,0.5,0.00106502,0.02841955,0.05777083
18013,2023-01-20 11:09:35.941681,210296071,0,0,0,0,0,32.68,0.19,0,0,0.5,0.00077564,0.009797663,0.02408912
18045,2023-01-20 11:09:36.041685,210396074,0,0,0,0,0,32.75,0.19,0,0,0.5,0.0006813408,0.008685993,0.0278031
18076,2023-01-20 11:09:36.141712,210496078,0,0,0,0,0,32.83,0.19,0,0,0.5,0.0007326122,0.01146635,0.03720989
18110,2023-01-20 11:09:36.241715,210596068,0,0,0,0,0,32.92,0.19,0,0,0.5,0.001028951,0.01289477,0.0209517
18142,2023-01-20 11:09:36.341726,210696079,0,0,0,0,0,33,0.19,0,0,0.5,0.001012601,0.01134201,0.02841739
18176,2023-01-20 11:09:36.437982,210796101,0,0,0,0,0,33.09,0.19,0,0,0.5,0.001393947,0.01835085,0.0285179
18207,2023-01-20 11:09:36.528947,210896085,0,0,0,0,0,33.17,0.19,0,0,0.5,0.001135988,0.01858409,0.0388904
18240,2023-01-20 11:09:36.621890,210996071,0,0,0,0,0,33.26,0.19,0,0,0.5,0.001202362,0.02701156,0.05004194
18273,2023-01-20 11:09:36.721901,211096079,0,0,0,0,0,33.34,0.19,0,0,0.5,0.001047265,0.0202796,0.04360021
18305,2023-01-20 11:09:36.821904,211196076,0,0,0,0,0,33.42,0.19,0,0,0.5,0.001078236,0.01868887,0.03579115
18339,2023-01-20 11:09:36.921934,211296092,0,0,0,0,0,33.5,0.19,0,0,0.5,0.0008954901,0.01617688,0.03617944
18371,2023-01-20 11:09:37.021921,211396072,0,0,0,0,0,33.59,0.19,0,0,0.5,0.0008194054,0.01639316,0.04014467
18402,2023-01-20 11:09:37.121925,211496092,0,0,0,0,0,33.69,0.19,0,0,0.5,0.0009201271,0.02399447,0.05584713
18436,2023-01-20 11:09:37.221880,211596067,0,0,0,0,0,33.76,0.19,0,0,0.5,0.0009310379,0.01111992,0.02686096
18468,2023-01-20 11:09:37.321862,211696081,0,0,0,0,0,33.85,0.19,0,0,0.5,0.0008203161,0.01035987,0.03289897
18502,2023-01-20 11:09:37.424267,211796104,0,0,0,0,0,33.95,0.19,0,0,0.5,0.001021819,0.01194813,0.01957818
18533,2023-01-20 11:09:37.535254,211896078,0,0,0,0,0,34.05,0.19,0,0,0.5,0.0007434585,0.004912522,0.02073323
18566,2023-01-20 11:09:37.637891,211996071,0,0,0,0,0,34.16,0.19,0,0,0.5,0.0001851785,0.01562047,0.04359157
18599,2023-01-20 11:09:37.728838,212096090,0,0,0,0,0,34.26,0.19,0,0,0.5,0.0004293192,0.01974777,0.05232626
18631,2023-01-20 11:09:37.821722,212196068,0,0,0,0,0,34.37,0.19,0,0,0.5,0.0004757272,0.009274649,0.03083299
18665,2023-01-20 11:09:37.921749,212296077,0,0,0,0,0,34.47,0.19,0,0,0.5,0.0004157785,0.01471551,0.04065699
18697,2023-01-20 11:09:38.021763,212396079,0,0,0,0,0,34.57,0.19,0,0,0.5,0.0003424943,0.01450802,0.04183799
18728,2023-01-20 11:09:38.121763,212496091,0,0,0,0,0,34.66,0.19,0,0,0.5,0.0002137657,0.01765607,0.04821413
18762,2023-01-20 11:09:38.221745,212596086,0,0,0,0,0,34.77,0.19,0,0,0.5,0.0006550711,0.01445792,0.02947966
18794,2023-01-20 11:09:38.321735,212696092,0,0,0,0,0,34.86,0.19,0,0,0.5,0.0005279998,0.01064172,0.02889461
18828,2023-01-20 11:09:38.421698,212796071,0,0,0,0,0,34.97,0.19,0,0,0.5,0.0008105848,0.02621695,0.05468985
18859,2023-01-20 11:09:38.521684,212896073,0,0,0,0,0,35.06,0.19,0,0,0.5,0.0006250555,0.01567434,0.03498013
18892,2023-01-20 11:09:38.621684,212996082,0,0,0,0,0,35.16,0.19,0,0,0.5,0.0005811893,0.02207861,0.04800601
18925,2023-01-20 11:09:38.721696,213096082,0,0,0,0,0,35.26,0.19,0,0,0.5,0.0003683332,0.01609914,0.03612155
18957,2023-01-20 11:09:38.821697,213196071,0,0,0,0,0,35.36,0.19,0,0,0.5,0.0006687058,0.01644331,0.03041638
18991,2023-01-20 11:09:38.921729,213296091,0,0,0,0,0,35.45,0.19,0,0,0.5,0.0006214581,0.01171546,0.02224464
19023,2023-01-20 11:09:39.021717,213396071,0,0,0,0,0,35.53,0.19,0,0,0.5,0.0003997106,0.007272052,0.02321251
19054,2023-01-20 11:09:39.121716,213496074,0,0,0,0,0,35.62,0.19,0,0,0.5,0.0002380564,0.01138983,0.03368425
19088,2023-01-20 11:09:39.221714,213596081,0,0,0,0,0,35.7,0.19,0,0,0.5,0.0003417325,0.02165466,0.04722846
19120,2023-01-20 11:09:39.321691,213696082,0,0,0,0,0,35.78,0.19,0,0,0.5,0.0003375973,0.01841973,0.04376666
19154,2023-01-20 11:09:39.421696,213796105,0,0,0,0,0,35.87,0.19,0,0,0.5,0.0008374083,0.02305739,0.04118755
19185,2023-01-20 11:09:39.521684,213896089,0,0,0,0,0,35.96,0.19,0,0,0.5,0.0008079655,0.01213856,0.01793075
19218,2023-01-20 11:09:39.621671,213996070,0,0,0,0,0,36.05,0.19,0,0,0.5,0.0007211639,0.01599555,0.0272146
19252,2023-01-20 11:09:39.721684,214096071,0,0,0,0,0,36.14,0.19,0,0,0.5,0.0004557431,0.009173259,0.01447249
19287,2023-01-20 11:09:39.821704,214196079,0,0,0,0,0,36.23,0.19,0,0,0.5,0.0006557304,0.01703492,0.02690146
19321,2023-01-20 11:09:39.921719,214296082,0,0,0,0,0,36.33,0.19,0,0,0.5,0.0006178796,0.01157579,0.01686085
19353,2023-01-20 11:09:40.021724,214396079,0,0,0,0,0,36.42,0.19,0,0,0.5,0.001219302,0.0316332,0.05866271
19384,2023-01-20 11:09:40.121736,214496095,0,0,0,0,0,36.51,0.19,0,0,0.5,0.0009191871,0.01470307,0.0251242
19418,2023-01-20 11:09:40.221709,214596072,0,0,0,0,0,36.59,0.19,0,0,0.5,0.001965943,0.07293577,0.1521346
19450,2023-01-20 11:09:40.321710,214696075,0,0,0,0,0,36.68,0.19,0,0,0.5,0.001588293,0.04343076,0.09066449
19484,2023-01-20 11:09:40.421710,214796081,0,0,0,0,0,36.77,0.19,0,0,0.5,0.0009340986,0.02977421,0.06098159
19517,2023-01-20 11:09:40.521687,214896079,0,0,0,0,0,36.87,0.19,0,0,0.5,0.0004602189,0.01727318,0.02987841
19550,2023-01-20 11:09:40.621675,214996079,0,0,0,0,0,36.96,0.19,0,0,0.5,0.001042359,0.03544526,0.06991546
19583,2023-01-20 11:09:40.721688,215096075,0,0,0,0,0,37.05,0.19,0,0,0.5,0.000911602,0.01874997,0.03264681
19615,2023-01-20 11:09:40.821700,215196072,0,0,0,0,0,37.15,0.19,0,0,0.5,0.001080891,0.025372,0.0515372
19649,2023-01-20 11:09:40.921718,215296078,0,0,0,0,0,37.23,0.19,0,0,0.5,0.0008155084,0.01133657,0.01747543
19681,2023-01-20 11:09:41.021727,215396078,0,0,0,0,0,37.33,0.19,0,0,0.5,0.0008176418,0.02105659,0.03856562
19712,2023-01-20 11:09:41.121747,215496100,0,0,0,0,0,37.41,0.19,0,0,0.5,0.0007434075,0.01451391,0.02426701
19746,2023-01-20 11:09:41.221711,215596072,0,0,0,0,0,37.5,0.19,0,0,0.5,0.0008293747,0.01586935,0.02545177
19778,2023-01-20 11:09:41.321683,215696076,0,0,0,0,0,37.59,0.19,0,0,0.5,0.0006780907,0.009548766,0.01795014
19812,2023-01-20 11:09:41.421662,215796078,0,0,0,0,0,37.7,0.19,0,0,0.5,0.0009718356,0.01542903,0.02751428
19843,2023-01-20 11:09:41.521667,215896075,0,0,0,0,0,37.79,0.19,0,0,0.5,0.0007636834,0.004082538,0.01607816
19876,2023-01-20 11:09:41.621671,215996071,0,0,0,0,0,37.9,0.19,0,0,0.5,0.001399619,0.03309899,0.06600766
19909,2023-01-20 11:09:41.721688,216096080,0,0,0,0,0,37.99,0.19,0,0,0.5,0.00110486,0.01408855,0.03124683
19941,2023-01-20 11:09:41.821684,216196071,0,0,0,0,0,38.08,0.19,0,0,0.5,0.0008538882,0.01666504,0.03890267
19975,2023-01-20 11:09:41.921690,216296081,0,0,0,0,0,38.18,0.19,0,0,0.5,0.0005487218,0.007501227,0.0259497
20007,2023-01-20 11:09:42.021678,216396068,0,0,0,0,0,38.29,0.19,0,0,0.5,0.000664532,0.01668299,0.04442683
20038,2023-01-20 11:09:42.121709,216496082,0,0,0,0,0,38.37,0.19,0,0,0.5,0.0005549409,0.0128179,0.03967959
20072,2023-01-20 11:09:42.221709,216596071,0,0,0,0,0,38.47,0.19,0,0,0.5,0.0006643075,0.01909289,0.05124759
20104,2023-01-20 11:09:42.321703,216696073,0,0,0,0,0,38.56,0.19,0,0,0.5,0.0005304182,0.01572852,0.04580719
20138,2023-01-20 11:09:42.421707,216796087,0,0,0,0,0,38.66,0.19,0,0,0.5,0.0007769266,0.02368675,0.06026947
20169,2023-01-20 11:09:42.521682,216896076,0,0,0,0,0,38.75,0.19,0,0,0.5,0.0006201003,0.01852341,0.05173136
20202,2023-01-20 11:09:42.621664,216996067,0,0,0,0,0,38.86,0.19,0,0,0.5,0.000627335,0.01204772,0.03886138
20235,2023-01-20 11:09:42.721693,217096087,0,0,0,0,0,38.94,0.19,0,0,0.5,0.0004878286,0.01363435,0.03886145
20267,2023-01-20 11:09:42.821689,217196072,0,0,0,0,0,39.04,0.19,0,0,0.5,0.0005473407,0.009138197,0.03098161
20301,2023-01-20 11:09:42.921720,217296086,0,0,0,0,0,39.12,0.19,0,0,0.5,0.0003949836,0.01291862,0.03440707
20333,2023-01-20 11:09:43.021732,217396085,0,0,0,0,0,39.23,0.19,0,0,0.5,0.0006183386,0.00657082,0.02386904
20364,2023-01-20 11:09:43.121726,217496080,0,0,0,0,0,39.31,0.19,0,0,0.5,0.0004848897,0.01049725,0.02791499
20398,2023-01-20 11:09:43.221714,217596072,0,0,0,0,0,39.41,0.19,0,0,0.5,0.001088497,0.01846231,0.03789593
20430,2023-01-20 11:09:43.321714,217696085,0,0,0,0,0,39.49,0.19,0,0,0.5,0.0008904705,0.004803458,0.009848954
20463,2023-01-20 11:09:43.421722,217796106,0,0,0,0,0,39.59,0.19,0,0,0.5,0.0008964414,0.005181701,0.01264947
20494,2023-01-20 11:09:43.521682,217896076,0,0,0,0,0,39.67,0.19,0,0,0.5,0.0009626959,0.01107848,0.0227077
20527,2023-01-20 11:09:43.621676,217996076,0,0,0,0,0,39.76,0.19,0,0,0.5,0.0007066681,0.01454338,0.03935761
20560,2023-01-20 11:09:43.721689,218096078,0,0,0,0,0,39.84,0.19,0,0,0.5,0.000584652,0.009716174,0.02255128
20592,2023-01-20 11:09:43.821690,218196072,0,0,0,0,0,39.91,0.19,0,0,0.5,0.0006502687,0.0153959,0.02257238
20626,2023-01-20 11:09:43.921707,218296100,0,0,0,0,0,39.98,0.19,0,0,0.5,0.001052575,0.02467102,0.03972112
20658,2023-01-20 11:09:44.021673,218396069,0,0,0,0,0,40.08,0.19,0,0,0.5,0.0007669298,0.01332679,0.02396981
20689,2023-01-20 11:09:44.121701,218496074,0,0,0,0,0,40.16,0.19,0,0,0.5,0.0006286143,0.01947127,0.03380382
20723,2023-01-20 11:09:44.221722,218596080,0,0,0,0,0,40.26,0.19,0,0,0.5,0.0009401939,0.0193452,0.05524191
