LineNo,UTC_Approx,TimeUS,C,Q1,Q2,Q3,Q4
683,2023-01-20 11:08:47.421095,161675791,0,0.05542332,-0.001689696,-0.01010497,0.9984104
1036,2023-01-20 11:08:47.516079,161775775,0,0.05541093,-0.001667241,-0.01011194,0.9984111
1152,2023-01-20 11:08:47.630187,161892750,0,0.05539997,-0.001643202,-0.01011798,0.9984117
1415,2023-01-20 11:08:47.738571,161995567,0,0.05542637,-0.001608246,-0.01017609,0.9984097
1834,2023-01-20 11:08:47.842134,162096077,0,0.05541945,-0.001600111,-0.01024119,0.9984095
1879,2023-01-20 11:08:47.941896,162196081,0,0.05541629,-0.001615823,-0.0102912,0.998409
1926,2023-01-20 11:08:48.041756,162296080,0,0.05541914,-0.001584489,-0.01030658,0.9984088
1972,2023-01-20 11:08:48.141750,162396070,0,0.055424,-0.0015293,-0.01033702,0.9984083
2025,2023-01-20 11:08:48.241764,162496067,0,0.05541993,-0.001450502,-0.01035068,0.9984084
2066,2023-01-20 11:08:48.341793,162596063,0,0.05541185,-0.001376694,-0.01037133,0.9984088
2122,2023-01-20 11:08:48.438031,162696062,0,0.05541859,-0.001340146,-0.01038631,0.9984083
2183,2023-01-20 11:08:48.528998,162796071,0,0.05541952,-0.00133638,-0.01039352,0.9984081
2243,2023-01-20 11:08:48.621935,162896062,0,0.05540575,-0.001359786,-0.01036868,0.9984092
2297,2023-01-20 11:08:48.721952,162996059,0,0.05539654,-0.001342903,-0.01034124,0.99841
2352,2023-01-20 11:08:48.821971,163096063,0,0.05539278,-0.001320896,-0.0103571,0.99841
2406,2023-01-20 11:08:48.921974,163196065,0,0.05537162,-0.001304993,-0.0103274,0.9984115
2448,2023-01-20 11:08:49.021967,163296061,0,0.05537898,-0.001297896,-0.01031425,0.9984114
2492,2023-01-20 11:08:49.121952,163396062,0,0.05537151,-0.001280413,-0.01031144,0.9984118
2534,2023-01-20 11:08:49.224360,163496062,0,0.05535836,-0.001251304,-0.01031499,0.9984125
2574,2023-01-20 11:08:49.335395,163596061,0,0.05534586,-0.001217538,-0.01034184,0.998413
2615,2023-01-20 11:08:49.441806,163696078,0,0.0553513,-0.001190925,-0.01034914,0.9984126
2655,2023-01-20 11:08:49.541748,163796085,0,0.05544071,-0.001195018,-0.01030411,0.9984082
2695,2023-01-20 11:08:49.637949,163896065,0,0.05545322,-0.001172509,-0.01030859,0.9984074
2733,2023-01-20 11:08:49.728987,163996078,0,0.05540191,-0.001167497,-0.01029505,0.9984104
2776,2023-01-20 11:08:49.821975,164096071,0,0.05534729,-0.001183168,-0.01029843,0.9984134
2814,2023-01-20 11:08:49.921949,164196069,0,0.05536082,-0.001159574,-0.01028899,0.9984128
2856,2023-01-20 11:08:50.021935,164296065,0,0.05546082,-0.001146571,-0.01029995,0.9984071
2895,2023-01-20 11:08:50.121980,164396072,0,0.05552081,-0.001161258,-0.01028801,0.9984038
2938,2023-01-20 11:08:50.221993,164496065,0,0.05541274,-0.001158249,-0.0102663,0.9984101
2976,2023-01-20 11:08:50.321958,164596070,0,0.05531737,-0.001146706,-0.01026409,0.9984154
3016,2023-01-20 11:08:50.421912,164696066,0,0.05533609,-0.001147107,-0.01027833,0.9984143
3058,2023-01-20 11:08:50.521868,164796070,0,0.05552596,-0.001130295,-0.01025734,0.9984039
3098,2023-01-20 11:08:50.621843,164896069,0,0.05578309,-0.001119611,-0.01026538,0.9983895
3136,2023-01-20 11:08:50.721915,164996083,0,0.05552383,-0.001161857,-0.010171,0.998405
3177,2023-01-20 11:08:50.821937,165096074,0,0.05567052,-0.001094826,-0.01005474,0.9983979
3215,2023-01-20 11:08:50.921874,165196076,0,0.05541526,-0.001137383,-0.01005482,0.9984122
3257,2023-01-20 11:08:51.021836,165296085,0,0.05551536,-0.001129067,-0.01010384,0.9984061
3295,2023-01-20 11:08:51.121840,165396074,0,0.05525151,-0.00114713,-0.01015084,0.9984202
3338,2023-01-20 11:08:51.221846,165496079,0,0.05529233,-0.001236983,-0.01008959,0.9984185
3376,2023-01-20 11:08:51.321810,165596086,0,0.05547206,-0.001051114,-0.01010417,0.9984086
3416,2023-01-20 11:08:51.421759,165696074,0,0.0553406,-0.001101457,-0.01015294,0.9984154
3456,2023-01-20 11:08:51.521744,165796075,0,0.05535311,-0.001146932,-0.01008816,0.9984153
3497,2023-01-20 11:08:51.621735,165896078,0,0.05516669,-0.001099482,-0.0100871,0.9984256
3534,2023-01-20 11:08:51.721737,165996073,0,0.05528518,-0.001100923,-0.009996274,0.9984201
3577,2023-01-20 11:08:51.821756,166096087,0,0.05534501,-0.001015195,-0.0100637,0.9984161
3615,2023-01-20 11:08:51.921747,166196081,0,0.05524597,-0.001049078,-0.01014019,0.9984208
3657,2023-01-20 11:08:52.021742,166296076,0,0.05513989,-0.001024697,-0.01004755,0.9984276
3693,2023-01-20 11:08:52.121747,166396074,0,0.05505339,-0.001020303,-0.01010555,0.9984317
3728,2023-01-20 11:08:52.221760,166496082,0,0.05521396,-0.0009528206,-0.01001766,0.9984238
3758,2023-01-20 11:08:52.321747,166596072,0,0.0551903,-0.0009192899,-0.01005549,0.9984248
3791,2023-01-20 11:08:52.421755,166696087,0,0.05520031,-0.0009750962,-0.01002088,0.9984245
3823,2023-01-20 11:08:52.521746,166796104,0,0.05496379,-0.00100094,-0.01004988,0.9984373
3856,2023-01-20 11:08:52.621713,166896084,0,0.05509959,-0.0009650385,-0.01010285,0.9984293
3886,2023-01-20 11:08:52.721736,166996074,0,0.05507266,-0.0009287989,-0.00997019,0.9984322
3921,2023-01-20 11:08:52.821776,167096088,0,0.05503416,-0.0009117895,-0.009942605,0.9984346
3951,2023-01-20 11:08:52.921760,167196070,0,0.05508722,-0.0009005588,-0.01001951,0.998431
3986,2023-01-20 11:08:53.021775,167296091,0,0.05482824,-0.0009482166,-0.01001485,0.9984452
4016,2023-01-20 11:08:53.121735,167396082,0,0.05503422,-0.0008169268,-0.0100673,0.9984335
4051,2023-01-20 11:08:53.221700,167496069,0,0.05469395,-0.0008944522,-0.009993096,0.9984528
4081,2023-01-20 11:08:53.321721,167596080,0,0.05489874,-0.0008551456,-0.01001282,0.9984415
4114,2023-01-20 11:08:53.421714,167696074,0,0.05471473,-0.000893508,-0.01005701,0.998451
4146,2023-01-20 11:08:53.521678,167796078,0,0.05480193,-0.001214896,-0.009852923,0.9984479
4179,2023-01-20 11:08:53.621652,167896077,0,0.0546059,-0.001555101,-0.009333579,0.9984632
4209,2023-01-20 11:08:53.721680,167996073,0,0.05605579,-0.00150353,-0.008902682,0.9983868
4244,2023-01-20 11:08:53.821712,168096084,0,0.06063456,-0.002152865,-0.007658815,0.9981284
4274,2023-01-20 11:08:53.921691,168196079,0,0.05945735,-0.002269175,-0.003868483,0.9982207
4310,2023-01-20 11:08:54.021678,168296082,0,0.05729838,-0.004782801,0.005220973,0.998332
4341,2023-01-20 11:08:54.121670,168396087,0,0.05373086,-0.007597398,0.001229583,0.9985258
4376,2023-01-20 11:08:54.221652,168496074,0,0.05033759,-0.00854167,-0.003863119,0.9986883
4406,2023-01-20 11:08:54.321685,168596082,0,0.05207809,-0.003435429,-0.002800569,0.9986333
4439,2023-01-20 11:08:54.421693,168696079,0,0.05899888,0.002878904,0.002056495,0.9982518
4471,2023-01-20 11:08:54.521650,168796074,0,0.06684557,0.004446126,0.001393376,0.9977524
4504,2023-01-20 11:08:54.621624,168896073,0,0.06731024,0.008324664,-0.002488066,0.9976943
4534,2023-01-20 11:08:54.721641,168996074,0,0.06256862,0.002651265,-0.01244226,0.9979597
4569,2023-01-20 11:08:54.821676,169096094,0,0.05706873,-0.005409357,-0.02156511,0.9981227
4599,2023-01-20 11:08:54.921667,169196074,0,0.04798883,-0.009744984,-0.03062567,0.9983307
4634,2023-01-20 11:08:55.021681,169296077,0,0.04031915,-0.01877101,-0.0324064,0.9984848
4664,2023-01-20 11:08:55.121703,169396089,0,0.03319158,-0.02799195,-0.03463212,0.9984565
4699,2023-01-20 11:08:55.221693,169496072,0,0.02808627,-0.03531513,-0.03510692,0.9983644
4729,2023-01-20 11:08:55.321687,169596072,0,0.02515308,-0.04039789,-0.03764184,0.9981575
4762,2023-01-20 11:08:55.421686,169696081,0,0.02666009,-0.03480019,-0.0432287,0.998103
4796,2023-01-20 11:08:55.521647,169796070,0,0.03789841,-0.02612108,-0.03917837,0.9981716
4829,2023-01-20 11:08:55.621640,169896078,0,0.05350621,-0.02793362,-0.03266883,0.997642
4859,2023-01-20 11:08:55.721683,169996092,0,0.06571184,-0.03450882,-0.02295622,0.9969776
4894,2023-01-20 11:08:55.821690,170096077,0,0.07472133,-0.03748874,-0.01321557,0.9964119
4924,2023-01-20 11:08:55.921693,170196083,0,0.08339781,-0.03439901,-0.008464177,0.9958866
4959,2023-01-20 11:08:56.021701,170296092,0,0.09178559,-0.03064031,-0.009722888,0.9952598
4989,2023-01-20 11:08:56.121684,170396068,0,0.0998918,-0.03189403,-0.008058194,0.9944544
5024,2023-01-20 11:08:56.221691,170496070,0,0.09979607,-0.02950699,-0.001809218,0.9945686
5054,2023-01-20 11:08:56.321708,170596089,0,0.09044752,-0.0237504,-0.004925733,0.9956058
5087,2023-01-20 11:08:56.421682,170696072,0,0.07747011,-0.01887374,-0.008567282,0.9967792
5119,2023-01-20 11:08:56.521656,170796078,0,0.06478505,-0.0166189,-0.01030445,0.9977077
5152,2023-01-20 11:08:56.621642,170896082,0,0.05574928,-0.02431639,-0.01125943,0.9980852
5182,2023-01-20 11:08:56.721666,170996072,0,0.0526794,-0.02868347,-0.004353358,0.9981899
5217,2023-01-20 11:08:56.821700,171096081,0,0.05435085,-0.033619,0.002511565,0.9979527
5247,2023-01-20 11:08:56.921704,171196093,0,0.05803228,-0.02872626,0.005490379,0.9978862
5282,2023-01-20 11:08:57.021684,171296077,0,0.0615567,-0.0219749,0.007024857,0.997837
5313,2023-01-20 11:08:57.121683,171396068,0,0.06279936,-0.0204611,0.01002386,0.9977661
5348,2023-01-20 11:08:57.221694,171496072,0,0.061808,-0.02460829,0.01481353,0.9976748
5378,2023-01-20 11:08:57.321696,171596072,0,0.06109595,-0.02922872,0.02105063,0.9974818
5411,2023-01-20 11:08:57.421693,171696076,0,0.06076415,-0.03270405,0.02833972,0.9972137
5443,2023-01-20 11:08:57.521654,171796073,0,0.05953999,-0.02544973,0.03371394,0.9973318
5476,2023-01-20 11:08:57.621639,171896079,0,0.05371546,-0.02093892,0.0312284,0.9978482
5506,2023-01-20 11:08:57.721665,171996072,0,0.04778829,-0.01776509,0.02848237,0.9982933
5541,2023-01-20 11:08:57.821714,172096096,0,0.04070295,-0.01227133,0.02722542,0.998725
5571,2023-01-20 11:08:57.921687,172196074,0,0.03219136,-0.01544835,0.02346893,0.9990868
5608,2023-01-20 11:08:58.021684,172296074,0,0.01206801,0.01511645,-0.03236518,-0.999289
5638,2023-01-20 11:08:58.121681,172396068,0,0.007741963,-0.004876302,-0.04955839,-0.9987293
5673,2023-01-20 11:08:58.221691,172496076,0,0.002149323,-0.01962211,-0.05574945,-0.9982497
5703,2023-01-20 11:08:58.321694,172596080,0,-0.005034912,-0.03540393,-0.04618248,-0.9982928
5736,2023-01-20 11:08:58.421675,172696069,0,-0.01548151,-0.04217964,-0.04231519,-0.9980935
5768,2023-01-20 11:08:58.521661,172796090,0,-0.03048387,-0.04142307,-0.04130899,-0.9978219
5801,2023-01-20 11:08:58.621648,172896096,0,-0.04487032,-0.04366323,-0.03658133,-0.9973675
5831,2023-01-20 11:08:58.721670,172996082,0,-0.0520248,-0.04032006,-0.03049577,-0.9973655
5866,2023-01-20 11:08:58.821701,173096087,0,-0.05340371,-0.03707696,-0.02410977,-0.9975932
5896,2023-01-20 11:08:58.921696,173196099,0,-0.04878422,-0.03068156,-0.02261945,-0.9980817
5931,2023-01-20 11:08:59.019695,173296082,0,-0.04092474,-0.02021137,-0.01418897,-0.9988571
5963,2023-01-20 11:08:59.110593,173396083,0,-0.02192612,-0.001102847,-0.002915982,-0.9997548
5998,2023-01-20 11:08:59.201665,173496109,0,-0.006065811,0.005043766,0.01369259,-0.9998752
6028,2023-01-20 11:08:59.301649,173596090,0,0.006854023,0.002655566,0.03148678,-0.9994771
6061,2023-01-20 11:08:59.401838,173696092,0,0.01080928,-0.01410672,0.03900569,-0.999081
6092,2023-01-20 11:08:59.512945,173796083,0,0.01151533,-0.03333611,0.04471949,-0.9983769
6125,2023-01-20 11:08:59.619687,173896085,0,0.00810169,-0.04746814,0.05417547,-0.9973697
6155,2023-01-20 11:08:59.710580,173996073,0,0.00263476,-0.05082755,0.06448556,-0.9966199
6191,2023-01-20 11:08:59.801677,174096118,0,-0.003835612,-0.05079719,0.07665802,-0.9957553
6221,2023-01-20 11:08:59.901607,174196077,0,-0.007028224,-0.03849262,0.07853621,-0.9961431
6256,2023-01-20 11:09:00.001602,174296103,0,-0.0082776,-0.02368146,0.07581036,-0.9968067
6286,2023-01-20 11:09:00.101506,174396081,0,-0.003866352,-0.007687467,0.06952001,-0.9975435
6321,2023-01-20 11:09:00.201455,174496101,0,-0.0004065902,0.004094976,0.06870405,-0.9976286
6351,2023-01-20 11:09:00.301482,174596077,0,0.004534701,0.0165884,0.0622186,-0.9979144
6384,2023-01-20 11:09:00.401565,174696110,0,0.007124534,0.02402477,0.06219018,-0.9977497
6418,2023-01-20 11:09:00.501498,174796097,0,0.01501205,0.02993311,0.06146004,-0.9975477
6451,2023-01-20 11:09:00.601453,174896106,0,0.01993141,0.04039824,0.06575584,-0.9968185
6481,2023-01-20 11:09:00.701460,174996080,0,0.02438796,0.04589016,0.06295247,-0.9966626
6517,2023-01-20 11:09:00.801516,175096104,0,0.02453722,0.05337344,0.06207979,-0.996341
6547,2023-01-20 11:09:00.901477,175196089,0,0.02511349,0.05496469,0.05529285,-0.9966398
6582,2023-01-20 11:09:01.001495,175296130,0,0.0248472,0.06296523,0.03062584,-0.9972363
6612,2023-01-20 11:09:01.101535,175396094,0,0.02593007,0.07095042,0.005685176,-0.9971266
6647,2023-01-20 11:09:01.201645,175496131,0,0.02562688,0.08013122,-0.01164044,-0.9963869
6677,2023-01-20 11:09:01.301523,175596077,0,0.02252842,0.08610623,-0.02218265,-0.9957842
6710,2023-01-20 11:09:01.401499,175696120,0,0.01621835,0.08915912,-0.02927086,-0.9954551
6742,2023-01-20 11:09:01.501437,175796085,0,0.009221219,0.09378156,-0.03501531,-0.9949341
6775,2023-01-20 11:09:01.601440,175896115,0,0.001936268,0.09759197,-0.0406633,-0.9943936
6806,2023-01-20 11:09:01.701401,175996071,0,-0.004185949,0.09576899,-0.04750406,-0.9942607
6841,2023-01-20 11:09:01.801424,176096088,0,-0.008316709,0.09611091,-0.04034074,-0.9945181
6871,2023-01-20 11:09:01.901423,176196083,0,-0.01235859,0.09259207,-0.02810069,-0.9952309
6906,2023-01-20 11:09:02.001454,176296110,0,-0.0166603,0.09089994,-0.01281367,-0.9956383
6936,2023-01-20 11:09:02.101428,176396072,0,-0.01870885,0.08712199,-0.002959113,-0.9960176
6971,2023-01-20 11:09:02.201466,176496098,0,-0.01910755,0.08214523,0.002423668,-0.9964343
7001,2023-01-20 11:09:02.301454,176596082,0,-0.01991741,0.07870456,0.002494104,-0.9966959
7034,2023-01-20 11:09:02.401486,176696112,0,-0.02342539,0.07612363,-0.005099076,-0.9968101
7066,2023-01-20 11:09:02.501407,176796082,0,-0.02689169,0.07379656,-0.0103267,-0.9968572
7099,2023-01-20 11:09:02.601376,176896098,0,-0.02978419,0.07155719,-0.01253334,-0.996913
7129,2023-01-20 11:09:02.701395,176996072,0,-0.03073682,0.06377333,-0.009085037,-0.9974496
7164,2023-01-20 11:09:02.801462,177096095,0,-0.03349009,0.05043389,-0.01192876,-0.9980945
7194,2023-01-20 11:09:02.901450,177196088,0,-0.03612111,0.04082769,-0.01766293,-0.9983568
7229,2023-01-20 11:09:03.001489,177296131,0,-0.03712787,0.01870599,-0.0212527,-0.9989094
7259,2023-01-20 11:09:03.101441,177396095,0,-0.03181958,0.001977113,-0.02267737,-0.9992344
7294,2023-01-20 11:09:03.201441,177496106,0,-0.02625651,-0.00630499,-0.02742659,-0.9992591
7324,2023-01-20 11:09:03.301418,177596087,0,-0.02084699,-0.0130702,-0.02456128,-0.9993955
7357,2023-01-20 11:09:03.401444,177696118,0,-0.01471818,-0.01431359,-0.0208944,-0.9995708
7389,2023-01-20 11:09:03.501422,177796095,0,-0.006898969,-0.008423769,-0.01229555,-0.9998651
7422,2023-01-20 11:09:03.601435,177896107,0,-0.002277933,-0.002379942,-0.008734317,-0.9999565
7453,2023-01-20 11:09:03.701428,177996087,0,8.690952E-05,0.0029944,-0.002955442,-0.9999911
7488,2023-01-20 11:09:03.801439,178096086,0,0.004062949,0.008312603,0.01057912,-0.9999013
7518,2023-01-20 11:09:03.901412,178196072,0,0.005540876,0.0142322,0.01596381,-0.9997559
7553,2023-01-20 11:09:04.001448,178296120,0,0.007397483,0.008169413,0.01833449,-0.9997712
7583,2023-01-20 11:09:04.101391,178396072,0,0.007362294,0.006503582,0.01599154,-0.9998239
7619,2023-01-20 11:09:04.201395,178496084,0,0.00304948,0.01060089,0.007315158,-0.9999124
7649,2023-01-20 11:09:04.301415,178596080,0,-0.003588812,0.01328964,0.001387777,-0.9999043
7682,2023-01-20 11:09:04.401466,178696108,0,-0.01168708,0.0178437,0.003404291,-0.9997668
7714,2023-01-20 11:09:04.501419,178796077,0,-0.01973351,0.01910716,0.006990252,-0.9995983
7747,2023-01-20 11:09:04.601443,178896117,0,-0.02848045,0.01764057,0.008274551,-0.9994044
7777,2023-01-20 11:09:04.701423,178996072,0,-0.03638409,0.01557771,0.009383123,-0.9991724
7812,2023-01-20 11:09:04.801461,179096086,0,-0.04234491,0.02048914,0.008977657,-0.9988527
7842,2023-01-20 11:09:04.901417,179196079,0,-0.04435275,0.03754562,0.01832855,-0.9981419
7877,2023-01-20 11:09:05.001420,179296118,0,-0.04353343,0.05332514,0.02687454,-0.9972659
7907,2023-01-20 11:09:05.101397,179396072,0,-0.04211574,0.05662153,0.02938558,-0.9970741
7942,2023-01-20 11:09:05.201442,179496094,0,-0.04047292,0.02920844,0.02055227,-0.9985422
7972,2023-01-20 11:09:05.301434,179596072,0,-0.03766415,0.004486177,0.01601304,-0.9991521
8006,2023-01-20 11:09:05.401499,179696124,0,-0.03257464,-0.008757434,0.01737888,-0.9992799
8040,2023-01-20 11:09:05.501438,179796119,0,-0.0270686,-0.01374575,0.01966358,-0.9993457
8073,2023-01-20 11:09:05.601379,179896114,0,-0.02553457,-0.00680083,0.01953244,-0.99946
8103,2023-01-20 11:09:05.701420,179996095,0,-0.03120808,0.0008004202,0.01624726,-0.9993806
8138,2023-01-20 11:09:05.801478,180096094,0,-0.04733987,0.00249771,0.01720516,-0.9987276
8168,2023-01-20 11:09:05.901415,180196071,0,-0.07626799,0.002550216,0.01868531,-0.9969091
8203,2023-01-20 11:09:06.001418,180296113,0,-0.110117,0.005319388,0.02150236,-0.9936718
8233,2023-01-20 11:09:06.101398,180396084,0,-0.1423187,0.01087485,0.02584868,-0.9894236
8268,2023-01-20 11:09:06.201419,180496096,0,-0.1722977,0.01514784,0.02742396,-0.9845466
8298,2023-01-20 11:09:06.301393,180596072,0,-0.198395,0.02807892,0.03233317,-0.9791862
8331,2023-01-20 11:09:06.401425,180696107,0,-0.2186843,0.03746644,0.04544662,-0.9740165
8363,2023-01-20 11:09:06.501396,180796070,0,-0.2355108,0.0418714,0.05376894,-0.9694794
8396,2023-01-20 11:09:06.601442,180896108,0,-0.2489379,0.04281354,0.06418726,-0.9654413
8426,2023-01-20 11:09:06.701402,180996072,0,-0.2605678,0.03877942,0.06993397,-0.9621382
8461,2023-01-20 11:09:06.801415,181096089,0,-0.2725812,0.03681321,0.07574107,-0.9584402
8491,2023-01-20 11:09:06.901413,181196074,0,-0.2855816,0.0445949,0.07603477,-0.954292
8526,2023-01-20 11:09:07.001460,181296109,0,-0.3014326,0.05751523,0.07195979,-0.949027
8556,2023-01-20 11:09:07.101421,181396067,0,-0.3183804,0.06872775,0.06939112,-0.9429185
8591,2023-01-20 11:09:07.201456,181496100,0,-0.3326854,0.07103918,0.06545035,-0.9380779
8621,2023-01-20 11:09:07.301445,181596087,0,-0.3455977,0.06249689,0.05998345,-0.9343759
8655,2023-01-20 11:09:07.401486,181696127,0,-0.3592254,0.06307685,0.05246022,-0.9296377
8687,2023-01-20 11:09:07.501444,181796097,0,-0.3750123,0.06272213,0.03795911,-0.9241163
8720,2023-01-20 11:09:07.601455,181896120,0,-0.3894186,0.05743362,0.02260998,-0.9189904
8750,2023-01-20 11:09:07.701441,181996085,0,-0.3984935,0.04696878,0.01930677,-0.9157643
8785,2023-01-20 11:09:07.801466,182096090,0,-0.4008096,0.03637455,0.01990608,-0.9152226
8815,2023-01-20 11:09:07.901447,182196083,0,-0.3938921,0.02223429,0.02434823,-0.9185652
8850,2023-01-20 11:09:08.001463,182296111,0,-0.3837728,0.0001493297,0.03188849,-0.9228768
8880,2023-01-20 11:09:08.101411,182396077,0,-0.3747304,-0.01757163,0.0360365,-0.9262667
8915,2023-01-20 11:09:08.201428,182496112,0,-0.3671813,-0.02257662,0.03734431,-0.9291252
8945,2023-01-20 11:09:08.301411,182596072,0,-0.3610783,-0.01266511,0.03305422,-0.9318635
8978,2023-01-20 11:09:08.401476,182696114,0,-0.3558195,-0.004245667,0.0282727,-0.9341173
9010,2023-01-20 11:09:08.501407,182796077,0,-0.3538062,0.003721216,0.02942922,-0.9348482
9043,2023-01-20 11:09:08.601410,182896111,0,-0.3559492,0.01252464,0.03027954,-0.9339306
9073,2023-01-20 11:09:08.701413,182996081,0,-0.3571015,0.01523302,0.0321056,-0.9333894
9108,2023-01-20 11:09:08.801449,183096085,0,-0.357,0.01235429,0.03422368,-0.9333956
9140,2023-01-20 11:09:08.901434,183196083,0,-0.3566374,0.002754212,0.03863632,-0.9334396
9175,2023-01-20 11:09:09.001328,183296120,0,-0.3577524,-0.006356067,0.04530396,-0.9326952
9205,2023-01-20 11:09:09.092374,183396067,0,-0.3600026,-0.01376618,0.04939297,-0.9315412
9237,2023-01-20 11:09:09.183498,183496100,0,-0.3604804,-0.01821227,0.05219048,-0.9311275
9271,2023-01-20 11:09:09.281855,183596081,0,-0.3590056,-0.01614478,0.05318,-0.9316792
9302,2023-01-20 11:09:09.381877,183696116,0,-0.3565164,-0.01769463,0.05006284,-0.9327791
9336,2023-01-20 11:09:09.481846,183796083,0,-0.3538074,-0.01859591,0.04470383,-0.9340643
9367,2023-01-20 11:09:09.581874,183896107,0,-0.3515479,-0.01397712,0.0417056,-0.9351361
9400,2023-01-20 11:09:09.681851,183996067,0,-0.3485603,-0.006709741,0.03827462,-0.9364805
9434,2023-01-20 11:09:09.781874,184096071,0,-0.3447229,0.0005330222,0.03571241,-0.9380248
9466,2023-01-20 11:09:09.881870,184196082,0,-0.3409588,0.006553755,0.03187779,-0.9395148
9499,2023-01-20 11:09:09.981883,184296119,0,-0.3380173,0.009903262,0.02874396,-0.9406488
9531,2023-01-20 11:09:10.081833,184396077,0,-0.3379179,0.0145531,0.03041016,-0.9405717
9563,2023-01-20 11:09:10.181868,184496116,0,-0.3387429,0.01969235,0.02804025,-0.9402549
9596,2023-01-20 11:09:10.281826,184596075,0,-0.341535,0.02104426,0.02495684,-0.939302
9627,2023-01-20 11:09:10.381842,184696092,0,-0.3456601,0.02115091,0.02585486,-0.937765
9661,2023-01-20 11:09:10.481742,184796083,0,-0.3509371,0.01765748,0.02815647,-0.9358091
9694,2023-01-20 11:09:10.581646,184896098,0,-0.3548119,0.01147917,0.03092117,-0.9343558
9726,2023-01-20 11:09:10.681649,184996067,0,-0.3580797,0.0106523,0.03069396,-0.9331257
9759,2023-01-20 11:09:10.781770,185096121,0,-0.3614929,0.01197075,0.03098763,-0.931783
9791,2023-01-20 11:09:10.881716,185196074,0,-0.3637056,0.01107907,0.03464013,-0.9308038
9824,2023-01-20 11:09:10.981713,185296093,0,-0.3656355,0.00925034,0.03976473,-0.9298623
9857,2023-01-20 11:09:11.081682,185396072,0,-0.3663719,0.01244153,0.0436161,-0.9293625
9889,2023-01-20 11:09:11.181698,185496096,0,-0.3669579,0.01501001,0.04633614,-0.9289616
9922,2023-01-20 11:09:11.281667,185596077,0,-0.3674284,0.01163862,0.04647714,-0.9288169
9953,2023-01-20 11:09:11.381681,185696105,0,-0.3689983,0.01517489,0.04663107,-0.9281355
9986,2023-01-20 11:09:11.481650,185796074,0,-0.3718728,0.01866106,0.04966985,-0.9267661
10017,2023-01-20 11:09:11.581676,185896096,0,-0.3734845,0.01722418,0.04849667,-0.9262077
10049,2023-01-20 11:09:11.681665,185996068,0,-0.3716024,0.01293299,0.04571356,-0.9271757
10082,2023-01-20 11:09:11.781723,186096106,0,-0.3688317,0.01170478,0.04247172,-0.9284517
10114,2023-01-20 11:09:11.881695,186196078,0,-0.3671136,0.01224017,0.04189778,-0.9291514
10147,2023-01-20 11:09:11.981697,186296086,0,-0.3652075,0.01089832,0.042733,-0.929881
10179,2023-01-20 11:09:12.081661,186396076,0,-0.3636004,0.01112478,0.04218366,-0.9305329
10211,2023-01-20 11:09:12.181666,186496110,0,-0.3614325,0.01256492,0.04225456,-0.9313557
10244,2023-01-20 11:09:12.281644,186596067,0,-0.3598543,0.01248906,0.04260337,-0.9319517
10276,2023-01-20 11:09:12.381693,186696083,0,-0.3582215,0.01473136,0.04086611,-0.9326256
10310,2023-01-20 11:09:12.481684,186796087,0,-0.3560892,0.01397705,0.03941241,-0.9335159
10341,2023-01-20 11:09:12.581661,186896088,0,-0.354288,0.01278242,0.04091124,-0.9341536
10373,2023-01-20 11:09:12.681662,186996068,0,-0.353631,0.009110962,0.03805268,-0.9345663
10406,2023-01-20 11:09:12.781733,187096108,0,-0.3547246,0.00710139,0.03775332,-0.9341814
10438,2023-01-20 11:09:12.881701,187196075,0,-0.3560337,0.005723117,0.03726609,-0.9337122
10471,2023-01-20 11:09:12.981693,187296074,0,-0.356621,0.004375361,0.0381805,-0.9334584
10503,2023-01-20 11:09:13.081693,187396081,0,-0.3571967,0.005867159,0.03961977,-0.9331701
10535,2023-01-20 11:09:13.181680,187496075,0,-0.3581449,0.009507831,0.04051756,-0.9327381
10568,2023-01-20 11:09:13.281682,187596068,0,-0.360382,0.0141926,0.03724993,-0.9319528
10599,2023-01-20 11:09:13.381709,187696083,0,-0.363017,0.02059369,0.03318955,-0.9309635
10633,2023-01-20 11:09:13.481678,187796074,0,-0.3647032,0.0240422,0.03131024,-0.9302867
10664,2023-01-20 11:09:13.581642,187896067,0,-0.3667289,0.02775493,0.0296345,-0.9294415
10696,2023-01-20 11:09:13.681668,187996078,0,-0.3695843,0.02669131,0.02715463,-0.9284168
10729,2023-01-20 11:09:13.781690,188096076,0,-0.3726746,0.02618722,0.02345509,-0.927296
10761,2023-01-20 11:09:13.881692,188196070,0,-0.3762965,0.02457881,0.009802778,-0.9261214
10794,2023-01-20 11:09:13.981708,188296082,0,-0.3776551,0.02620237,-0.004096061,-0.9255664
10826,2023-01-20 11:09:14.081689,188396071,0,-0.3771901,0.02312078,-0.008881791,-0.9258046
10858,2023-01-20 11:09:14.181683,188496075,0,-0.3757057,0.02084848,-0.006073432,-0.9264846
10891,2023-01-20 11:09:14.281693,188596080,0,-0.3761793,0.01655805,-0.0008882695,-0.9263985
10924,2023-01-20 11:09:14.381693,188696071,0,-0.3767356,0.01421501,0.007047341,-0.9261851
10958,2023-01-20 11:09:14.481674,188796074,0,-0.3785804,0.004889062,0.01464398,-0.9254398
10989,2023-01-20 11:09:14.581648,188896077,0,-0.3819923,-0.001935017,0.02082837,-0.9239288
11021,2023-01-20 11:09:14.681663,188996072,0,-0.3839707,-0.005874096,0.02344513,-0.923029
11054,2023-01-20 11:09:14.781691,189096070,0,-0.3850482,-0.004837931,0.02699291,-0.9224889
11086,2023-01-20 11:09:14.881700,189196090,0,-0.383984,-0.002235598,0.02710138,-0.9229392
11119,2023-01-20 11:09:14.981671,189296081,0,-0.3838427,0.004176208,0.03171711,-0.9228442
11151,2023-01-20 11:09:15.081665,189396070,0,-0.384659,0.002145221,0.03277556,-0.9224742
11183,2023-01-20 11:09:15.181688,189496083,0,-0.3846836,-0.002364359,0.03652124,-0.9223228
11216,2023-01-20 11:09:15.281694,189596072,0,-0.3835528,-0.006548595,0.040886,-0.9225903
11250,2023-01-20 11:09:15.381713,189696072,0,-0.3814785,-0.004365106,0.04395444,-0.9233218
11284,2023-01-20 11:09:15.481697,189796091,0,-0.3791288,0.00154073,0.0503321,-0.9239728
11317,2023-01-20 11:09:15.581637,189896078,0,-0.3761732,0.008049658,0.05270902,-0.925014
11349,2023-01-20 11:09:15.681658,189996072,0,-0.3725244,0.01123975,0.05367934,-0.9264005
11382,2023-01-20 11:09:15.781712,190096081,0,-0.3692015,0.01731762,0.05716908,-0.9274277
11414,2023-01-20 11:09:15.881710,190196071,0,-0.3663602,0.0198705,0.06079572,-0.9282722
11447,2023-01-20 11:09:15.981721,190296082,0,-0.3639978,0.02100094,0.06445778,-0.9289294
11479,2023-01-20 11:09:16.081723,190396087,0,-0.3617958,0.02067283,0.06795763,-0.9295474
11511,2023-01-20 11:09:16.181708,190496075,0,-0.3601309,0.0185933,0.07310922,-0.9298468
11544,2023-01-20 11:09:16.281705,190596072,0,-0.3586173,0.01643554,0.07831369,-0.9300487
11575,2023-01-20 11:09:16.381706,190696071,0,-0.3571566,0.01163378,0.08359785,-0.9302233
11609,2023-01-20 11:09:16.481691,190796070,0,-0.3582512,0.01003886,0.08681703,-0.9295258
11640,2023-01-20 11:09:16.581676,190896073,0,-0.3690681,0.01361714,0.09149446,-0.9247876
11672,2023-01-20 11:09:16.681684,190996072,0,-0.3958798,0.01258092,0.09768248,-0.9130056
11705,2023-01-20 11:09:16.781713,191096087,0,-0.4370769,0.01188857,0.1010912,-0.893646
11737,2023-01-20 11:09:16.881707,191196074,0,-0.4867301,0.009237126,0.1033167,-0.867372
11770,2023-01-20 11:09:16.981712,191296074,0,-0.5389552,0.005692127,0.1063688,-0.835572
11802,2023-01-20 11:09:17.081707,191396071,0,-0.5919747,-0.001580217,0.112275,-0.7980963
11834,2023-01-20 11:09:17.181705,191496072,0,-0.6443958,-0.02195425,0.1200235,-0.7548949
11867,2023-01-20 11:09:17.281708,191596071,0,-0.6946103,-0.03844051,0.1275561,-0.706943
11898,2023-01-20 11:09:17.381722,191696078,0,-0.7415609,-0.05485992,0.1321687,-0.6554459
11932,2023-01-20 11:09:17.481702,191796084,0,-0.7848257,-0.05972426,0.1348099,-0.6019201
11963,2023-01-20 11:09:17.581656,191896072,0,-0.820589,-0.07416095,0.1348792,-0.5504012
11995,2023-01-20 11:09:17.681676,191996071,0,-0.85247,-0.08372795,0.1331176,-0.4985624
12028,2023-01-20 11:09:17.781714,192096075,0,-0.8794629,-0.09508725,0.1329615,-0.4470178
12060,2023-01-20 11:09:17.881715,192196073,0,-0.8999245,-0.1028381,0.1417727,-0.3993257
12093,2023-01-20 11:09:17.981717,192296079,0,-0.9132195,-0.1114244,0.1507044,-0.3618052
12126,2023-01-20 11:09:18.081701,192396080,0,-0.920661,-0.1180221,0.1593094,-0.3362658
12158,2023-01-20 11:09:18.181679,192496077,0,-0.9230825,-0.1315285,0.1480713,-0.3296878
12191,2023-01-20 11:09:18.274343,192596070,0,-0.9209155,-0.1455095,0.1430249,-0.3320926
12222,2023-01-20 11:09:18.365381,192696079,0,-0.9172087,-0.1537913,0.1341788,-0.3421584
12256,2023-01-20 11:09:18.461918,192796071,0,-0.9118034,-0.1565966,0.1296966,-0.3567506
12287,2023-01-20 11:09:18.561848,192896071,0,-0.9040356,-0.157536,0.1283523,-0.3760688
12320,2023-01-20 11:09:18.661821,192996071,0,-0.8928704,-0.1668407,0.1295715,-0.3976907
12353,2023-01-20 11:09:18.761825,193096074,0,-0.8842191,-0.1654681,0.1281909,-0.4175456
12385,2023-01-20 11:09:18.861809,193196092,0,-0.8762663,-0.1680287,0.1319485,-0.431872
12418,2023-01-20 11:09:18.961737,193296076,0,-0.8713883,-0.1666296,0.1350338,-0.4412289
12450,2023-01-20 11:09:19.061722,193396068,0,-0.8675546,-0.1693407,0.1311018,-0.4488709
12482,2023-01-20 11:09:19.161751,193496074,0,-0.8652079,-0.1740466,0.1292542,-0.4521244
12515,2023-01-20 11:09:19.261823,193596077,0,-0.8640254,-0.181455,0.1214708,-0.4536288
12547,2023-01-20 11:09:19.361931,193696087,0,-0.8643627,-0.1868518,0.1169982,-0.4519679
12582,2023-01-20 11:09:19.461859,193796072,0,-0.8675722,-0.1847431,0.1189858,-0.4461288
12613,2023-01-20 11:09:19.561710,193896076,0,-0.8727046,-0.1744594,0.1218677,-0.4394302
12646,2023-01-20 11:09:19.661668,193996072,0,-0.8779857,-0.1631332,0.1249267,-0.4323451
12680,2023-01-20 11:09:19.761703,194096072,0,-0.8828224,-0.1534296,0.1220666,-0.4268299
12712,2023-01-20 11:09:19.861708,194196071,0,-0.8855817,-0.1486957,0.1143271,-0.4249281
12745,2023-01-20 11:09:19.961701,194296074,0,-0.8876225,-0.1396173,0.1094643,-0.4250303
12778,2023-01-20 11:09:20.061706,194396076,0,-0.8882375,-0.1314195,0.1105624,-0.4260742
12810,2023-01-20 11:09:20.161720,194496077,0,-0.8892986,-0.1190186,0.1150065,-0.4263287
12842,2023-01-20 11:09:20.261712,194596071,0,-0.8883862,-0.1133668,0.1215106,-0.4279638
12874,2023-01-20 11:09:20.361708,194696077,0,-0.8886692,-0.09947938,0.1207394,-0.4310371
12908,2023-01-20 11:09:20.461686,194796073,0,-0.8877544,-0.09289823,0.1124533,-0.4365964
12941,2023-01-20 11:09:20.561663,194896072,0,-0.8864444,-0.0886575,0.1090112,-0.4409907
12974,2023-01-20 11:09:20.661683,194996088,0,-0.8852473,-0.09132359,0.1129458,-0.4418603
13007,2023-01-20 11:09:20.761687,195096070,0,-0.8866839,-0.08597523,0.1126438,-0.4401267
13039,2023-01-20 11:09:20.861702,195196079,0,-0.8894398,-0.07776262,0.1119168,-0.436262
13072,2023-01-20 11:09:20.961705,195296084,0,-0.8913438,-0.07203997,0.09989652,-0.4362766
13105,2023-01-20 11:09:21.061692,195396071,0,-0.8921263,-0.06766164,0.08977963,-0.4375753
13136,2023-01-20 11:09:21.161697,195496074,0,-0.8933946,-0.05756068,0.0857311,-0.4372448
13170,2023-01-20 11:09:21.261705,195596081,0,-0.8928356,-0.05258898,0.087908,-0.4385787
13202,2023-01-20 11:09:21.361696,195696072,0,-0.8916051,-0.046527,0.09206907,-0.440907
13236,2023-01-20 11:09:21.461698,195796102,0,-0.8903638,-0.03975917,0.0978172,-0.4428357
13267,2023-01-20 11:09:21.561641,195896091,0,-0.889167,-0.03924731,0.1006508,-0.4446472
13300,2023-01-20 11:09:21.661631,195996068,0,-0.888609,-0.0360049,0.102937,-0.445513
13333,2023-01-20 11:09:21.761686,196096072,0,-0.8887528,-0.03541567,0.102595,-0.4453522
13365,2023-01-20 11:09:21.861711,196196080,0,-0.8889679,-0.0374329,0.1010163,-0.4451187
13398,2023-01-20 11:09:21.961700,196296073,0,-0.8889233,-0.04442301,0.09786055,-0.4452699
13431,2023-01-20 11:09:22.061693,196396080,0,-0.8889506,-0.0474848,0.09857949,-0.4447404
13462,2023-01-20 11:09:22.161677,196496085,0,-0.8894186,-0.04637465,0.1039167,-0.4427023
13496,2023-01-20 11:09:22.261667,196596071,0,-0.8900977,-0.04357513,0.1135284,-0.439248
13528,2023-01-20 11:09:22.361688,196696072,0,-0.8908979,-0.03868477,0.1226856,-0.4356063
13562,2023-01-20 11:09:22.461691,196796083,0,-0.8912153,-0.03550326,0.1291152,-0.4333639
13593,2023-01-20 11:09:22.561657,196896074,0,-0.8909477,-0.03459486,0.1344846,-0.4323534
13626,2023-01-20 11:09:22.661656,196996067,0,-0.8912141,-0.03163011,0.134429,-0.4320484
13659,2023-01-20 11:09:22.761694,197096081,0,-0.8914032,-0.03041957,0.1365721,-0.431072
13691,2023-01-20 11:09:22.861695,197196071,0,-0.8913114,-0.03027752,0.13721,-0.4310693
13724,2023-01-20 11:09:22.961698,197296071,0,-0.8910021,-0.02984894,0.1392626,-0.4310807
13757,2023-01-20 11:09:23.061711,197396081,0,-0.8889942,-0.03307964,0.1466005,-0.4325544
13788,2023-01-20 11:09:23.161708,197496075,0,-0.8863327,-0.03517367,0.1532936,-0.4355207
13822,2023-01-20 11:09:23.261696,197596067,0,-0.8856143,-0.03231648,0.1499927,-0.4383436
13854,2023-01-20 11:09:23.361701,197696081,0,-0.8859078,-0.03099862,0.143699,-0.4399514
13888,2023-01-20 11:09:23.461685,197796077,0,-0.8865324,-0.03239496,0.140109,-0.4397505
13919,2023-01-20 11:09:23.561682,197896087,0,-0.8867906,-0.03776034,0.1376194,-0.4395879
13952,2023-01-20 11:09:23.661678,197996074,0,-0.8863508,-0.0424487,0.1439453,-0.4380184
13985,2023-01-20 11:09:23.761700,198096073,0,-0.8857207,-0.0462505,0.1497553,-0.4369588
14017,2023-01-20 11:09:23.861703,198196071,0,-0.8851932,-0.0460757,0.1529606,-0.4369362
14050,2023-01-20 11:09:23.961705,198296080,0,-0.8848956,-0.04903885,0.1489719,-0.4385917
14083,2023-01-20 11:09:24.061682,198396071,0,-0.8844708,-0.04832762,0.1492244,-0.4394405
14114,2023-01-20 11:09:24.161675,198496084,0,-0.8840722,-0.04487183,0.1530035,-0.4393095
14148,2023-01-20 11:09:24.261675,198596075,0,-0.8834528,-0.04409236,0.1575366,-0.4390323
14180,2023-01-20 11:09:24.361698,198696071,0,-0.8839783,-0.03689171,0.1593107,-0.4379972
14214,2023-01-20 11:09:24.461694,198796075,0,-0.8844724,-0.03517429,0.1601402,-0.436837
14246,2023-01-20 11:09:24.561657,198896067,0,-0.8852712,-0.03284981,0.1626833,-0.4344536
14279,2023-01-20 11:09:24.661654,198996072,0,-0.8852253,-0.03163595,0.166588,-0.4331558
14312,2023-01-20 11:09:24.761668,199096080,0,-0.8851756,-0.0348104,0.1630633,-0.4343533
14344,2023-01-20 11:09:24.861669,199196067,0,-0.8853573,-0.03698377,0.1576352,-0.435805
14377,2023-01-20 11:09:24.961691,199296070,0,-0.8853998,-0.03923951,0.1534633,-0.4370088
14410,2023-01-20 11:09:25.061700,199396072,0,-0.8852348,-0.04294492,0.1500514,-0.4381776
14441,2023-01-20 11:09:25.161720,199496091,0,-0.8858969,-0.03810949,0.1429647,-0.4396539
14475,2023-01-20 11:09:25.261706,199596071,0,-0.8864597,-0.03455845,0.1404086,-0.4396365
14507,2023-01-20 11:09:25.361727,199696083,0,-0.8850703,-0.04410919,0.1327888,-0.4439282
14541,2023-01-20 11:09:25.461708,199796082,0,-0.8849923,-0.05032741,0.1245811,-0.4457975
14574,2023-01-20 11:09:25.561656,199896067,0,-0.8881378,-0.04767437,0.1263613,-0.4392851
14607,2023-01-20 11:09:25.661662,199996071,0,-0.891812,-0.04305759,0.127655,-0.4318814
14640,2023-01-20 11:09:25.761688,200096071,0,-0.8950292,-0.04289005,0.1250905,-0.4259525
14672,2023-01-20 11:09:25.861698,200196068,0,-0.8963972,-0.04338768,0.1253423,-0.4229408
14705,2023-01-20 11:09:25.961710,200296074,0,-0.8964459,-0.04419315,0.1275129,-0.4221046
14738,2023-01-20 11:09:26.061694,200396072,0,-0.8964009,-0.04380303,0.1247969,-0.4230514
14769,2023-01-20 11:09:26.161669,200496073,0,-0.8953193,-0.04779201,0.1223214,-0.4256252
14803,2023-01-20 11:09:26.261672,200596070,0,-0.893389,-0.0498943,0.1215157,-0.4296516
14835,2023-01-20 11:09:26.361701,200696074,0,-0.8920582,-0.04864389,0.12074,-0.4327678
14869,2023-01-20 11:09:26.461693,200796074,0,-0.8902937,-0.04916804,0.1209958,-0.4362565
14900,2023-01-20 11:09:26.561671,200896083,0,-0.8891234,-0.04816933,0.1225459,-0.4383171
14933,2023-01-20 11:09:26.661651,200996072,0,-0.8892906,-0.04567168,0.1291039,-0.4363584
14966,2023-01-20 11:09:26.761662,201096080,0,-0.8896023,-0.04603389,0.1306632,-0.4352195
14998,2023-01-20 11:09:26.861679,201196077,0,-0.8894969,-0.04561977,0.1308918,-0.4354096
15031,2023-01-20 11:09:26.961711,201296078,0,-0.889753,-0.04624592,0.1290953,-0.4353566
15064,2023-01-20 11:09:27.061710,201396071,0,-0.8906814,-0.04700532,0.1249399,-0.4345886
15095,2023-01-20 11:09:27.161715,201496085,0,-0.8913713,-0.05006915,0.1212095,-0.4338878
15129,2023-01-20 11:09:27.261690,201596071,0,-0.8925409,-0.04464133,0.1191558,-0.4326428
15161,2023-01-20 11:09:27.361683,201696075,0,-0.8930494,-0.04134375,0.1227172,-0.4309223
15195,2023-01-20 11:09:27.461700,201796091,0,-0.8920587,-0.04114735,0.1264049,-0.431926
15226,2023-01-20 11:09:27.561692,201896074,0,-0.8895259,-0.04776159,0.1306549,-0.4351917
15259,2023-01-20 11:09:27.661702,201996077,0,-0.8871357,-0.05157904,0.1362073,-0.4379241
15292,2023-01-20 11:09:27.761716,202096085,0,-0.8848595,-0.05467949,0.1370826,-0.4418622
15324,2023-01-20 11:09:27.861724,202196091,0,-0.8833715,-0.05532865,0.1357422,-0.4451602
15358,2023-01-20 11:09:27.961723,202296090,0,-0.8837327,-0.05498017,0.1387029,-0.4435712
15390,2023-01-20 11:09:28.061726,202396089,0,-0.8845449,-0.05732045,0.1364774,-0.4423443
15421,2023-01-20 11:09:28.161716,202496073,0,-0.8854795,-0.0570023,0.1331329,-0.4415344
15455,2023-01-20 11:09:28.261714,202596072,0,-0.8875228,-0.05219964,0.1294375,-0.4391181
15487,2023-01-20 11:09:28.361719,202696083,0,-0.888791,-0.05292125,0.1276079,-0.4369968
15521,2023-01-20 11:09:28.456124,202796090,0,-0.8888885,-0.05374995,0.1334655,-0.4349428
15552,2023-01-20 11:09:28.547036,202896074,0,-0.8930528,-0.04421315,0.1370593,-0.4262826
15585,2023-01-20 11:09:28.641755,202996077,0,-0.8961568,-0.04465806,0.1340541,-0.4206404
15618,2023-01-20 11:09:28.741749,203096070,0,-0.8954545,-0.05289969,0.1372704,-0.4201424
15650,2023-01-20 11:09:28.841750,203196071,0,-0.8942625,-0.05446781,0.1437113,-0.4203271
15684,2023-01-20 11:09:28.941761,203296083,0,-0.8939251,-0.05321283,0.1421675,-0.4217284
15716,2023-01-20 11:09:29.041750,203396071,0,-0.8931135,-0.0522636,0.1400051,-0.4242823
15747,2023-01-20 11:09:29.141762,203496076,0,-0.8922848,-0.05070608,0.1376385,-0.4269806
15781,2023-01-20 11:09:29.241751,203596072,0,-0.8913968,-0.05015763,0.136439,-0.4292788
15813,2023-01-20 11:09:29.341729,203696075,0,-0.8905379,-0.05061923,0.1368349,-0.4308785
15847,2023-01-20 11:09:29.441703,203796070,0,-0.890601,-0.04707745,0.1367364,-0.4311807
15878,2023-01-20 11:09:29.541696,203896078,0,-0.8915559,-0.04412328,0.1346708,-0.4301684
15912,2023-01-20 11:09:29.641726,203996071,0,-0.8929788,-0.04153429,0.1331127,-0.427954
15946,2023-01-20 11:09:29.741863,204096097,0,-0.89326,-0.03916881,0.1357097,-0.4267732
15978,2023-01-20 11:09:29.841872,204196071,0,-0.8925338,-0.03839447,0.1376916,-0.4277272
16012,2023-01-20 11:09:29.941819,204296088,0,-0.8915658,-0.03628362,0.1377984,-0.4298901
16044,2023-01-20 11:09:30.041755,204396084,0,-0.8913348,-0.0339423,0.1346274,-0.4315622
16075,2023-01-20 11:09:30.141712,204496086,0,-0.8905545,-0.03093176,0.1353688,-0.4331644
16109,2023-01-20 11:09:30.241678,204596072,0,-0.8893938,-0.03191387,0.1348406,-0.4356354
16141,2023-01-20 11:09:30.341706,204696084,0,-0.8880612,-0.03481201,0.1383803,-0.4370198
16175,2023-01-20 11:09:30.441694,204796071,0,-0.8873356,-0.03185946,0.1408942,-0.437915
16208,2023-01-20 11:09:30.541685,204896080,0,-0.8873807,-0.03080584,0.1429094,-0.4372453
16241,2023-01-20 11:09:30.641673,204996081,0,-0.888156,-0.02838617,0.1423403,-0.4360189
16274,2023-01-20 11:09:30.741665,205096079,0,-0.8883474,-0.03048867,0.140335,-0.436137
16306,2023-01-20 11:09:30.841669,205196071,0,-0.8878652,-0.03315827,0.1387891,-0.4374167
16383,2023-01-20 11:09:30.941724,205296091,0,-0.8875303,-0.03148598,0.1385578,-0.4382926
16415,2023-01-20 11:09:31.041717,205396067,0,-0.8874781,-0.02524103,0.1437169,-0.4371395
16446,2023-01-20 11:09:31.141721,205496077,0,-0.8882059,-0.02338249,0.1451759,-0.4352787
16480,2023-01-20 11:09:31.241731,205596094,0,-0.88894,-0.02697184,0.1438172,-0.4340217
16512,2023-01-20 11:09:31.341720,205696091,0,-0.8903648,-0.02516368,0.1447237,-0.4308973
16545,2023-01-20 11:09:31.441696,205796078,0,-0.8913043,-0.02244891,0.1465234,-0.4284899
16576,2023-01-20 11:09:31.541686,205896084,0,-0.8927317,-0.02206597,0.1473774,-0.4252331
16609,2023-01-20 11:09:31.641667,205996067,0,-0.8924367,-0.02564442,0.1565773,-0.4223536
16642,2023-01-20 11:09:31.741692,206096072,0,-0.8910944,-0.03131489,0.159188,-0.4238272
16674,2023-01-20 11:09:31.841718,206196085,0,-0.8895336,-0.03373684,0.158762,-0.4270672
16708,2023-01-20 11:09:31.941715,206296079,0,-0.8890488,-0.03347671,0.1539955,-0.4298337
16740,2023-01-20 11:09:32.041709,206396071,0,-0.8889808,-0.03321071,0.1508891,-0.4310949
16771,2023-01-20 11:09:32.141729,206496090,0,-0.8884095,-0.03193709,0.1586761,-0.4295703
16805,2023-01-20 11:09:32.241714,206596077,0,-0.8870965,-0.03270912,0.171237,-0.4273965
16837,2023-01-20 11:09:32.341707,206696076,0,-0.8860071,-0.03382914,0.1763054,-0.4275084
16871,2023-01-20 11:09:32.441709,206796090,0,-0.8853828,-0.03442432,0.1741033,-0.4296515
16902,2023-01-20 11:09:32.541674,206896075,0,-0.8861006,-0.03153985,0.1644938,-0.4321722
16935,2023-01-20 11:09:32.641653,206996067,0,-0.8866363,-0.03077707,0.1561853,-0.4342063
16968,2023-01-20 11:09:32.741663,207096080,0,-0.8862382,-0.03269698,0.1545973,-0.4354453
17000,2023-01-20 11:09:32.841674,207196080,0,-0.8860127,-0.03477632,0.1520014,-0.4366553
17034,2023-01-20 11:09:32.941697,207296073,0,-0.8862784,-0.03381833,0.1519006,-0.4362261
17066,2023-01-20 11:09:33.041721,207396080,0,-0.8861411,-0.03608376,0.1537078,-0.43569
17097,2023-01-20 11:09:33.141719,207496077,0,-0.8845792,-0.04283971,0.1582322,-0.4366315
17131,2023-01-20 11:09:33.241700,207596071,0,-0.8834314,-0.04194513,0.1575671,-0.4392748
17163,2023-01-20 11:09:33.341682,207696085,0,-0.8835801,-0.03456207,0.1541902,-0.4408139
17197,2023-01-20 11:09:33.441692,207796113,0,-0.8838944,-0.02601884,0.1522907,-0.441431
17228,2023-01-20 11:09:33.541655,207896074,0,-0.8839945,-0.01890489,0.1525324,-0.4415091
17261,2023-01-20 11:09:33.641674,207996083,0,-0.8848643,-0.01841298,0.1504907,-0.4404868
17294,2023-01-20 11:09:33.741694,208096080,0,-0.8862611,-0.01861888,0.1486917,-0.4382756
17326,2023-01-20 11:09:33.841701,208196071,0,-0.8879114,-0.02018354,0.1482404,-0.4350066
17360,2023-01-20 11:09:33.941718,208296081,0,-0.8891782,-0.02526129,0.1467349,-0.4326581
17392,2023-01-20 11:09:34.041721,208396079,0,-0.8900328,-0.02848821,0.1418525,-0.4323286
17423,2023-01-20 11:09:34.141734,208496089,0,-0.8909644,-0.02640676,0.1359518,-0.4324377
17457,2023-01-20 11:09:34.241726,208596081,0,-0.8911366,-0.02454554,0.1341657,-0.4327502
17489,2023-01-20 11:09:34.341719,208696075,0,-0.8912548,-0.02209707,0.1312899,-0.4335201
17523,2023-01-20 11:09:34.441733,208796100,0,-0.8909812,-0.02084177,0.1315919,-0.4340528
17554,2023-01-20 11:09:34.541692,208896083,0,-0.890894,-0.02071997,0.1309885,-0.43442
17587,2023-01-20 11:09:34.641683,208996080,0,-0.8908169,-0.02158894,0.1311556,-0.4344853
17621,2023-01-20 11:09:34.741696,209096074,0,-0.8908117,-0.02139059,0.1293381,-0.4350502
17653,2023-01-20 11:09:34.841714,209196079,0,-0.8907796,-0.02419307,0.1293826,-0.4349557
17687,2023-01-20 11:09:34.941713,209296074,0,-0.891285,-0.02379629,0.1263849,-0.4348238
17719,2023-01-20 11:09:35.041716,209396074,0,-0.8921677,-0.02356361,0.1232613,-0.4339222
17750,2023-01-20 11:09:35.141735,209496094,0,-0.8929571,-0.02194985,0.1255282,-0.4317276
17784,2023-01-20 11:09:35.241696,209596068,0,-0.8934605,-0.020643,0.1292129,-0.4296583
17816,2023-01-20 11:09:35.341680,209696082,0,-0.8940582,-0.01952867,0.1276914,-0.4289211
17850,2023-01-20 11:09:35.441687,209796100,0,-0.894272,-0.02122729,0.1256633,-0.4289939
17883,2023-01-20 11:09:35.541681,209896076,0,-0.8939121,-0.02146132,0.122516,-0.4306397
17916,2023-01-20 11:09:35.641696,209996078,0,-0.8930207,-0.02252171,0.1211853,-0.4328057
17949,2023-01-20 11:09:35.741724,210096097,0,-0.8927218,-0.02216741,0.1195102,-0.4339052
17981,2023-01-20 11:09:35.841697,210196072,0,-0.892736,-0.02319926,0.1216981,-0.4332135
18015,2023-01-20 11:09:35.941681,210296071,0,-0.8930759,-0.02366344,0.1234945,-0.4319777
18047,2023-01-20 11:09:36.041685,210396074,0,-0.8935507,-0.02234343,0.1226871,-0.4312957
18078,2023-01-20 11:09:36.141712,210496078,0,-0.8935611,-0.02329931,0.1269425,-0.4299901
18112,2023-01-20 11:09:36.241715,210596068,0,-0.8934273,-0.0253139,0.1300191,-0.4292343
18144,2023-01-20 11:09:36.341726,210696079,0,-0.8933998,-0.02401132,0.1316712,-0.4288626
18178,2023-01-20 11:09:36.437982,210796101,0,-0.8925555,-0.02697762,0.1344325,-0.429587
18209,2023-01-20 11:09:36.528947,210896085,0,-0.8913193,-0.02762796,0.1368934,-0.4313313
18242,2023-01-20 11:09:36.621890,210996071,0,-0.8900185,-0.02750787,0.1418956,-0.4324073
18275,2023-01-20 11:09:36.721901,211096079,0,-0.8887286,-0.02975017,0.1445119,-0.4340423
18307,2023-01-20 11:09:36.821904,211196076,0,-0.8875164,-0.03130573,0.1434728,-0.4367495
18341,2023-01-20 11:09:36.921934,211296092,0,-0.8864905,-0.02959904,0.1459231,-0.4381382
18373,2023-01-20 11:09:37.021921,211396072,0,-0.8853927,-0.02905752,0.1479941,-0.4396969
18404,2023-01-20 11:09:37.121925,211496092,0,-0.8848429,-0.02662379,0.1517187,-0.4396882
18438,2023-01-20 11:09:37.221880,211596067,0,-0.8848731,-0.02193384,0.1560975,-0.4383517
18470,2023-01-20 11:09:37.321862,211696081,0,-0.8851164,-0.0194303,0.1568254,-0.4377182
18504,2023-01-20 11:09:37.424267,211796104,0,-0.8856893,-0.01845584,0.1566218,-0.4366732
18535,2023-01-20 11:09:37.535254,211896078,0,-0.8864077,-0.01851539,0.1571163,-0.4350326
18568,2023-01-20 11:09:37.637891,211996071,0,-0.8870223,-0.020109,0.1582329,-0.4333009
18601,2023-01-20 11:09:37.728838,212096090,0,-0.8875644,-0.01649257,0.157212,-0.4327146
18633,2023-01-20 11:09:37.821722,212196068,0,-0.8875847,-0.01499968,0.1553767,-0.4333896
18667,2023-01-20 11:09:37.921749,212296077,0,-0.8870202,-0.01481066,0.1550539,-0.4346656
18699,2023-01-20 11:09:38.021763,212396079,0,-0.8862978,-0.01215913,0.1532756,-0.4368466
18730,2023-01-20 11:09:38.121763,212496091,0,-0.8853774,-0.01028011,0.1536776,-0.4386165
18764,2023-01-20 11:09:38.221745,212596086,0,-0.8845886,-0.008372791,0.1530732,-0.440456
18796,2023-01-20 11:09:38.321735,212696092,0,-0.8844131,-0.007185434,0.1498067,-0.4419501
18830,2023-01-20 11:09:38.421698,212796071,0,-0.88458,-0.007214813,0.1452433,-0.4431372
18861,2023-01-20 11:09:38.521684,212896073,0,-0.8846793,-0.00701337,0.1438632,-0.4433924
18894,2023-01-20 11:09:38.621684,212996082,0,-0.8852158,-0.007141851,0.1407944,-0.4433045
18927,2023-01-20 11:09:38.721696,213096082,0,-0.8856732,-0.005826506,0.1383766,-0.4431716
18959,2023-01-20 11:09:38.821697,213196071,0,-0.8864081,-0.005321424,0.1373131,-0.4420378
18993,2023-01-20 11:09:38.921729,213296091,0,-0.8875558,-0.003776574,0.1369492,-0.4398585
19025,2023-01-20 11:09:39.021717,213396071,0,-0.8891486,-0.002839965,0.1372169,-0.4365529
19056,2023-01-20 11:09:39.121716,213496074,0,-0.8905005,-0.002342102,0.1378509,-0.4335903
19090,2023-01-20 11:09:39.221714,213596081,0,-0.8914254,-0.002587263,0.1387887,-0.4313838
19122,2023-01-20 11:09:39.321691,213696082,0,-0.8926061,-4.672768E-05,0.1369251,-0.4295417
19156,2023-01-20 11:09:39.421696,213796105,0,-0.8932683,-0.001714814,0.1342606,-0.4290023
19187,2023-01-20 11:09:39.521684,213896089,0,-0.893358,-0.002701509,0.1327447,-0.4292822
19220,2023-01-20 11:09:39.621671,213996070,0,-0.8935968,-0.005681407,0.1301001,-0.4295655
19254,2023-01-20 11:09:39.721684,214096071,0,-0.8939462,-0.008532641,0.1301174,-0.4287853
19289,2023-01-20 11:09:39.821704,214196079,0,-0.8944682,-0.009290862,0.1282952,-0.4282297
19323,2023-01-20 11:09:39.921719,214296082,0,-0.8947442,-0.009437634,0.1296516,-0.4272403
19355,2023-01-20 11:09:40.021724,214396079,0,-0.8949194,-0.01086884,0.1308712,-0.4264669
19386,2023-01-20 11:09:40.121736,214496095,0,-0.8946565,-0.01231503,0.130131,-0.4272049
19420,2023-01-20 11:09:40.221709,214596072,0,-0.8942154,-0.01493432,0.1253949,-0.4294555
19452,2023-01-20 11:09:40.321710,214696075,0,-0.8939956,-0.01754512,0.1196599,-0.4314462
19486,2023-01-20 11:09:40.421710,214796081,0,-0.8938757,-0.01874201,0.1107516,-0.4340152
19519,2023-01-20 11:09:40.521687,214896079,0,-0.8932001,-0.0185249,0.1080786,-0.4360844
19552,2023-01-20 11:09:40.621675,214996079,0,-0.8923414,-0.01672545,0.1099635,-0.4374417
19585,2023-01-20 11:09:40.721688,215096075,0,-0.8920038,-0.01242388,0.1081325,-0.438728
19617,2023-01-20 11:09:40.821700,215196072,0,-0.8923095,-0.008969564,0.1064031,-0.4386134
19651,2023-01-20 11:09:40.921718,215296078,0,-0.8927432,-0.008996015,0.1069718,-0.437591
19683,2023-01-20 11:09:41.021727,215396078,0,-0.8932513,-0.007643758,0.1081767,-0.4362816
19714,2023-01-20 11:09:41.121747,215496100,0,-0.8936697,-0.006753328,0.1091936,-0.4351849
19748,2023-01-20 11:09:41.221711,215596072,0,-0.893636,-0.006546457,0.1141513,-0.4339832
19780,2023-01-20 11:09:41.321683,215696076,0,-0.8935708,-0.004074726,0.1168336,-0.4334335
19814,2023-01-20 11:09:41.421662,215796078,0,-0.8932428,-0.002208041,0.1172371,-0.4340138
19845,2023-01-20 11:09:41.521667,215896075,0,-0.8926522,-0.002404588,0.1221562,-0.4338713
19878,2023-01-20 11:09:41.621671,215996071,0,-0.8921387,-0.00516315,0.1254678,-0.4339584
19911,2023-01-20 11:09:41.721688,216096080,0,-0.8921687,-0.006031109,0.1272304,-0.4333717
19943,2023-01-20 11:09:41.821684,216196071,0,-0.8923415,-0.009642913,0.1255461,-0.4334419
19977,2023-01-20 11:09:41.921690,216296081,0,-0.8919981,-0.009141669,0.1273209,-0.4336421
20009,2023-01-20 11:09:42.021678,216396068,0,-0.8913009,-0.01011441,0.1291691,-0.4345064
20040,2023-01-20 11:09:42.121709,216496082,0,-0.89004,-0.01238182,0.1330887,-0.4358472
20074,2023-01-20 11:09:42.221709,216596071,0,-0.8885809,-0.01208025,0.1333077,-0.4387563
20106,2023-01-20 11:09:42.321703,216696073,0,-0.8873333,-0.00976586,0.134678,-0.440915
20140,2023-01-20 11:09:42.421707,216796087,0,-0.8859591,-0.01003805,0.1381418,-0.4425974
20171,2023-01-20 11:09:42.521682,216896076,0,-0.8851457,-0.008552267,0.1385338,-0.4441311
20204,2023-01-20 11:09:42.621664,216996067,0,-0.8843291,-0.009805677,0.1393147,-0.4454856
20237,2023-01-20 11:09:42.721693,217096087,0,-0.8837756,-0.009893818,0.1407544,-0.4461291
20269,2023-01-20 11:09:42.821689,217196072,0,-0.8837098,-0.007217456,0.1408766,-0.4462721
20303,2023-01-20 11:09:42.921720,217296086,0,-0.8843953,-0.003860584,0.1413174,-0.4448139
20335,2023-01-20 11:09:43.021732,217396085,0,-0.8850154,-0.001931569,0.1419152,-0.4434009
20366,2023-01-20 11:09:43.121726,217496080,0,-0.8854002,-0.001937454,0.1437118,-0.4420518
20400,2023-01-20 11:09:43.221714,217596072,0,-0.8855711,-0.0008839058,0.144031,-0.4416089
20432,2023-01-20 11:09:43.321714,217696085,0,-0.8853924,-0.001249894,0.1458936,-0.4413547
20465,2023-01-20 11:09:43.421722,217796106,0,-0.8851816,-0.001842318,0.1424019,-0.4429129
20496,2023-01-20 11:09:43.521682,217896076,0,-0.8847685,-0.001136381,0.1424293,-0.4437312
20529,2023-01-20 11:09:43.621676,217996076,0,-0.8840805,-0.001832596,0.1432139,-0.4448464
20562,2023-01-20 11:09:43.721689,218096078,0,-0.8841748,-0.0003244414,0.1397066,-0.4457768
20594,2023-01-20 11:09:43.821690,218196072,0,-0.8842785,0.0004197445,0.1347076,-0.4471076
20628,2023-01-20 11:09:43.921707,218296100,0,-0.8842221,-0.0001642102,0.1341395,-0.4473903
20660,2023-01-20 11:09:44.021673,218396069,0,-0.8841417,-0.00296226,0.1391438,-0.4460084
20691,2023-01-20 11:09:44.121701,218496074,0,-0.8846073,-0.006114803,0.1447174,-0.4432713
20725,2023-01-20 11:09:44.221722,218596080,0,-0.8856409,-0.007827297,0.1483718,-0.4399601
20757,2023-01-20 11:09:44.321712,218696080,0,-0.8867007,-0.007494921,0.1485267,-0.4377733
20791,2023-01-20 11:09:44.421693,218796077,0,-0.8879148,-0.007905268,0.1447095,-0.4365822
20822,2023-01-20 11:09:44.521660,218896082,0,-0.8883528,-0.009144145,0.1428277,-0.4362867
20855,2023-01-20 11:09:44.621625,218996068,0,-0.8885829,-0.01047531,0.1405181,-0.436538
20888,2023-01-20 11:09:44.721672,219096074,0,-0.8883257,-0.0125259,0.140867,-0.436895
20920,2023-01-20 11:09:44.821706,219196074,0,-0.8876404,-0.01685116,0.1417805,-0.4378457
20955,2023-01-20 11:09:44.921730,219296088,0,-0.8873444,-0.0200811,0.1435239,-0.4377416
20987,2023-01-20 11:09:45.021720,219396071,0,-0.887089,-0.02266765,0.1441017,-0.4379428
21018,2023-01-20 11:09:45.121737,219496087,0,-0.8869387,-0.0223952,0.145226,-0.43789
21052,2023-01-20 11:09:45.221721,219596073,0,-0.8870839,-0.0240884,0.1444176,-0.4377733
21084,2023-01-20 11:09:45.321710,219696075,0,-0.8873462,-0.02441841,0.1444524,-0.4372116
21118,2023-01-20 11:09:45.421721,219796094,0,-0.8876641,-0.02431829,0.1438003,-0.4367867
21151,2023-01-20 11:09:45.521710,219896074,0,-0.8876427,-0.02535778,0.1444142,-0.4365686
21184,2023-01-20 11:09:45.619738,219996074,0,-0.8877496,-0.0241655,0.1427967,-0.4369508
21217,2023-01-20 11:09:45.710630,220096077,0,-0.8873665,-0.02464999,0.143557,-0.4374525
21249,2023-01-20 11:09:45.801679,220196086,0,-0.8869323,-0.02658162,0.1425623,-0.4385438
21283,2023-01-20 11:09:45.901627,220296072,0,-0.8862484,-0.02561246,0.1425393,-0.4399894
21315,2023-01-20 11:09:46.001615,220396096,0,-0.8857971,-0.02692671,0.1444477,-0.4401971
21346,2023-01-20 11:09:46.101629,220496076,0,-0.8858862,-0.02422253,0.1445908,-0.4401278
21380,2023-01-20 11:09:46.201672,220596086,0,-0.8861023,-0.02196317,0.1440383,-0.4399924
21412,2023-01-20 11:09:46.301643,220696071,0,-0.8864057,-0.01935013,0.1431403,-0.4397968
21446,2023-01-20 11:09:46.401646,220796088,0,-0.8867676,-0.01646544,0.146248,-0.4381596
21477,2023-01-20 11:09:46.501619,220896072,0,-0.8870296,-0.01205236,0.1494421,-0.4366925
21510,2023-01-20 11:09:46.601631,220996094,0,-0.8876796,-0.008048972,0.1505882,-0.4350672
21543,2023-01-20 11:09:46.701631,221096086,0,-0.8886817,-0.004802688,0.1479634,-0.4339685
21575,2023-01-20 11:09:46.801644,221196091,0,-0.8892344,-0.007607862,0.1447434,-0.4338821
21609,2023-01-20 11:09:46.901613,221296082,0,-0.8891452,-0.007809738,0.1431726,-0.4345819
21641,2023-01-20 11:09:47.001620,221396110,0,-0.8893149,-0.006563651,0.1411228,-0.4349258
21672,2023-01-20 11:09:47.101595,221496091,0,-0.8896161,-0.004091103,0.1390594,-0.4350045
21706,2023-01-20 11:09:47.201598,221596100,0,-0.8901284,-0.006427536,0.1383596,-0.4341505
21738,2023-01-20 11:09:47.301546,221696074,0,-0.8904057,-0.006833577,0.1366925,-0.4341038
21772,2023-01-20 11:09:47.401571,221796125,0,-0.8904633,-0.01032801,0.138412,-0.4333713
21803,2023-01-20 11:09:47.501476,221896068,0,-0.8901483,-0.01094835,0.142079,-0.4328159
21885,2023-01-20 11:09:47.601478,221996107,0,-0.890247,-0.01074985,0.1392772,-0.4335281
21918,2023-01-20 11:09:47.701477,222096087,0,-0.8899985,-0.01009503,0.136642,-0.4348906
21950,2023-01-20 11:09:47.801519,222196110,0,-0.889895,-0.008461519,0.1341119,-0.4359235
21984,2023-01-20 11:09:47.901517,222296074,0,-0.8901215,-0.006958946,0.1307263,-0.4365156
22016,2023-01-20 11:09:48.001573,222396098,0,-0.8905312,-0.004833334,0.1273999,-0.4366923
22047,2023-01-20 11:09:48.101518,222496083,0,-0.8905631,-0.003760053,0.1266818,-0.4368468
22081,2023-01-20 11:09:48.201503,222596107,0,-0.8912754,-0.004405806,0.1193598,-0.4374495
22113,2023-01-20 11:09:48.301470,222696081,0,-0.8915231,-0.005115982,0.1165829,-0.4376861
22147,2023-01-20 11:09:48.401498,222796116,0,-0.8921085,-0.0003683103,0.1161898,-0.4366259
22178,2023-01-20 11:09:48.501419,222896073,0,-0.8931054,0.004762693,0.1145183,-0.4350006
22211,2023-01-20 11:09:48.601427,222996116,0,-0.8941295,0.005118753,0.1104362,-0.4339471
22244,2023-01-20 11:09:48.701432,223096080,0,-0.8939573,0.00658833,0.1079635,-0.4349033
22276,2023-01-20 11:09:48.801494,223196102,0,-0.8931481,0.009181616,0.11277,-0.435299
22310,2023-01-20 11:09:48.901478,223296085,0,-0.89224,0.01066185,0.1172988,-0.4359302
22342,2023-01-20 11:09:49.001500,223396106,0,-0.8921815,0.01185206,0.1180102,-0.4358274
22373,2023-01-20 11:09:49.101467,223496071,0,-0.8927245,0.0143551,0.1184949,-0.4345065
22406,2023-01-20 11:09:49.201515,223596117,0,-0.8927966,0.01669786,0.1228266,-0.4330694
22439,2023-01-20 11:09:49.301471,223696080,0,-0.8930962,0.01961507,0.1253043,-0.4316172
22473,2023-01-20 11:09:49.401498,223796115,0,-0.8930869,0.01698115,0.1276686,-0.431055
22504,2023-01-20 11:09:49.501444,223896076,0,-0.8921144,0.01373296,0.1281285,-0.4330433
22537,2023-01-20 11:09:49.601477,223996124,0,-0.8909444,0.01278604,0.124882,-0.4364161
22571,2023-01-20 11:09:49.701455,224096087,0,-0.8893229,0.01143294,0.1240669,-0.4399788
22603,2023-01-20 11:09:49.801505,224196122,0,-0.8873996,0.01337046,0.1270923,-0.4429345
22637,2023-01-20 11:09:49.901478,224296086,0,-0.8855963,0.0130974,0.1322985,-0.4450223
22670,2023-01-20 11:09:50.001515,224396115,0,-0.8837416,0.0125874,0.1387784,-0.4467471
22701,2023-01-20 11:09:50.101476,224496080,0,-0.8828374,0.01215306,0.1387906,-0.4485396
22734,2023-01-20 11:09:50.201504,224596111,0,-0.8823514,0.01076456,0.1442419,-0.4478107
22767,2023-01-20 11:09:50.301452,224696072,0,-0.8817682,0.008423643,0.151594,-0.4465795
22801,2023-01-20 11:09:50.401481,224796114,0,-0.8813247,0.006075845,0.1566744,-0.4457387
22834,2023-01-20 11:09:50.501427,224896099,0,-0.8816484,0.005236417,0.158879,-0.4443267
22867,2023-01-20 11:09:50.601398,224996109,0,-0.8820948,0.007402017,0.1594396,-0.4432077
22900,2023-01-20 11:09:50.701405,225096070,0,-0.8826294,0.006696163,0.1586249,-0.4424462
22932,2023-01-20 11:09:50.801495,225196116,0,-0.8834559,0.007327185,0.157403,-0.4412212
22966,2023-01-20 11:09:50.901459,225296075,0,-0.884327,0.007052962,0.1562348,-0.4398942
22998,2023-01-20 11:09:51.001500,225396110,0,-0.8848675,0.004069027,0.1522415,-0.4402448
23029,2023-01-20 11:09:51.101453,225496078,0,-0.8851317,0.0008242016,0.1486299,-0.4409651
23062,2023-01-20 11:09:51.201475,225596115,0,-0.8855018,0.0001722314,0.1459085,-0.4411319
23095,2023-01-20 11:09:51.301435,225696073,0,-0.8860294,0.001443392,0.1421002,-0.4413131
23129,2023-01-20 11:09:51.401491,225796128,0,-0.8864748,-0.0002057723,0.1411451,-0.4407273
23160,2023-01-20 11:09:51.501450,225896087,0,-0.8871341,-0.002227166,0.1381772,-0.4403351
23193,2023-01-20 11:09:51.601492,225996130,0,-0.8882506,-0.003550436,0.134139,-0.4393235
23226,2023-01-20 11:09:51.701455,226096071,0,-0.8886947,-0.005857478,0.1337342,-0.4385234
23258,2023-01-20 11:09:51.801516,226196110,0,-0.8893632,-0.005970862,0.1329004,-0.4374185
23292,2023-01-20 11:09:51.901475,226296079,0,-0.8891175,-0.009428372,0.1345403,-0.4373557
23324,2023-01-20 11:09:52.001506,226396120,0,-0.8891465,-0.01057837,0.1319209,-0.4380679
23355,2023-01-20 11:09:52.101465,226496078,0,-0.8892457,-0.009006602,0.1293527,-0.4386674
23388,2023-01-20 11:09:52.201498,226596109,0,-0.8891075,-0.008870745,0.1301254,-0.4387217
23421,2023-01-20 11:09:52.301447,226696072,0,-0.8886607,-0.005658838,0.1309241,-0.4394419
23455,2023-01-20 11:09:52.401491,226796129,0,-0.8883453,-0.004502852,0.1311541,-0.4400238
23486,2023-01-20 11:09:52.501424,226896073,0,-0.887665,-0.001130784,0.1303216,-0.4416628
23519,2023-01-20 11:09:52.601457,226996116,0,-0.8868581,0.0005712711,0.1316606,-0.4428857
23552,2023-01-20 11:09:52.701455,227096077,0,-0.8864065,0.004100154,0.135029,-0.4427571
23584,2023-01-20 11:09:52.801530,227196116,0,-0.8865835,0.002628026,0.1363662,-0.4420035
23618,2023-01-20 11:09:52.901470,227296075,0,-0.8870765,0.004534599,0.1352608,-0.4413382
23650,2023-01-20 11:09:53.001494,227396118,0,-0.8872994,0.002333957,0.1361318,-0.4406387
23681,2023-01-20 11:09:53.101444,227496073,0,-0.8874362,0.001420838,0.1346756,-0.4408147
23714,2023-01-20 11:09:53.201491,227596124,0,-0.8878913,0.002430297,0.1325753,-0.4405303
23747,2023-01-20 11:09:53.301456,227696077,0,-0.8880305,0.003207539,0.1334473,-0.4399811
23781,2023-01-20 11:09:53.401507,227796116,0,-0.8879829,0.003724076,0.1349424,-0.4396169
23812,2023-01-20 11:09:53.501448,227896073,0,-0.8883195,0.004971419,0.1353077,-0.4388117
23845,2023-01-20 11:09:53.601479,227996119,0,-0.8890174,0.002857802,0.1355323,-0.4373454
23878,2023-01-20 11:09:53.701429,228096073,0,-0.889268,0.001517995,0.1361679,-0.4366446
23910,2023-01-20 11:09:53.801462,228196110,0,-0.8896674,-0.0008091595,0.1336146,-0.4366218
23944,2023-01-20 11:09:53.901461,228296086,0,-0.889504,-0.002261964,0.1313501,-0.4376355
23976,2023-01-20 11:09:54.001515,228396118,0,-0.8893238,-0.004702596,0.1264895,-0.4394105
24007,2023-01-20 11:09:54.101475,228496073,0,-0.8893043,-0.005657056,0.1243595,-0.4400462
24039,2023-01-20 11:09:54.201538,228596131,0,-0.8895311,-0.006733481,0.1223709,-0.4401302
24072,2023-01-20 11:09:54.301469,228696073,0,-0.8905497,-0.003548477,0.1207735,-0.4385459
24106,2023-01-20 11:09:54.401504,228796118,0,-0.891571,-0.003129869,0.1193862,-0.4368505
24137,2023-01-20 11:09:54.501456,228896082,0,-0.8929061,-0.001164515,0.1166728,-0.434862
