LineNo,UTC_Approx,TimeUS,C,Cnt,IMUMin,IMUMax,EKFMin,EKFMax,AngMin,AngMax,VMin,VMax
2353,2023-01-20 11:08:48.821971,163096063,0,404,0.0025,0.0025,0.0123548,0.01251343,0.01103579,0.01304249,0.01103579,0.01304246
4277,2023-01-20 11:08:53.921691,168196079,0,408,0.0025,0.0025,0.01247784,0.01251339,0.01103581,0.01304255,0.01103582,0.01304253
5932,2023-01-20 11:08:59.019695,173296082,0,408,0.0025,0.0025,0.012485,0.01251348,0.01103583,0.01304257,0.01103586,0.01304258
7584,2023-01-20 11:09:04.101391,178396072,0,408,0.0025,0.0025,0.01248486,0.0125134,0.01103587,0.0130426,0.01103586,0.01304257
9238,2023-01-20 11:09:09.183498,183496100,0,408,0.0025,0.0025,0.01248496,0.0125134,0.01103594,0.01304265,0.0110359,0.01304263
10892,2023-01-20 11:09:14.281693,188596080,0,408,0.0025,0.0025,0.01248459,0.01251331,0.01103596,0.01304263,0.01103595,0.01304267
12550,2023-01-20 11:09:19.361931,193696087,0,408,0.0025,0.0025,0.01248449,0.01251327,0.01103605,0.01304273,0.01103593,0.01304271
14215,2023-01-20 11:09:24.461694,198796075,0,408,0.0025,0.0025,0.01248462,0.01251339,0.01103607,0.01304282,0.01103606,0.0130428
15879,2023-01-20 11:09:29.541696,203896078,0,408,0.0025,0.0025,0.01248466,0.01251337,0.01103606,0.0130428,0.01103607,0.01304287
17588,2023-01-20 11:09:34.641683,208996080,0,408,0.0025,0.0025,0.01248464,0.01251343,0.01103612,0.01304288,0.01103607,0.01304286
19255,2023-01-20 11:09:39.721684,214096071,0,408,0.0025,0.0025,0.01248505,0.01251343,0.01103616,0.01304292,0.01103616,0.01304293
20923,2023-01-20 11:09:44.821706,219196074,0,408,0.0025,0.0025,0.01248481,0.01251349,0.01103616,0.01304292,0.01103623,0.01304299
22638,2023-01-20 11:09:49.901478,224296086,0,408,0.0025,0.0025,0.01248507,0.01251349,0.01103631,0.01304299,0.01103626,0.01304297
24302,2023-01-20 11:09:55.001511,229396103,0,408,0.0025,0.0025,0.0124849,0.01251364,0.01103625,0.01304303,0.01103629,0.013043
25967,2023-01-20 11:10:00.081696,234496067,0,408,0.0025,0.0025,0.01248518,0.0125137,0.01103624,0.01304301,0.01103622,0.01304303
27624,2023-01-20 11:10:05.165363,239596079,0,408,0.0025,0.0025,0.01248513,0.01251372,0.01103629,0.01304304,0.01103625,0.01304302
29344,2023-01-20 11:10:10.261680,244696074,0,408,0.0025,0.0025,0.01248491,0.01251375,0.01103622,0.01304306,0.01103623,0.01304305
31009,2023-01-20 11:10:15.361716,249796083,0,408,0.0025,0.0025,0.01248517,0.01251371,0.01103626,0.01304306,0.01103628,0.01304303
32678,2023-01-20 11:10:20.441688,254896071,0,408,0.0025,0.0025,0.01248528,0.01251377,0.01103624,0.01304305,0.01103622,0.01304302
34346,2023-01-20 11:10:25.521802,259996072,0,408,0.0025,0.0025,0.01248512,0.01251376,0.01103623,0.013043,0.01103626,0.01304305
36065,2023-01-20 11:10:30.621651,265096080,0,408,0.0025,0.0025,0.012485,0.01251373,0.01103626,0.01304306,0.01103623,0.01304304
37733,2023-01-20 11:10:35.701470,270196081,0,408,0.0025,0.0025,0.01248506,0.01251368,0.01103624,0.01304302,0.01103624,0.01304306
39404,2023-01-20 11:10:40.801470,275296122,0,408,0.0025,0.0025,0.01248496,0.01251382,0.01103623,0.01304304,0.01103627,0.01304305
41118,2023-01-20 11:10:45.881799,280396104,0,408,0.0025,0.0025,0.01248499,0.01251372,0.01103625,0.01304306,0.01103628,0.01304303
42785,2023-01-20 11:10:50.981719,285496075,0,408,0.0025,0.0025,0.01248504,0.01251363,0.0110363,0.01304309,0.01103625,0.01304306
44453,2023-01-20 11:10:56.061689,290596072,0,408,0.0025,0.0025,0.01248492,0.0125137,0.01103629,0.01304304,0.01103626,0.01304312
46172,2023-01-20 11:11:01.161687,295696068,0,408,0.0025,0.0025,0.01248486,0.0125137,0.01103631,0.01304309,0.01103629,0.01304307
47840,2023-01-20 11:11:06.241695,300796077,0,408,0.0025,0.0025,0.01248503,0.01251363,0.01103629,0.01304315,0.01103631,0.01304313
49507,2023-01-20 11:11:11.341707,305896075,0,408,0.0025,0.0025,0.01248497,0.01251359,0.01103631,0.0130431,0.01103629,0.01304307
51226,2023-01-20 11:11:16.421699,310996080,0,408,0.0025,0.0025,0.01248496,0.01251369,0.01103635,0.01304315,0.01103633,0.01304313
52895,2023-01-20 11:11:21.521671,316096082,0,408,0.0025,0.0025,0.01248499,0.01251374,0.01103636,0.01304317,0.01103635,0.01304317
54563,2023-01-20 11:11:26.601438,321196108,0,408,0.0025,0.0025,0.01248498,0.01251372,0.01103634,0.01304314,0.01103632,0.01304317
56232,2023-01-20 11:11:31.681804,326296084,0,408,0.0025,0.0025,0.01248519,0.01251371,0.01103638,0.0130432,0.01103637,0.01304316
57946,2023-01-20 11:11:36.781667,331396072,0,408,0.0025,0.0025,0.01248503,0.01251367,0.01103642,0.0130432,0.01103641,0.01304322
59613,2023-01-20 11:11:41.861722,336496068,0,408,0.0025,0.0025,0.01248502,0.01251374,0.01103638,0.01304318,0.01103642,0.01304322
61273,2023-01-20 11:11:46.961695,341596082,0,408,0.0025,0.0025,0.01248516,0.01251367,0.01103641,0.01304322,0.01103637,0.0130432
62940,2023-01-20 11:11:52.041747,346696086,0,408,0.0025,0.0025,0.01248495,0.01251375,0.01103641,0.01304323,0.01103641,0.01304321
64597,2023-01-20 11:11:57.141690,351796090,0,408,0.0025,0.0025,0.01248539,0.01251389,0.01103644,0.01304328,0.01103642,0.01304327
66309,2023-01-20 11:12:02.221726,356896066,0,408,0.0025,0.0025,0.01248536,0.01251385,0.01103641,0.01304321,0.01103639,0.01304325
67977,2023-01-20 11:12:07.321717,361996072,0,408,0.0025,0.0025,0.0124852,0.01251388,0.01103637,0.01304322,0.0110364,0.01304322
69648,2023-01-20 11:12:12.401478,367096106,0,408,0.0025,0.0025,0.0124851,0.01251398,0.01103639,0.01304319,0.0110364,0.01304316
71366,2023-01-20 11:12:17.501438,372196093,0,408,0.0025,0.0025,0.01248536,0.01251398,0.01103634,0.01304316,0.01103634,0.01304318
73034,2023-01-20 11:12:22.581687,377296101,0,408,0.0025,0.0025,0.01248525,0.01251402,0.01103642,0.01304318,0.01103636,0.01304316
74701,2023-01-20 11:12:27.681717,382396088,0,408,0.0025,0.0025,0.01248523,0.01251397,0.01103633,0.01304312,0.01103631,0.01304312
76368,2023-01-20 11:12:32.761694,387496072,0,408,0.0025,0.0025,0.01248563,0.01251393,0.01103629,0.0130431,0.01103629,0.01304312
78085,2023-01-20 11:12:37.856149,392596072,0,408,0.0025,0.0025,0.01248561,0.01251399,0.01103627,0.01304305,0.01103627,0.01304306
79754,2023-01-20 11:12:42.941721,397696094,0,408,0.0025,0.0025,0.01248563,0.01251396,0.01103623,0.01304303,0.01103624,0.01304305
81422,2023-01-20 11:12:48.021833,402796070,0,408,0.0025,0.0025,0.01248555,0.01251401,0.01103621,0.01304303,0.0110362,0.01304301
83139,2023-01-20 11:12:53.121700,407896072,0,408,0.0025,0.0025,0.01248535,0.01251409,0.01103615,0.01304295,0.01103614,0.01304292
84806,2023-01-20 11:12:58.201604,412996093,0,408,0.0025,0.0025,0.01248553,0.01251411,0.01103611,0.01304291,0.01103613,0.01304292
86477,2023-01-20 11:13:03.301450,418096086,0,408,0.0025,0.0025,0.01248538,0.01251409,0.01103609,0.01304287,0.01103613,0.01304292
88194,2023-01-20 11:13:08.381749,423196089,0,408,0.0025,0.0025,0.01248535,0.01251408,0.01103607,0.01304282,0.01103608,0.01304285
89863,2023-01-20 11:13:13.481697,428296074,0,408,0.0025,0.0025,0.01248559,0.01251409,0.01103602,0.01304279,0.01103605,0.01304285
91531,2023-01-20 11:13:18.561712,433396072,0,408,0.0025,0.0025,0.01248555,0.01251409,0.011036,0.01304276,0.01103598,0.01304279
93248,2023-01-20 11:13:23.661637,438496076,0,408,0.0025,0.0025,0.01248525,0.01251411,0.01103598,0.01304276,0.01103598,0.0130427
94914,2023-01-20 11:13:28.741715,443596090,0,408,0.0025,0.0025,0.01248544,0.01251411,0.01103596,0.0130427,0.01103594,0.01304267
96582,2023-01-20 11:13:33.841716,448696081,0,408,0.0025,0.0025,0.01248552,0.01251401,0.01103592,0.01304261,0.01103592,0.01304265
98243,2023-01-20 11:13:38.921715,453796082,0,408,0.0025,0.0025,0.01248552,0.01251401,0.01103587,0.0130426,0.01103584,0.01304263
99904,2023-01-20 11:13:44.021715,458896079,0,408,0.0025,0.0025,0.01248543,0.01251405,0.01103587,0.01304259,0.01103584,0.01304258
101566,2023-01-20 11:13:49.101449,463996068,0,408,0.0025,0.0025,0.01248528,0.01251405,0.0110358,0.01304251,0.01103583,0.01304253
103278,2023-01-20 11:13:54.201481,469096091,0,408,0.0025,0.0025,0.01248521,0.01251389,0.01103582,0.01304253,0.01103577,0.01304247
104946,2023-01-20 11:13:59.281741,474196102,0,408,0.0025,0.0025,0.01248538,0.01251392,0.01103579,0.01304249,0.01103577,0.01304247
106615,2023-01-20 11:14:04.381705,479296079,0,408,0.0025,0.0025,0.01248534,0.01251384,0.01103574,0.01304243,0.01103577,0.01304246
108332,2023-01-20 11:14:09.461676,484396071,0,408,0.0025,0.0025,0.01248528,0.0125138,0.01103574,0.01304243,0.01103576,0.01304246
109998,2023-01-20 11:14:14.561660,489496071,0,408,0.0025,0.0025,0.01248506,0.01251371,0.01103574,0.01304243,0.01103571,0.0130424
111668,2023-01-20 11:14:19.641654,494596072,0,408,0.0025,0.0025,0.01248492,0.01251355,0.01103576,0.01304247,0.01103577,0.01304246
113386,2023-01-20 11:14:24.721894,499696078,0,408,0.0025,0.0025,0.01248468,0.0125134,0.01103575,0.0130425,0.01103576,0.01304247
115054,2023-01-20 11:14:29.821718,504796092,0,408,0.0025,0.0025,0.01248471,0.0125134,0.01103579,0.0130425,0.01103579,0.01304247
116720,2023-01-20 11:14:34.901515,509896081,0,408,0.0025,0.0025,0.01248489,0.01251343,0.01103579,0.01304249,0.01103582,0.01304253
118389,2023-01-20 11:14:40.001502,514996120,0,408,0.0025,0.0025,0.01248508,0.01251351,0.01103587,0.01304259,0.01103587,0.01304258
120105,2023-01-20 11:14:45.081710,520096071,0,408,0.0025,0.0025,0.01248506,0.01251351,0.01103589,0.0130426,0.01103586,0.01304257
121776,2023-01-20 11:14:50.181708,525196073,0,408,0.0025,0.0025,0.01248481,0.01251355,0.01103588,0.01304265,0.01103588,0.01304262
123444,2023-01-20 11:14:55.261721,530296082,0,408,0.0025,0.0025,0.01248481,0.01251379,0.01103591,0.01304264,0.01103589,0.01304261
125161,2023-01-20 11:15:00.357455,535396080,0,408,0.0025,0.0025,0.01248496,0.01251357,0.01103593,0.01304267,0.01103592,0.01304266
126830,2023-01-20 11:15:05.441700,540496076,0,408,0.0025,0.0025,0.01248486,0.0125135,0.01103596,0.01304267,0.01103597,0.0130427
128498,2023-01-20 11:15:10.541696,545596080,0,408,0.0025,0.0025,0.01248476,0.01251341,0.01103596,0.01304271,0.01103598,0.01304273
130217,2023-01-20 11:15:15.621664,550696072,0,408,0.0025,0.0025,0.01248457,0.01251338,0.01103606,0.01304276,0.01103604,0.01304273
131885,2023-01-20 11:15:20.721675,555796076,0,408,0.0025,0.0025,0.01248458,0.0125134,0.01103614,0.01304283,0.01103612,0.01304281
133552,2023-01-20 11:15:25.801505,560896118,0,408,0.0025,0.0025,0.01248473,0.01251339,0.01103606,0.01304283,0.01103616,0.01304287
135208,2023-01-20 11:15:30.881868,565996069,0,408,0.0025,0.0025,0.01248488,0.01251341,0.01103613,0.01304289,0.01103611,0.01304286
136871,2023-01-20 11:15:35.981711,571096094,0,408,0.0025,0.0025,0.01248496,0.01251354,0.01103618,0.01304295,0.01103614,0.01304294
138533,2023-01-20 11:15:41.061803,576196078,0,408,0.0025,0.0025,0.01248484,0.01251356,0.01103622,0.01304292,0.01103623,0.01304296
140243,2023-01-20 11:15:46.161666,581296072,0,408,0.0025,0.0025,0.01248517,0.0125135,0.01103619,0.01304303,0.01103617,0.01304297
141913,2023-01-20 11:15:51.241931,586396081,0,408,0.0025,0.0025,0.01248512,0.01251364,0.01103619,0.01304303,0.01103623,0.01304303
143579,2023-01-20 11:15:56.341709,591496071,0,408,0.0025,0.0025,0.01248493,0.01251365,0.01103622,0.01304305,0.01103619,0.01304299
145299,2023-01-20 11:16:01.421692,596596071,0,408,0.0025,0.0025,0.01248528,0.01251374,0.01103621,0.01304305,0.01103628,0.01304302
146967,2023-01-20 11:16:06.521657,601696081,0,408,0.0025,0.0025,0.0124851,0.0125138,0.01103626,0.01304301,0.01103621,0.01304301
148634,2023-01-20 11:16:11.601470,606796130,0,408,0.0025,0.0025,0.01248531,0.01251375,0.0110362,0.013043,0.01103623,0.01304301
150350,2023-01-20 11:16:16.701458,611896086,0,408,0.0025,0.0025,0.01248514,0.01251382,0.01103619,0.01304296,0.01103622,0.013043
152018,2023-01-20 11:16:21.781670,616996072,0,408,0.0025,0.0025,0.01248531,0.0125139,0.01103619,0.01304299,0.01103616,0.01304299
153688,2023-01-20 11:16:26.881704,622096082,0,408,0.0025,0.0025,0.01248546,0.01251405,0.01103615,0.01304291,0.01103619,0.01304295
155405,2023-01-20 11:16:31.961712,627196080,0,408,0.0025,0.0025,0.01248528,0.01251399,0.01103615,0.01304292,0.01103613,0.01304295
157074,2023-01-20 11:16:37.061710,632296070,0,408,0.0025,0.0025,0.0124856,0.01251405,0.01103613,0.01304292,0.0110361,0.01304288
158739,2023-01-20 11:16:42.141683,637396075,0,408,0.0025,0.0025,0.01248558,0.01251409,0.0110361,0.01304285,0.01103607,0.01304282
160407,2023-01-20 11:16:47.241713,642496076,0,408,0.0025,0.0025,0.01248555,0.01251413,0.01103605,0.01304285,0.01103602,0.01304282
162125,2023-01-20 11:16:52.321726,647596076,0,408,0.0025,0.0025,0.01248553,0.01251406,0.01103597,0.01304279,0.011036,0.01304277
163797,2023-01-20 11:16:57.401678,652696108,0,408,0.0025,0.0025,0.01248529,0.01251391,0.01103596,0.01304273,0.01103598,0.01304277
165464,2023-01-20 11:17:02.501458,657796083,0,408,0.0025,0.0025,0.01248534,0.01251409,0.01103596,0.01304268,0.01103597,0.01304269
167179,2023-01-20 11:17:07.583485,662896110,0,408,0.0025,0.0025,0.01248542,0.01251404,0.01103592,0.01304264,0.01103589,0.01304261
168847,2023-01-20 11:17:12.681664,667996095,0,408,0.0025,0.0025,0.01248518,0.01251402,0.01103589,0.01304266,0.01103587,0.0130426
170509,2023-01-20 11:17:17.779645,673096069,0,408,0.0025,0.0025,0.01248559,0.01251395,0.01103588,0.01304264,0.01103586,0.01304259
172176,2023-01-20 11:17:22.861703,678196079,0,408,0.0025,0.0025,0.01248539,0.01251395,0.01103582,0.01304253,0.01103588,0.01304257
173835,2023-01-20 11:17:27.941718,683296084,0,408,0.0025,0.0025,0.01248548,0.012514,0.01103582,0.01304252,0.01103584,0.01304256
175544,2023-01-20 11:17:33.041674,688396080,0,408,0.0025,0.0025,0.01248513,0.01251394,0.01103581,0.01304252,0.01103579,0.01304252
177211,2023-01-20 11:17:38.121701,693496067,0,408,0.0025,0.0025,0.01248546,0.01251393,0.01103575,0.01304251,0.01103578,0.01304249
178878,2023-01-20 11:17:43.221730,698596092,0,408,0.0025,0.0025,0.01248556,0.01251355,0.01103575,0.01304245,0.01103578,0.01304249
180547,2023-01-20 11:17:48.301438,703696080,0,408,0.0025,0.0025,0.01248528,0.01251385,0.01103576,0.01304248,0.0110358,0.01304251
182265,2023-01-20 11:17:53.401451,708796119,0,408,0.0025,0.0025,0.01248526,0.01251383,0.01103575,0.01304246,0.01103577,0.01304247
183934,2023-01-20 11:17:58.481696,713896076,0,408,0.0025,0.0025,0.0124854,0.01251386,0.01103575,0.01304245,0.01103572,0.01304244
185600,2023-01-20 11:18:03.581671,718996074,0,408,0.0025,0.0025,0.01248494,0.01251352,0.01103575,0.01304245,0.01103573,0.01304242
187320,2023-01-20 11:18:08.661680,724096102,0,408,0.0025,0.0025,0.01248506,0.01251351,0.01103575,0.01304245,0.01103573,0.01304245
188987,2023-01-20 11:18:13.761696,729196076,0,408,0.0025,0.0025,0.01248476,0.01251344,0.01103575,0.01304245,0.01103573,0.01304249
190657,2023-01-20 11:18:18.841708,734296078,0,408,0.0025,0.0025,0.01248491,0.01251341,0.01103578,0.01304252,0.01103579,0.01304252
192372,2023-01-20 11:18:23.928964,739396088,0,408,0.0025,0.0025,0.01248487,0.01251341,0.01103581,0.01304251,0.01103583,0.01304258
194043,2023-01-20 11:18:29.021711,744496076,0,408,0.0025,0.0025,0.01248475,0.01251331,0.01103591,0.01304257,0.01103591,0.0130426
195708,2023-01-20 11:18:34.101593,749596075,0,408,0.0025,0.0025,0.01248467,0.01251335,0.0110359,0.01304262,0.01103587,0.01304259
197427,2023-01-20 11:18:39.201520,754696125,0,408,0.0025,0.0025,0.01248491,0.01251342,0.01103594,0.01304271,0.01103592,0.01304266
199093,2023-01-20 11:18:44.281871,759796075,0,408,0.0025,0.0025,0.01248486,0.01251337,0.01103598,0.01304271,0.01103595,0.01304268
200760,2023-01-20 11:18:49.381703,764896079,0,408,0.0025,0.0025,0.0124847,0.01251335,0.011036,0.01304274,0.01103598,0.01304273
202429,2023-01-20 11:18:54.461790,769996080,0,408,0.0025,0.0025,0.01248464,0.01251337,0.01103608,0.01304278,0.01103606,0.01304279
204149,2023-01-20 11:18:59.561662,775096090,0,408,0.0025,0.0025,0.01248483,0.01251272,0.01103608,0.01304287,0.01103622,0.01304284
205817,2023-01-20 11:19:04.641672,780196072,0,408,0.0025,0.0025,0.01248586,0.01251215,0.01203944,0.01304295,0.01203941,0.01304292
207479,2023-01-20 11:19:09.741682,785296078,0,408,0.0025,0.0025,0.01248593,0.01251219,0.0120395,0.01304301,0.01203948,0.01304299
209136,2023-01-20 11:19:14.821715,790396080,0,408,0.0025,0.0025,0.01248484,0.0125135,0.01103629,0.01304304,0.01103625,0.01304303
210801,2023-01-20 11:19:19.921692,795496069,0,408,0.0025,0.0025,0.01248511,0.01251365,0.01103627,0.01304307,0.0110363,0.01304309
212507,2023-01-20 11:19:25.001514,800596117,0,408,0.0025,0.0025,0.01248514,0.01251364,0.01103627,0.01304306,0.01103628,0.01304311
214179,2023-01-20 11:19:30.081916,805696088,0,408,0.0025,0.0025,0.01248509,0.01251364,0.0110363,0.01304314,0.01103628,0.01304309
215845,2023-01-20 11:19:35.181723,810796082,0,408,0.0025,0.0025,0.01248519,0.01251376,0.0110363,0.01304314,0.01103632,0.01304316
217514,2023-01-20 11:19:40.261845,815896083,0,408,0.0025,0.0025,0.01248502,0.01251376,0.01103632,0.01304311,0.0110363,0.01304316
219228,2023-01-20 11:19:45.361695,820996072,0,408,0.0025,0.0025,0.01248511,0.0125138,0.01103636,0.01304314,0.01103632,0.01304314
220899,2023-01-20 11:19:50.441814,826096079,0,408,0.0025,0.0025,0.01248531,0.01251384,0.01103632,0.01304314,0.0110363,0.01304313
222571,2023-01-20 11:19:55.541680,831196090,0,408,0.0025,0.0025,0.0124851,0.01251381,0.0110363,0.01304313,0.01103634,0.01304313
224290,2023-01-20 11:20:00.621727,836296084,0,408,0.0025,0.0025,0.01248518,0.0125138,0.01103632,0.01304314,0.0110363,0.01304309
225955,2023-01-20 11:20:05.721684,841396067,0,408,0.0025,0.0025,0.0124852,0.01251381,0.01103628,0.01304309,0.0110363,0.01304311
227625,2023-01-20 11:20:10.801456,846496095,0,408,0.0025,0.0025,0.01248545,0.01251384,0.01103629,0.01304309,0.0110363,0.01304308
229339,2023-01-20 11:20:15.901467,851596074,0,408,0.0025,0.0025,0.01248552,0.01251395,0.01103629,0.01304307,0.01103626,0.01304304
231007,2023-01-20 11:20:20.981729,856696086,0,408,0.0025,0.0025,0.01248544,0.01251395,0.01103621,0.01304305,0.01103625,0.01304303
232676,2023-01-20 11:20:26.081729,861796073,0,408,0.0025,0.0025,0.0124856,0.01251392,0.01103624,0.01304301,0.01103621,0.01304298
234394,2023-01-20 11:20:31.161664,866896080,0,408,0.0025,0.0025,0.01248546,0.01251391,0.01103619,0.01304296,0.0110362,0.01304304
236061,2023-01-20 11:20:36.261690,871996071,0,408,0.0025,0.0025,0.01248517,0.01251406,0.01103619,0.01304296,0.01103617,0.01304297
237731,2023-01-20 11:20:41.341709,877096078,0,408,0.0025,0.0025,0.01248526,0.012514,0.01103616,0.01304292,0.01103614,0.01304292
239399,2023-01-20 11:20:46.441710,882196077,0,408,0.0025,0.0025,0.01248552,0.01251401,0.01103611,0.01304289,0.01103614,0.01304293
241118,2023-01-20 11:20:51.521635,887296075,0,408,0.0025,0.0025,0.01248545,0.01251402,0.01103614,0.0130429,0.01103611,0.01304286
242781,2023-01-20 11:20:56.601506,892396103,0,408,0.0025,0.0025,0.01248547,0.01251391,0.01103611,0.01304286,0.01103606,0.01304286
244442,2023-01-20 11:21:01.701435,897496079,0,408,0.0025,0.0025,0.01248529,0.0125139,0.01103606,0.01304283,0.01103604,0.01304281
246104,2023-01-20 11:21:06.783394,902596123,0,408,0.0025,0.0025,0.01248545,0.01251406,0.01103603,0.0130428,0.01103601,0.01304281
247768,2023-01-20 11:21:11.881715,907696100,0,408,0.0025,0.0025,0.01248549,0.01251402,0.01103601,0.01304275,0.01103599,0.01304276
249479,2023-01-20 11:21:16.961910,912796074,0,408,0.0025,0.0025,0.01248518,0.01251383,0.01103598,0.01304273,0.01103601,0.01304278
251147,2023-01-20 11:21:22.061673,917896072,0,408,0.0025,0.0025,0.01248506,0.01251368,0.01103602,0.01304276,0.01103599,0.01304278
252812,2023-01-20 11:21:27.141845,922996069,0,408,0.0025,0.0025,0.01248495,0.0125135,0.01103603,0.01304273,0.01103601,0.01304277
254481,2023-01-20 11:21:32.241702,928096718,0,408,0.0025,0.0025,0.01248504,0.01251851,0.01103602,0.01304278,0.01103601,0.01304279
256137,2023-01-20 11:21:37.321655,933196692,0,408,0.0025,0.0025,0.01248481,0.0125196,0.01103606,0.01304284,0.01103603,0.01304282
257841,2023-01-20 11:21:42.421650,938296700,0,408,0.0025,0.0025,0.01248477,0.01251356,0.01103613,0.01304289,0.01103611,0.01304286
259505,2023-01-20 11:21:47.501395,943396725,0,408,0.0025,0.0025,0.01248491,0.01251349,0.0110361,0.01304289,0.01103611,0.0130429
261174,2023-01-20 11:21:52.601368,948496741,0,408,0.0025,0.0025,0.0124848,0.01251333,0.01103617,0.01304293,0.01103615,0.01304291
262834,2023-01-20 11:21:57.681640,953596699,0,408,0.0025,0.0025,0.01248481,0.01251343,0.01103623,0.01304296,0.01103618,0.01304298
264537,2023-01-20 11:22:02.781657,958696692,0,408,0.0025,0.0025,0.01248499,0.01251352,0.0110362,0.01304295,0.01103624,0.01304303
266187,2023-01-20 11:22:07.861681,963796698,0,408,0.0025,0.0025,0.01248463,0.0125129,0.01103623,0.01304303,0.01103629,0.01304306
267836,2023-01-20 11:22:12.941848,968896701,0,408,0.0025,0.0025,0.01248516,0.01251349,0.0110363,0.01304309,0.01103633,0.01304312
269490,2023-01-20 11:22:18.041651,973996696,0,408,0.0025,0.0025,0.01248488,0.01251361,0.01103635,0.01304312,0.01103631,0.01304307
271145,2023-01-20 11:22:23.121764,979096692,0,408,0.0025,0.0025,0.01248526,0.0125135,0.01103635,0.01304317,0.01103634,0.01304313
272801,2023-01-20 11:22:28.221694,984196702,0,408,0.0025,0.0025,0.01248525,0.01251371,0.01103635,0.01304319,0.01103636,0.01304317
274454,2023-01-20 11:22:33.301420,989296699,0,408,0.0025,0.0025,0.01248507,0.01251382,0.01103636,0.01304315,0.01103633,0.01304312
276108,2023-01-20 11:22:38.401483,994396742,0,408,0.0025,0.0025,0.01248509,0.01251383,0.01103634,0.01304318,0.01103635,0.01304316
277758,2023-01-20 11:22:43.481691,999496699,0,408,0.0025,0.0025,0.01248511,0.01251383,0.01103635,0.01304314,0.01103639,0.0130431
279409,2023-01-20 11:22:48.581617,1004596693,0,408,0.0025,0.0025,0.01248532,0.01251388,0.01103633,0.01304317,0.01103635,0.01304316
281064,2023-01-20 11:22:53.661633,1009696708,0,408,0.0025,0.0025,0.01248505,0.0125138,0.01103634,0.01304313,0.01103632,0.01304311
282714,2023-01-20 11:22:58.761672,1014796705,0,408,0.0025,0.0025,0.01248505,0.01251385,0.01103632,0.01304316,0.01103636,0.01304315
284274,2023-01-20 11:23:03.841748,1019896679,0,408,0.0025,0.0025,0.01248513,0.0125139,0.01103634,0.01304313,0.01103632,0.0130431
285820,2023-01-20 11:23:08.941746,1024996681,0,408,0.0025,0.0025,0.01248528,0.01251383,0.0110363,0.01304311,0.01103634,0.01304315
