LineNo,UTC_Approx,TimeUS,C,V00,V01,V02,V03,V04,V05,V06,V07,V08,V09,V10,V11
684,2023-01-20 11:08:47.421095,161675791,0,0.0002470039,7.15036E-06,7.125234E-06,1.093556E-06,0.04213093,0.04213141,0.01440868,0.4704899,0.4704904,0.161227,4.227083E-11,4.229588E-11
1880,2023-01-20 11:08:47.941896,162196081,0,0.0002471361,7.37993E-06,7.354822E-06,1.09402E-06,0.05751753,0.05751721,0.01574195,0.4958067,0.4958072,0.1878946,4.255775E-11,4.25827E-11
2123,2023-01-20 11:08:48.438031,162696062,0,0.0002470359,7.493784E-06,7.468559E-06,1.093919E-06,0.07735909,0.07735614,0.01670448,0.4891085,0.4891088,0.2133232,4.271493E-11,4.273979E-11
2407,2023-01-20 11:08:48.921974,163196065,0,0.0002469365,7.873178E-06,7.847882E-06,1.094173E-06,0.1023239,0.1023162,0.01774528,0.5202909,0.5202904,0.2408886,4.320516E-11,4.322983E-11
2616,2023-01-20 11:08:49.441806,163696078,0,0.0002468424,8.250681E-06,8.225436E-06,1.092859E-06,0.1067294,0.1067157,0.01823511,0.5090206,0.5090193,0.2646844,4.367933E-11,4.370392E-11
2815,2023-01-20 11:08:49.921949,164196069,0,0.0002467498,8.880884E-06,8.855996E-06,1.092646E-06,0.1189875,0.1189671,0.01895067,0.5464926,0.5464875,0.2908005,4.445669E-11,4.448117E-11
3017,2023-01-20 11:08:50.421912,164696066,0,0.0002466593,9.54149E-06,9.516486E-06,1.092092E-06,0.1017722,0.1017501,0.01885721,0.5194069,0.5194018,0.3084787,4.523127E-11,4.525596E-11
3216,2023-01-20 11:08:50.921874,165196076,0,0.0002465646,1.033076E-05,1.030651E-05,1.101474E-06,0.1026462,0.1026207,0.0191666,0.5491581,0.5491486,0.3291964,4.61449E-11,4.616972E-11
3417,2023-01-20 11:08:51.421759,165696074,0,0.0002464814,1.115343E-05,1.112831E-05,1.098176E-06,0.08748065,0.08745708,0.01884671,0.522591,0.5225825,0.3415519,4.704856E-11,4.707392E-11
3616,2023-01-20 11:08:51.921747,166196081,0,0.0002463977,1.20431E-05,1.201787E-05,1.098813E-06,0.08513756,0.08511325,0.01888402,0.5461252,0.5461126,0.3562088,4.799646E-11,4.802224E-11
3792,2023-01-20 11:08:52.421755,166696087,0,0.0002463198,1.296692E-05,1.294083E-05,1.096757E-06,0.07223619,0.07221538,0.0183509,0.5167792,0.5167688,0.3623988,4.894138E-11,4.896809E-11
3952,2023-01-20 11:08:52.921760,167196070,0,0.0002462423,1.394337E-05,1.391654E-05,1.095141E-06,0.07159222,0.07157122,0.01836933,0.5418096,0.5417945,0.3734019,4.989744E-11,4.992479E-11
4115,2023-01-20 11:08:53.421714,167696074,0,0.0002461669,1.49543E-05,1.492587E-05,1.093369E-06,0.06333262,0.06331468,0.01791814,0.5186022,0.5185887,0.3770953,5.083906E-11,5.086767E-11
4275,2023-01-20 11:08:53.921691,168196079,0,0.0002459063,1.600575E-05,1.598666E-05,1.28802E-06,0.06326513,0.06324662,0.01793406,0.5443518,0.5443329,0.3853141,5.179454E-11,5.182414E-11
4440,2023-01-20 11:08:54.421693,168696079,0,0.0002460713,1.707911E-05,1.707166E-05,1.065368E-06,0.05793422,0.05790944,0.01758965,0.5259188,0.5259013,0.3877708,5.269775E-11,5.272957E-11
4600,2023-01-20 11:08:54.921667,169196074,0,0.0002456809,1.831191E-05,1.819171E-05,1.271957E-06,0.05691664,0.05687295,0.01748948,0.5459559,0.5459359,0.3921358,5.359681E-11,5.36314E-11
4763,2023-01-20 11:08:55.421686,169696081,0,0.0002457377,1.961967E-05,1.968767E-05,5.811115E-07,0.05082975,0.05083811,0.01537539,0.5194081,0.5193906,0.3228986,5.441859E-11,5.445747E-11
4925,2023-01-20 11:08:55.921693,170196083,0,0.0002445571,2.051436E-05,2.080155E-05,2.044404E-06,0.05074063,0.05070608,0.01394854,0.5387586,0.5387388,0.2590651,5.526133E-11,5.530141E-11
5088,2023-01-20 11:08:56.421682,170696072,0,0.0002438451,2.16391E-05,2.175391E-05,2.847014E-06,0.04609307,0.04610705,0.01302161,0.5127199,0.5127032,0.220188,5.596645E-11,5.600748E-11
5248,2023-01-20 11:08:56.921704,171196093,0,0.0002451199,2.280349E-05,2.303221E-05,1.387992E-06,0.04644475,0.04648068,0.01270245,0.5296746,0.5296611,0.1969912,5.668662E-11,5.67276E-11
5412,2023-01-20 11:08:57.421693,171696076,0,0.0002446261,2.397562E-05,2.400874E-05,1.682043E-06,0.04273048,0.04280433,0.0123006,0.5038357,0.5038274,0.1800271,5.715669E-11,5.71961E-11
5572,2023-01-20 11:08:57.921687,172196074,0,0.0002452074,2.517524E-05,2.498858E-05,1.042977E-06,0.0440397,0.04413433,0.01225512,0.5214149,0.5214171,0.1697667,5.773274E-11,5.777173E-11
5737,2023-01-20 11:08:58.421675,172696069,0,0.03019267,0.000168211,0.000172196,4.139413E-07,0.04901769,0.0618021,0.01218419,0.5020388,0.5020533,0.1617092,5.830667E-11,5.834257E-11
5897,2023-01-20 11:08:58.921696,173196099,0,0.02460304,0.0001685843,0.0001572936,4.0643E-05,0.07539295,0.1616644,0.0129121,0.5196269,0.5206377,0.1570404,5.925214E-11,5.927797E-11
6062,2023-01-20 11:08:59.401838,173696092,0,0.01654014,0.0002360268,6.254977E-05,6.226695E-06,0.1092319,0.1824377,0.01315395,0.5359533,0.540203,0.1538531,6.022019E-11,6.025455E-11
6222,2023-01-20 11:08:59.901607,174196077,0,0.01048132,0.0002447981,8.635283E-05,2.047218E-05,0.1372358,0.1684833,0.01306825,0.5148038,0.5178038,0.1507761,6.111938E-11,6.116379E-11
6385,2023-01-20 11:09:00.401565,174696110,0,0.007778423,0.0001436043,5.154882E-05,3.009232E-05,0.1810628,0.1576184,0.01315265,0.5487041,0.5530677,0.150347,6.203685E-11,6.208205E-11
6548,2023-01-20 11:09:00.901477,175196089,0,0.005799504,8.648083E-05,7.364301E-05,3.732069E-05,0.160536,0.1045254,0.01244133,0.5340362,0.535378,0.1491293,6.289051E-11,6.297722E-11
6711,2023-01-20 11:09:01.401499,175696120,0,0.005223838,5.929834E-05,9.515005E-05,5.655971E-05,0.1388835,0.09853606,0.01202023,0.5674567,0.5634111,0.149088,6.375931E-11,6.391622E-11
6872,2023-01-20 11:09:01.901423,176196083,0,0.004973283,6.227531E-05,9.648291E-05,0.0001019961,0.1011739,0.09377442,0.01149843,0.5401538,0.5379708,0.1477616,6.457893E-11,6.484076E-11
7035,2023-01-20 11:09:02.401486,176696112,0,0.00481507,3.899454E-05,7.748576E-05,0.0001227005,0.1011382,0.1076435,0.01142715,0.567322,0.5609965,0.1477138,6.546704E-11,6.577809E-11
7195,2023-01-20 11:09:02.901450,177196088,0,0.004312815,3.580422E-05,4.281168E-05,0.0001469081,0.08844323,0.1007636,0.01119738,0.537364,0.5332285,0.1464123,6.635255E-11,6.670977E-11
7358,2023-01-20 11:09:03.401444,177696118,0,0.004018136,3.421024E-05,2.747223E-05,0.0001436048,0.09242368,0.08543464,0.01116173,0.5618179,0.5563199,0.1465679,6.731376E-11,6.767979E-11
7519,2023-01-20 11:09:03.901412,178196072,0,0.003810864,2.941035E-05,2.608453E-05,0.0001089214,0.07931577,0.06787036,0.01094812,0.5352721,0.5313665,0.1455997,6.82782E-11,6.863958E-11
7683,2023-01-20 11:09:04.401466,178696108,0,0.003724514,2.847007E-05,2.61802E-05,0.00011734,0.07288862,0.06563473,0.01086349,0.556567,0.5524465,0.1456616,6.924902E-11,6.959754E-11
7843,2023-01-20 11:09:04.901417,179196079,0,0.003617815,2.77483E-05,2.661239E-05,0.0001752697,0.0620197,0.05814919,0.01061537,0.5283339,0.5253717,0.1445656,7.020086E-11,7.052218E-11
8007,2023-01-20 11:09:05.401499,179696124,0,0.003615162,2.908672E-05,2.541467E-05,0.0001652071,0.05930712,0.05754086,0.01055409,0.5490683,0.5458842,0.1446044,7.112932E-11,7.142518E-11
8169,2023-01-20 11:09:05.901415,180196071,0,0.002715073,2.84155E-05,2.527432E-05,0.0001349499,0.05222699,0.05115719,0.01035356,0.5227947,0.5203872,0.1434986,7.189366E-11,7.208718E-11
8332,2023-01-20 11:09:06.401425,180696107,0,0.002086097,2.967961E-05,2.897855E-05,0.0003804478,0.05271129,0.05145191,0.01030812,0.5437155,0.541174,0.1436484,7.272759E-11,7.284729E-11
8492,2023-01-20 11:09:06.901413,181196074,0,0.001529691,3.714603E-05,3.353184E-05,0.0005874659,0.05391644,0.05066921,0.01016569,0.529356,0.5270814,0.143289,7.340854E-11,7.345832E-11
8656,2023-01-20 11:09:07.401486,181696127,0,0.001113864,3.014961E-05,3.977493E-05,0.0007775108,0.05991834,0.05856481,0.01014343,0.5571229,0.5543885,0.1436823,7.400656E-11,7.403818E-11
8816,2023-01-20 11:09:07.901447,182196083,0,0.0009232452,2.615174E-05,2.882459E-05,0.0008227643,0.05605232,0.06132113,0.01003496,0.5320672,0.5300427,0.1426488,7.388169E-11,7.393221E-11
8979,2023-01-20 11:09:08.401476,182696114,0,0.0008073642,2.779593E-05,2.499271E-05,0.0007070582,0.05935611,0.06180176,0.009946921,0.5470443,0.5453607,0.142224,7.365519E-11,7.376241E-11
9141,2023-01-20 11:09:08.901434,183196083,0,0.0006761751,2.471912E-05,2.371279E-05,0.0006981032,0.05577998,0.05708236,0.009732627,0.5138173,0.5126093,0.1405782,7.265869E-11,7.274849E-11
9303,2023-01-20 11:09:09.381877,183696116,0,0.0005514569,2.734716E-05,2.256042E-05,0.000681763,0.05988353,0.06034692,0.009726521,0.5330972,0.5320469,0.1404624,7.237093E-11,7.246078E-11
9467,2023-01-20 11:09:09.881870,184196082,0,0.0004858541,2.226953E-05,2.076274E-05,0.0006480369,0.05514433,0.05532231,0.00951429,0.5002382,0.4994612,0.1387614,7.10756E-11,7.109205E-11
9628,2023-01-20 11:09:10.381842,184696092,0,0.0004289022,2.010138E-05,2.026866E-05,0.0006330122,0.05561391,0.05646406,0.00949099,0.5105231,0.5097951,0.1381879,7.052737E-11,7.050673E-11
9792,2023-01-20 11:09:10.881716,185196074,0,0.0003611892,1.908524E-05,1.879011E-05,0.0006338576,0.05210814,0.05311985,0.009377083,0.484433,0.4839154,0.1368589,6.95974E-11,6.957204E-11
9954,2023-01-20 11:09:11.381681,185696105,0,0.0003201152,1.930895E-05,1.864086E-05,0.000609823,0.05397614,0.05452727,0.009419778,0.4983612,0.4980546,0.1366563,6.932691E-11,6.931154E-11
10115,2023-01-20 11:09:11.881695,186196078,0,0.000290796,1.814384E-05,1.761489E-05,0.0005827736,0.05085462,0.05078227,0.009341167,0.4745511,0.4743851,0.1355885,6.866516E-11,6.867096E-11
10277,2023-01-20 11:09:12.381693,186696083,0,0.0002788574,1.791192E-05,1.751583E-05,0.0005532551,0.05283322,0.05255995,0.009410731,0.4916338,0.4917011,0.13574,6.864582E-11,6.866569E-11
10439,2023-01-20 11:09:12.881701,187196075,0,0.0002673574,1.733964E-05,1.66527E-05,0.0005301055,0.04992794,0.04968265,0.009349336,0.4727713,0.4729087,0.1351018,6.825948E-11,6.831048E-11
10600,2023-01-20 11:09:13.381709,187696083,0,0.0002585213,1.705369E-05,1.692246E-05,0.0005129375,0.04958757,0.04980322,0.009389367,0.489458,0.4897328,0.1353498,6.829377E-11,6.836703E-11
10762,2023-01-20 11:09:13.881692,188196070,0,0.0002526751,1.576428E-05,1.662147E-05,0.0004961506,0.04387123,0.04361278,0.009213865,0.4591491,0.4593646,0.1338738,6.785698E-11,6.798531E-11
10925,2023-01-20 11:09:14.381693,188696071,0,0.0002532179,1.559996E-05,1.585564E-05,0.0004799131,0.04596475,0.04446875,0.009247905,0.4711688,0.4714249,0.1338323,6.800118E-11,6.821877E-11
11087,2023-01-20 11:09:14.881700,189196090,0,0.0002454384,1.737282E-05,1.599015E-05,0.00046751,0.0466687,0.04526841,0.009297928,0.4635948,0.4637583,0.1341459,6.811918E-11,6.847932E-11
11251,2023-01-20 11:09:15.381713,189696072,0,0.0002442296,1.902134E-05,1.669967E-05,0.0004518317,0.04953063,0.04885013,0.009415917,0.4892964,0.4893109,0.1351195,6.835336E-11,6.884698E-11
11415,2023-01-20 11:09:15.881710,190196071,0,0.0002491889,1.931237E-05,1.873168E-05,0.0004276745,0.04717197,0.04697052,0.009379652,0.4751526,0.4752106,0.1350763,6.800907E-11,6.870979E-11
11576,2023-01-20 11:09:16.381706,190696071,0,0.0002513912,2.172246E-05,2.006379E-05,0.0004108461,0.0483721,0.04810964,0.009435501,0.4956704,0.4957654,0.1357172,6.786478E-11,6.871924E-11
11738,2023-01-20 11:09:16.881707,191196074,0,0.0001948755,2.489908E-05,2.042706E-05,0.0004525036,0.04489491,0.0451747,0.009320032,0.4737552,0.4739254,0.1351921,6.704562E-11,6.805495E-11
11899,2023-01-20 11:09:17.381722,191696078,0,5.050496E-05,3.459882E-05,1.698888E-05,0.0005531236,0.0475117,0.04846482,0.009429215,0.4941196,0.4944918,0.1357788,6.687458E-11,6.794915E-11
12061,2023-01-20 11:09:17.881715,192196073,0,1.08453E-05,3.896484E-05,1.528373E-05,0.0005061761,0.04737913,0.05008107,0.009405555,0.4744265,0.4748755,0.1354174,6.604711E-11,6.7109E-11
12223,2023-01-20 11:09:18.365381,192696079,0,1.459361E-05,4.100505E-05,1.681956E-05,0.0004259179,0.05324321,0.05995737,0.009662012,0.4951165,0.4961012,0.1358795,6.567034E-11,6.67519E-11
12386,2023-01-20 11:09:18.861809,193196092,0,1.225924E-05,3.369403E-05,1.737638E-05,0.0003882599,0.05578212,0.06045832,0.009810518,0.4738854,0.4748003,0.1353407,6.46896E-11,6.553143E-11
12548,2023-01-20 11:09:19.361931,193696087,0,1.609112E-05,3.010569E-05,1.860859E-05,0.0003550296,0.06267499,0.0622339,0.01013052,0.4924566,0.493995,0.13571,6.442807E-11,6.509491E-11
12713,2023-01-20 11:09:19.861708,194196071,0,1.556055E-05,2.292505E-05,1.522145E-05,0.0003249265,0.05787094,0.0530351,0.01012189,0.4631091,0.4641021,0.1346593,6.378877E-11,6.420186E-11
12875,2023-01-20 11:09:20.361708,194696077,0,1.690185E-05,1.847598E-05,1.222489E-05,0.0003058496,0.05399568,0.05021827,0.01021292,0.4725091,0.4733813,0.1346141,6.38512E-11,6.423949E-11
13040,2023-01-20 11:09:20.861702,195196079,0,1.948436E-05,1.496327E-05,1.069006E-05,0.0002865375,0.045073,0.04380519,0.01007826,0.4456986,0.4462768,0.1335198,6.388336E-11,6.432359E-11
13203,2023-01-20 11:09:21.361696,195696072,0,2.077155E-05,1.220913E-05,1.002027E-05,0.0002747352,0.04285452,0.04280363,0.01016377,0.4560976,0.4564903,0.1336469,6.432199E-11,6.482885E-11
13366,2023-01-20 11:09:21.861711,196196080,0,2.310386E-05,1.21056E-05,9.303584E-06,0.0002591472,0.03835623,0.03840276,0.01005254,0.4326154,0.4327886,0.132562,6.471106E-11,6.530826E-11
13529,2023-01-20 11:09:22.361688,196696072,0,2.391924E-05,1.281221E-05,9.497791E-06,0.00024652,0.03961875,0.03922128,0.01024031,0.4465236,0.4465498,0.1331582,6.532144E-11,6.59848E-11
13692,2023-01-20 11:09:22.861695,197196071,0,2.457198E-05,1.385375E-05,9.112551E-06,0.0002340644,0.03738769,0.03657804,0.01023257,0.4288174,0.4287334,0.1325603,6.582062E-11,6.65645E-11
13855,2023-01-20 11:09:23.361701,197696081,0,2.646636E-05,1.516081E-05,9.223981E-06,0.0002216737,0.03765082,0.03653609,0.01037676,0.4389128,0.438816,0.1329486,6.638263E-11,6.718458E-11
14018,2023-01-20 11:09:23.861703,198196071,0,2.709023E-05,1.57255E-05,9.496796E-06,0.0002122213,0.03395196,0.03307012,0.01019841,0.4155355,0.4153961,0.1315499,6.671187E-11,6.756245E-11
14181,2023-01-20 11:09:24.361698,198696071,0,2.826927E-05,1.671549E-05,9.842666E-06,0.0002055006,0.03572275,0.03503142,0.01048672,0.4329327,0.4328558,0.1329706,6.722069E-11,6.809989E-11
14345,2023-01-20 11:09:24.861669,199196067,0,2.870023E-05,1.731861E-05,9.883748E-06,0.0001998343,0.03466703,0.03413912,0.01053783,0.4216508,0.4216007,0.1331474,6.741263E-11,6.831448E-11
14508,2023-01-20 11:09:25.361727,199696083,0,2.965188E-05,1.64922E-05,1.056864E-05,0.0001960905,0.03607498,0.03574365,0.01069445,0.4373102,0.4373072,0.1343775,6.763693E-11,6.85489E-11
14673,2023-01-20 11:09:25.861698,200196068,0,2.874069E-05,1.617598E-05,1.122946E-05,0.0001939129,0.03496888,0.03485768,0.01062726,0.4246122,0.4246472,0.1343249,6.742149E-11,6.831324E-11
14836,2023-01-20 11:09:26.361701,200696074,0,2.969483E-05,1.669039E-05,1.189958E-05,0.0001899969,0.03687961,0.03698124,0.01077887,0.4423281,0.4424155,0.1357704,6.744199E-11,6.828581E-11
14999,2023-01-20 11:09:26.861679,201196077,0,3.097722E-05,1.754872E-05,1.170471E-05,0.0001858384,0.03466707,0.03500761,0.01059479,0.4241751,0.4242918,0.1349503,6.66637E-11,6.734092E-11
15162,2023-01-20 11:09:27.361683,201696075,0,3.126667E-05,1.741418E-05,1.211227E-05,0.0001842021,0.03572894,0.03628356,0.01057001,0.4351404,0.4353085,0.1354198,6.623396E-11,6.674503E-11
15325,2023-01-20 11:09:27.861724,202196091,0,3.291843E-05,1.886912E-05,1.204863E-05,0.0001797908,0.03372585,0.03423063,0.01032336,0.4171926,0.4173584,0.1343521,6.514769E-11,6.539787E-11
15488,2023-01-20 11:09:28.361719,202696083,0,3.322142E-05,1.885277E-05,1.229258E-05,0.0001793451,0.03495353,0.03549936,0.01031842,0.428629,0.4288677,0.134771,6.45679E-11,6.462163E-11
15651,2023-01-20 11:09:28.841750,203196071,0,3.189188E-05,1.939221E-05,1.219596E-05,0.0001797154,0.03381861,0.03434251,0.01018013,0.4151568,0.4153987,0.1340907,6.347502E-11,6.328134E-11
15814,2023-01-20 11:09:29.341729,203696075,0,3.351967E-05,1.980943E-05,1.241222E-05,0.0001779684,0.03647182,0.03710032,0.01034561,0.4336044,0.4339974,0.1354002,6.314668E-11,6.277479E-11
15979,2023-01-20 11:09:29.841872,204196071,0,3.387173E-05,1.96435E-05,1.190624E-05,0.0001778058,0.03578474,0.03634808,0.01021225,0.4222554,0.4226424,0.1350246,6.194054E-11,6.129097E-11
16142,2023-01-20 11:09:30.341706,204696084,0,3.544394E-05,1.997032E-05,1.176049E-05,0.0001760982,0.03733194,0.03787357,0.01019579,0.4361769,0.4366706,0.1355132,6.119548E-11,6.032359E-11
16307,2023-01-20 11:09:30.841669,205196071,0,3.61031E-05,2.004399E-05,1.122801E-05,0.0001750709,0.0347794,0.03518452,0.009905178,0.4178016,0.4181879,0.1340948,5.955445E-11,5.838376E-11
16513,2023-01-20 11:09:31.341720,205696091,0,3.656739E-05,2.042153E-05,1.113767E-05,0.000174782,0.0363263,0.03672803,0.00988369,0.43141,0.4318846,0.1344295,5.887108E-11,5.752441E-11
16675,2023-01-20 11:09:31.841718,206196085,0,3.603236E-05,2.124217E-05,1.076565E-05,0.0001745742,0.03453096,0.03493285,0.009701126,0.4172984,0.4177067,0.1334046,5.754087E-11,5.597202E-11
16838,2023-01-20 11:09:32.341707,206696076,0,3.70918E-05,2.25549E-05,1.068199E-05,0.0001731596,0.03613323,0.03658727,0.009731131,0.4318439,0.4323439,0.1338338,5.696208E-11,5.525948E-11
17001,2023-01-20 11:09:32.841674,207196080,0,3.856123E-05,2.09919E-05,1.060191E-05,0.0001732415,0.03459947,0.03508115,0.009583057,0.4182162,0.4186569,0.1329264,5.570277E-11,5.391151E-11
17164,2023-01-20 11:09:33.341682,207696085,0,3.968796E-05,2.154254E-05,1.08586E-05,0.0001721701,0.03612267,0.0365686,0.009650114,0.4330059,0.4335503,0.1333997,5.514823E-11,5.330061E-11
17327,2023-01-20 11:09:33.841701,208196071,0,4.027825E-05,2.00297E-05,1.01278E-05,0.0001736309,0.03462118,0.03495606,0.009510241,0.4185195,0.4189876,0.1325139,5.398082E-11,5.205052E-11
17490,2023-01-20 11:09:34.341719,208696075,0,4.014389E-05,1.913588E-05,1.050569E-05,0.0001751403,0.03615784,0.03650931,0.009559846,0.4334081,0.4339716,0.1330054,5.356987E-11,5.155002E-11
17654,2023-01-20 11:09:34.841714,209196079,0,4.103408E-05,1.85578E-05,1.024706E-05,0.0001752177,0.03497806,0.03527457,0.009444654,0.420714,0.4212244,0.1324026,5.271051E-11,5.053094E-11
17817,2023-01-20 11:09:35.341680,209696082,0,4.101321E-05,1.860695E-05,1.029494E-05,0.0001762235,0.03668482,0.0369512,0.009469138,0.436249,0.4368472,0.1329521,5.246572E-11,5.012816E-11
17982,2023-01-20 11:09:35.841697,210196072,0,4.206666E-05,1.780016E-05,1.009435E-05,0.0001763796,0.03498854,0.03519873,0.00930681,0.4209468,0.4214675,0.1320721,5.170243E-11,4.912059E-11
18145,2023-01-20 11:09:36.341726,210696079,0,4.210794E-05,1.853872E-05,1.00834E-05,0.0001768351,0.03657214,0.03673553,0.009321456,0.4357088,0.4362913,0.1325026,5.156293E-11,4.879101E-11
18308,2023-01-20 11:09:36.821904,211196076,0,4.32685E-05,1.943588E-05,9.728497E-06,0.0001757455,0.03507021,0.03519958,0.009185135,0.4210816,0.421593,0.131744,5.098142E-11,4.796219E-11
18471,2023-01-20 11:09:37.321862,211696081,0,4.456881E-05,2.026796E-05,9.46311E-06,0.0001753664,0.03669171,0.03674577,0.009205014,0.4354556,0.4359942,0.1320975,5.084675E-11,4.768893E-11
18634,2023-01-20 11:09:37.821722,212196068,0,4.435372E-05,1.998308E-05,9.113831E-06,0.000176833,0.03516917,0.03525586,0.009096525,0.4214029,0.4218656,0.1314237,5.026118E-11,4.698839E-11
18797,2023-01-20 11:09:38.321735,212696092,0,4.611201E-05,1.965667E-05,9.08306E-06,0.000176893,0.03676315,0.03692845,0.009153705,0.4376883,0.4381998,0.131937,5.018071E-11,4.684691E-11
18960,2023-01-20 11:09:38.821697,213196071,0,4.704394E-05,1.817567E-05,8.910874E-06,0.0001781053,0.03495363,0.03521637,0.009023227,0.4223087,0.4227476,0.1311471,4.957587E-11,4.616546E-11
19123,2023-01-20 11:09:39.321691,213696082,0,4.602794E-05,1.807301E-05,8.962066E-06,0.0001806132,0.0361536,0.03646824,0.009059269,0.4372743,0.4377967,0.1315498,4.952565E-11,4.603828E-11
19290,2023-01-20 11:09:39.821704,214196079,0,4.612884E-05,1.733657E-05,8.896883E-06,0.0001821556,0.03474888,0.03506907,0.008954293,0.4231993,0.4236875,0.1309083,4.911967E-11,4.550613E-11
19453,2023-01-20 11:09:40.321710,214696075,0,4.675474E-05,1.725934E-05,9.099473E-06,0.0001830672,0.03623557,0.0365775,0.008987599,0.438425,0.4390358,0.1312825,4.916263E-11,4.543888E-11
19618,2023-01-20 11:09:40.821700,215196072,0,4.872746E-05,1.601287E-05,9.027729E-06,0.0001835204,0.03529787,0.03548818,0.008898884,0.4261703,0.4267639,0.1308899,4.890927E-11,4.504651E-11
19781,2023-01-20 11:09:41.321683,215696076,0,4.865316E-05,1.634239E-05,8.939998E-06,0.000184951,0.03653453,0.03669585,0.00891134,0.4404395,0.4411023,0.1311447,4.899018E-11,4.499682E-11
19944,2023-01-20 11:09:41.821684,216196071,0,4.923482E-05,1.676934E-05,8.56304E-06,0.0001851747,0.03410837,0.03426285,0.00874854,0.42112,0.4216909,0.1300536,4.86651E-11,4.446735E-11
20107,2023-01-20 11:09:42.321703,216696073,0,5.057067E-05,1.74565E-05,8.55326E-06,0.0001847308,0.03454389,0.03468226,0.008725856,0.4302697,0.4308644,0.1298649,4.870486E-11,4.436937E-11
20270,2023-01-20 11:09:42.821689,217196072,0,5.240682E-05,1.770503E-05,8.247509E-06,0.0001839819,0.03250138,0.03258717,0.008573411,0.4111457,0.4116522,0.1286666,4.840914E-11,4.396182E-11
20433,2023-01-20 11:09:43.321714,217696085,0,5.226433E-05,1.793196E-05,8.216005E-06,0.0001856469,0.03349193,0.0336113,0.00860098,0.4222051,0.4227325,0.1286641,4.849605E-11,4.399757E-11
20595,2023-01-20 11:09:43.821690,218196072,0,5.342589E-05,1.736018E-05,8.090674E-06,0.0001863335,0.03185885,0.0320959,0.008499375,0.4060659,0.4065215,0.1277738,4.825313E-11,4.37095E-11
20758,2023-01-20 11:09:44.321712,218696080,0,5.292184E-05,1.826323E-05,8.225132E-06,0.0001876615,0.03340962,0.03376935,0.00856067,0.4191111,0.4196662,0.1280397,4.839074E-11,4.381011E-11
20921,2023-01-20 11:09:44.821706,219196074,0,5.268058E-05,1.760182E-05,8.259445E-06,0.0001899046,0.03287,0.03330757,0.008524481,0.4077203,0.4082707,0.1276698,4.824301E-11,4.362338E-11
21085,2023-01-20 11:09:45.321710,219696075,0,5.306073E-05,1.827544E-05,8.547074E-06,0.0001903951,0.03468436,0.03514347,0.008614624,0.4235601,0.4242865,0.128259,4.83916E-11,4.375719E-11
21250,2023-01-20 11:09:45.801679,220196086,0,5.336462E-05,1.837033E-05,8.696378E-06,0.0001915985,0.03646436,0.03693178,0.008691944,0.4403274,0.4412316,0.1288172,4.851391E-11,4.38763E-11
21413,2023-01-20 11:09:46.301643,220696071,0,5.407792E-05,1.808261E-05,8.464378E-06,0.0001922564,0.03507246,0.03543665,0.008612856,0.4252419,0.4260562,0.1282966,4.817173E-11,4.357185E-11
21576,2023-01-20 11:09:46.801644,221196091,0,5.339775E-05,1.825204E-05,8.346897E-06,0.0001943438,0.03649528,0.03704976,0.008658323,0.4404586,0.4414267,0.1287575,4.821097E-11,4.365626E-11
21739,2023-01-20 11:09:47.301546,221696074,0,5.37433E-05,1.711938E-05,8.21E-06,0.0001958181,0.03449075,0.03508388,0.008543455,0.4227453,0.423586,0.1279561,4.778584E-11,4.32924E-11
21951,2023-01-20 11:09:47.801519,222196110,0,5.414329E-05,1.710696E-05,8.339522E-06,0.0001967315,0.03585653,0.03651554,0.008594526,0.4373185,0.4383531,0.1283262,4.78559E-11,4.338125E-11
22114,2023-01-20 11:09:48.301470,222696081,0,5.499892E-05,1.559686E-05,8.269273E-06,0.0001983115,0.03458172,0.03508523,0.008522393,0.4228688,0.4238212,0.1278193,4.760183E-11,4.313866E-11
22277,2023-01-20 11:09:48.801494,223196102,0,5.506723E-05,1.492275E-05,8.425517E-06,0.0002004327,0.03631251,0.03677111,0.008586082,0.4397142,0.4408666,0.1283661,4.778095E-11,4.329877E-11
22440,2023-01-20 11:09:49.301471,223696080,0,5.533755E-05,1.544554E-05,8.192224E-06,0.0002009676,0.03466192,0.03503793,0.008491645,0.4238348,0.4248459,0.1277356,4.757389E-11,4.302951E-11
22604,2023-01-20 11:09:49.801505,224196122,0,5.708813E-05,1.583199E-05,8.254649E-06,0.0002005741,0.03616871,0.03659308,0.00853694,0.4391891,0.4403633,0.1281407,4.777326E-11,4.316532E-11
22768,2023-01-20 11:09:50.301452,224696072,0,5.903574E-05,1.736076E-05,7.994075E-06,0.0001985871,0.03505392,0.0355199,0.008461286,0.4249176,0.4259802,0.1276173,4.762515E-11,4.293987E-11
22933,2023-01-20 11:09:50.801495,225196116,0,5.823934E-05,1.874535E-05,8.072047E-06,0.0001996032,0.03677986,0.03746034,0.008542591,0.4427096,0.4440211,0.128224,4.782788E-11,4.312469E-11
23096,2023-01-20 11:09:51.301435,225696073,0,5.807885E-05,1.757465E-05,8.019716E-06,0.000201632,0.03528205,0.03604701,0.008479084,0.4286085,0.4298092,0.1277688,4.755333E-11,4.288092E-11
23259,2023-01-20 11:09:51.801516,226196110,0,5.771466E-05,1.677387E-05,8.267721E-06,0.0002038142,0.03694792,0.0377379,0.00855482,0.4466733,0.448191,0.1283638,4.768796E-11,4.305505E-11
23422,2023-01-20 11:09:52.301447,226696072,0,5.798468E-05,1.625073E-05,8.181382E-06,0.0002046096,0.03532467,0.03585382,0.008485871,0.43163,0.4329886,0.1279061,4.740048E-11,4.281744E-11
23585,2023-01-20 11:09:52.801530,227196116,0,5.888621E-05,1.665516E-05,8.198942E-06,0.0002046547,0.03699643,0.0374737,0.008553264,0.4487987,0.4503601,0.1284216,4.754808E-11,4.299303E-11
23748,2023-01-20 11:09:53.301456,227696077,0,5.868738E-05,1.642846E-05,8.087362E-06,0.0002060144,0.03555536,0.03598139,0.008485265,0.4339368,0.4353116,0.1279564,4.73216E-11,4.279837E-11
23911,2023-01-20 11:09:53.801462,228196110,0,5.81249E-05,1.675272E-05,8.181595E-06,0.0002075596,0.03699445,0.03746221,0.008532551,0.4497888,0.4513242,0.1283857,4.745084E-11,4.29513E-11
24073,2023-01-20 11:09:54.301469,228696073,0,5.916915E-05,1.568595E-05,8.139991E-06,0.0002082386,0.03533521,0.03573204,0.008437597,0.4331412,0.4344713,0.1277601,4.718589E-11,4.271985E-11
24236,2023-01-20 11:09:54.801530,229196121,0,5.808032E-05,1.499843E-05,8.259048E-06,0.0002111299,0.03656318,0.03696994,0.008466621,0.4480425,0.4495043,0.1280625,4.730788E-11,4.286526E-11
24400,2023-01-20 11:09:55.301441,229696070,0,5.860891E-05,1.494876E-05,8.120767E-06,0.0002114754,0.03489767,0.03525848,0.008369152,0.4313783,0.4326485,0.1274215,4.711578E-11,4.266954E-11
24565,2023-01-20 11:09:55.801279,230196106,0,5.951196E-05,1.580711E-05,8.163136E-06,0.0002110481,0.03657648,0.0369823,0.008419375,0.4479851,0.4494014,0.1278398,4.733321E-11,4.287445E-11
24728,2023-01-20 11:09:56.281905,230696069,0,6.002655E-05,1.618604E-05,8.038783E-06,0.0002110249,0.03530583,0.03569201,0.008353855,0.433255,0.4345126,0.127337,4.720382E-11,4.271782E-11
24889,2023-01-20 11:09:56.781859,231196086,0,5.978595E-05,1.624655E-05,8.238495E-06,0.000212061,0.03654909,0.03696434,0.008395475,0.4484185,0.4498037,0.1276829,4.737169E-11,4.287643E-11
25054,2023-01-20 11:09:57.281689,231696072,0,6.222733E-05,1.669455E-05,7.936884E-06,0.0002098342,0.03481221,0.03518371,0.008294614,0.431173,0.4323725,0.1269735,4.714286E-11,4.265995E-11
25215,2023-01-20 11:09:57.781725,232196099,0,6.097706E-05,1.685859E-05,8.042934E-06,0.0002118366,0.03637234,0.03692354,0.008335978,0.446681,0.4480593,0.1273071,4.728101E-11,4.284043E-11
25380,2023-01-20 11:09:58.281722,232696083,0,6.116907E-05,1.53941E-05,8.015717E-06,0.0002133799,0.03462304,0.03514762,0.008257249,0.4309584,0.4321976,0.126739,4.703068E-11,4.264881E-11
25541,2023-01-20 11:09:58.781709,233196087,0,6.152436E-05,1.540022E-05,8.123245E-06,0.0002140797,0.03607343,0.03653489,0.008311382,0.4459947,0.4474202,0.1270461,4.717816E-11,4.282616E-11
25706,2023-01-20 11:09:59.281677,233696077,0,6.046466E-05,1.486774E-05,8.097343E-06,0.000216596,0.03492248,0.03547769,0.008235462,0.430826,0.432104,0.1265118,4.698942E-11,4.264814E-11
25868,2023-01-20 11:09:59.781658,234196067,0,6.317782E-05,1.311801E-05,8.430027E-06,0.000216891,0.03668822,0.03722769,0.008302205,0.4478598,0.4494038,0.1269857,4.719883E-11,4.282906E-11
26034,2023-01-20 11:10:00.281715,234696084,0,6.307441E-05,1.101991E-05,8.910525E-06,0.0002197756,0.03541204,0.0355903,0.008234583,0.4324843,0.4338746,0.1264335,4.712254E-11,4.259856E-11
26197,2023-01-20 11:10:00.781703,235196069,0,6.908338E-05,1.042938E-05,9.204035E-06,0.0002166715,0.03824535,0.03783052,0.008338558,0.4505467,0.4520637,0.1269813,4.755981E-11,4.282392E-11
26361,2023-01-20 11:10:01.281703,235696075,0,7.623284E-05,1.095792E-05,9.237619E-06,0.0002099187,0.03820243,0.03733559,0.008343248,0.4356621,0.4368367,0.1264844,4.789E-11,4.265836E-11
26521,2023-01-20 11:10:01.781703,236196103,0,7.808829E-05,1.369186E-05,9.638766E-06,0.0002036492,0.04331141,0.04253988,0.008628771,0.4536037,0.4544346,0.1269679,4.860741E-11,4.29046E-11
26685,2023-01-20 11:10:02.281682,236696075,0,8.92617E-05,1.242983E-05,9.100239E-06,0.0001800571,0.0467633,0.04707231,0.008991471,0.4452137,0.4458537,0.1271092,4.939839E-11,4.288855E-11
26848,2023-01-20 11:10:02.781705,237196070,0,0.0001406501,1.141755E-05,9.621003E-06,0.0001184354,0.05088715,0.05498375,0.00942378,0.4734753,0.4739742,0.1284334,5.023463E-11,4.328924E-11
27011,2023-01-20 11:10:03.281701,237696076,0,0.0001867425,1.111123E-05,8.515042E-06,4.925694E-05,0.04672756,0.05338456,0.009449916,0.4622851,0.4629415,0.1287366,5.078956E-11,4.33096E-11
27171,2023-01-20 11:10:03.781711,238196072,0,0.0001973544,1.006148E-05,1.025995E-05,1.746808E-05,0.04663422,0.05088441,0.009342142,0.4795353,0.4805249,0.1294926,5.10993E-11,4.360358E-11
27335,2023-01-20 11:10:04.281678,238696072,0,0.0001791085,8.977343E-06,1.285086E-05,1.481973E-05,0.04395885,0.04601648,0.009031288,0.4660262,0.4667465,0.1295325,5.109439E-11,4.376762E-11
27495,2023-01-20 11:10:04.781706,239196076,0,0.0001606293,7.852436E-06,1.294432E-05,2.049878E-05,0.04560071,0.047359,0.008894332,0.4850248,0.4856473,0.1300477,5.105062E-11,4.417379E-11
27660,2023-01-20 11:10:05.261938,239696076,0,0.0001556345,7.300294E-06,1.123909E-05,1.697994E-05,0.04608394,0.04811499,0.008811804,0.4747596,0.4752579,0.1301308,5.092384E-11,4.44891E-11
27822,2023-01-20 11:10:05.765348,240196073,0,0.0001505738,6.983621E-06,1.052991E-05,1.519104E-05,0.04982022,0.052863,0.0088767,0.4994276,0.5002813,0.1308595,5.101597E-11,4.502605E-11
27991,2023-01-20 11:10:06.274343,240696075,0,0.0001447796,6.520229E-06,9.462886E-06,1.475833E-05,0.04907796,0.05262886,0.008849585,0.4856195,0.486501,0.1307734,5.100352E-11,4.539642E-11
28150,2023-01-20 11:10:06.761743,241196086,0,0.0001406983,6.344546E-06,7.612984E-06,1.467396E-05,0.05116371,0.05507988,0.008907073,0.5068017,0.5082415,0.1313481,5.125165E-11,4.59867E-11
28314,2023-01-20 11:10:07.261698,241696070,0,0.0001369453,6.002359E-06,6.134087E-06,1.447267E-05,0.04886904,0.05157303,0.008829851,0.4896112,0.490907,0.1311908,5.152762E-11,4.653531E-11
28475,2023-01-20 11:10:07.761634,242196071,0,0.0001336735,5.989039E-06,6.037784E-06,1.443903E-05,0.05101715,0.05313938,0.008883012,0.5136811,0.5155305,0.1319092,5.201766E-11,4.727756E-11
28639,2023-01-20 11:10:08.261683,242696076,0,0.0001304268,5.858642E-06,5.875054E-06,1.471356E-05,0.04777742,0.04926741,0.008814172,0.4941589,0.4955883,0.1316321,5.249188E-11,4.798179E-11
28799,2023-01-20 11:10:08.761641,243196072,0,0.0001274048,6.055774E-06,6.045961E-06,1.518782E-05,0.04837471,0.04959752,0.00883384,0.5122769,0.5137739,0.1319272,5.301327E-11,4.875252E-11
28964,2023-01-20 11:10:09.261699,243696075,0,0.0001255489,6.130339E-06,6.135159E-06,1.468262E-05,0.04535813,0.04629327,0.008744268,0.4922037,0.4932812,0.1315148,5.347197E-11,4.946813E-11
29177,2023-01-20 11:10:09.761671,244196068,0,0.0001239597,6.384029E-06,6.456308E-06,1.435135E-05,0.04663432,0.04751011,0.008773364,0.5121645,0.5133082,0.1318642,5.397128E-11,5.020044E-11
29342,2023-01-20 11:10:10.261680,244696074,0,0.0001218975,6.438864E-06,6.690534E-06,1.470725E-05,0.04519533,0.04603022,0.008720668,0.4990031,0.4999531,0.1317585,5.438421E-11,5.082363E-11
29506,2023-01-20 11:10:10.761676,245196068,0,0.0001204281,6.706897E-06,7.109941E-06,1.468783E-05,0.04714574,0.0480413,0.008767962,0.5232617,0.5244203,0.1323274,5.485679E-11,5.146874E-11
29671,2023-01-20 11:10:11.261713,245696080,0,0.0001185347,6.806266E-06,7.32446E-06,1.499521E-05,0.04511712,0.04607312,0.008687628,0.5064573,0.507396,0.1320172,5.514418E-11,5.188689E-11
29833,2023-01-20 11:10:11.761696,246196076,0,0.0001166978,7.091636E-06,7.716532E-06,1.5504E-05,0.04673658,0.0479146,0.008705653,0.5278576,0.5290819,0.1323546,5.551783E-11,5.236591E-11
29998,2023-01-20 11:10:12.261697,246696078,0,0.0001156557,7.228552E-06,7.740745E-06,1.516112E-05,0.04478211,0.04606847,0.008633036,0.5103968,0.5114635,0.1320236,5.569128E-11,5.25837E-11
30159,2023-01-20 11:10:12.761674,247196067,0,0.0001145281,7.576761E-06,8.0418E-06,1.519175E-05,0.04667699,0.04808322,0.008664411,0.5324771,0.5339496,0.1323636,5.597363E-11,5.292216E-11
30324,2023-01-20 11:10:13.261709,247696087,0,0.0001137268,7.679775E-06,8.13553E-06,1.466233E-05,0.04472985,0.04583552,0.00859245,0.5134478,0.5147172,0.1318838,5.593126E-11,5.287613E-11
30485,2023-01-20 11:10:13.761676,248196071,0,0.000113089,7.959454E-06,8.500183E-06,1.444114E-05,0.04686103,0.04798083,0.00863227,0.5358416,0.5374945,0.1322595,5.608779E-11,5.306789E-11
30651,2023-01-20 11:10:14.261728,248696082,0,0.0001118725,8.02902E-06,8.613246E-06,1.459547E-05,0.04510561,0.04607193,0.008577188,0.517855,0.5193152,0.1318413,5.587074E-11,5.282138E-11
30812,2023-01-20 11:10:14.761707,249196080,0,0.0001113547,8.303354E-06,8.912344E-06,1.448944E-05,0.04718417,0.04818962,0.008614485,0.5400134,0.5418465,0.1321562,5.589387E-11,5.286452E-11
30977,2023-01-20 11:10:15.261711,249696070,0,0.0001105778,8.316469E-06,8.948286E-06,1.450043E-05,0.04551401,0.0465133,0.008560358,0.5224919,0.5241328,0.1318159,5.55153E-11,5.244369E-11
31141,2023-01-20 11:10:15.747111,250196072,0,0.000110594,8.588325E-06,9.248412E-06,1.408791E-05,0.0477994,0.04898116,0.008602117,0.5459506,0.5480304,0.1321914,5.544945E-11,5.239821E-11
31307,2023-01-20 11:10:16.241863,250696072,0,0.0001097252,8.539342E-06,9.24503E-06,1.439242E-05,0.04585529,0.04706907,0.008537973,0.5266022,0.5284604,0.1317686,5.48764E-11,5.178495E-11
31467,2023-01-20 11:10:16.741790,251196072,0,0.0001090861,8.755494E-06,9.432912E-06,1.475631E-05,0.04749322,0.04894856,0.008562768,0.5468288,0.5491099,0.131998,5.466638E-11,5.158786E-11
31632,2023-01-20 11:10:17.241742,251696072,0,0.0001087045,8.582146E-06,9.324764E-06,1.468839E-05,0.04470336,0.04602998,0.008473062,0.5231423,0.5250645,0.131311,5.391424E-11,5.078933E-11
31793,2023-01-20 11:10:17.741701,252196086,0,0.0001086437,8.750037E-06,9.538529E-06,1.45929E-05,0.04624645,0.04753298,0.008497179,0.5417784,0.5440921,0.1314601,5.364034E-11,5.054884E-11
31959,2023-01-20 11:10:18.241716,252696085,0,0.0001082387,8.60623E-06,9.408259E-06,1.488241E-05,0.04398566,0.04499874,0.008427159,0.5205339,0.5225339,0.1308733,5.287823E-11,4.9805E-11
32120,2023-01-20 11:10:18.741684,253196077,0,0.0001083732,8.744948E-06,9.546614E-06,1.488286E-05,0.04558459,0.04663168,0.008455508,0.5393625,0.5416896,0.1310264,5.258054E-11,4.958134E-11
32285,2023-01-20 11:10:19.241710,253696075,0,0.0001083701,8.604693E-06,9.402306E-06,1.491146E-05,0.04335728,0.04422975,0.008385687,0.5182432,0.5202387,0.1304507,5.178213E-11,4.884078E-11
32447,2023-01-20 11:10:19.741691,254196078,0,0.0001087656,8.732634E-06,9.585529E-06,1.471476E-05,0.0449913,0.04586549,0.008419374,0.5368401,0.5391197,0.1306143,5.147858E-11,4.863179E-11
32613,2023-01-20 11:10:20.241710,254696081,0,0.0001087387,8.586234E-06,9.45299E-06,1.490268E-05,0.04289221,0.04360557,0.008352325,0.5158613,0.5178182,0.1300146,5.067228E-11,4.792053E-11
32777,2023-01-20 11:10:20.741679,255196068,0,0.0001090325,8.694406E-06,9.529264E-06,1.502277E-05,0.04424448,0.04495097,0.008388352,0.5336282,0.5357949,0.1302078,5.035666E-11,4.772352E-11
32942,2023-01-20 11:10:21.241705,255696073,0,0.0001096208,8.487426E-06,9.234822E-06,1.482107E-05,0.04183953,0.0424746,0.008307084,0.5106414,0.5124455,0.1295017,4.950619E-11,4.699434E-11
33103,2023-01-20 11:10:21.741685,256196077,0,0.0001101411,8.660427E-06,9.386674E-06,1.46765E-05,0.04363022,0.04429474,0.008356998,0.5293174,0.5313552,0.1297484,4.927401E-11,4.688307E-11
33268,2023-01-20 11:10:22.241675,256696075,0,0.0001109988,8.359872E-06,9.154383E-06,1.430914E-05,0.04143392,0.04199338,0.008287224,0.5077333,0.5094731,0.1291468,4.849527E-11,4.62352E-11
33430,2023-01-20 11:10:22.741678,257196068,0,0.0001111908,8.430517E-06,9.182846E-06,1.459629E-05,0.04268129,0.04327787,0.00831386,0.5232372,0.5251224,0.1292388,4.820382E-11,4.606597E-11
33595,2023-01-20 11:10:23.241719,257696081,0,0.000111256,8.155992E-06,8.891247E-06,1.494411E-05,0.03990066,0.04045789,0.008212404,0.4982412,0.4997778,0.1283651,4.738794E-11,4.53686E-11
33756,2023-01-20 11:10:23.741693,258196080,0,0.0001118435,8.229092E-06,8.999737E-06,1.476589E-05,0.04102607,0.04158068,0.008241736,0.5120735,0.5137381,0.128437,4.715094E-11,4.523916E-11
33921,2023-01-20 11:10:24.241675,258696072,0,0.0001122047,8.025348E-06,8.784492E-06,1.487289E-05,0.03904469,0.03954246,0.008166885,0.4903983,0.4918168,0.1277274,4.65158E-11,4.471491E-11
34083,2023-01-20 11:10:24.741659,259196072,0,0.0001124298,8.220843E-06,9.041976E-06,1.495724E-05,0.04066843,0.0411559,0.008221745,0.5065277,0.5081034,0.1279759,4.640083E-11,4.470264E-11
34248,2023-01-20 11:10:25.237966,259696072,0,0.0001130051,7.966049E-06,8.857251E-06,1.486832E-05,0.03838443,0.0387971,0.008138191,0.4839891,0.4853091,0.1272522,4.574385E-11,4.416698E-11
34412,2023-01-20 11:10:25.721756,260196077,0,0.0001134937,8.04815E-06,8.959989E-06,1.493697E-05,0.03967049,0.04008892,0.008182243,0.4981172,0.49952,0.1274316,4.559579E-11,4.413324E-11
34625,2023-01-20 11:10:26.221714,260696068,0,0.0001140017,7.822345E-06,8.588419E-06,1.52172E-05,0.03776848,0.03815069,0.008119398,0.4777399,0.4789362,0.1268713,4.503132E-11,4.370354E-11
34787,2023-01-20 11:10:26.721681,261196072,0,0.0001143075,7.962307E-06,8.706707E-06,1.546848E-05,0.0392327,0.03966073,0.008164718,0.4923756,0.4936384,0.127117,4.494044E-11,4.372117E-11
34952,2023-01-20 11:10:27.221729,261696073,0,0.0001146287,7.798996E-06,8.481752E-06,1.583738E-05,0.0376441,0.03804781,0.008111261,0.4740198,0.4751223,0.1266511,4.446293E-11,4.336333E-11
35113,2023-01-20 11:10:27.721685,262196072,0,0.0001153864,7.882014E-06,8.532684E-06,1.583421E-05,0.03933436,0.03979409,0.008165726,0.4899285,0.4911394,0.1270263,4.443164E-11,4.342319E-11
35277,2023-01-20 11:10:28.221685,262696077,0,0.0001159782,7.709717E-06,8.345726E-06,1.58832E-05,0.03760569,0.03804345,0.008100589,0.4707254,0.4717917,0.1264998,4.396448E-11,4.305318E-11
35439,2023-01-20 11:10:28.721683,263196071,0,0.0001166501,7.819579E-06,8.460858E-06,1.587992E-05,0.03914542,0.03961772,0.008154452,0.486312,0.4875221,0.1268262,4.395485E-11,4.311644E-11
35604,2023-01-20 11:10:29.221731,263696083,0,0.0001174013,7.624522E-06,8.250629E-06,1.58347E-05,0.03739645,0.0378452,0.008089955,0.4674184,0.4684826,0.1263401,4.353636E-11,4.277489E-11
35767,2023-01-20 11:10:29.721692,264196089,0,0.0001180193,7.753727E-06,8.404467E-06,1.588827E-05,0.03907894,0.03957004,0.008151298,0.4840191,0.4852583,0.1267409,4.358316E-11,4.288242E-11
35931,2023-01-20 11:10:30.221668,264696072,0,0.0001183275,7.653465E-06,8.260202E-06,1.626102E-05,0.03770243,0.0381597,0.008109319,0.4677663,0.4688934,0.1264213,4.326276E-11,4.262676E-11
36096,2023-01-20 11:10:30.721651,265196072,0,0.0001190125,7.773427E-06,8.369917E-06,1.634751E-05,0.0394863,0.03998473,0.008177172,0.4854279,0.4867409,0.1269345,4.334862E-11,4.276526E-11
36261,2023-01-20 11:10:31.221703,265696075,0,0.000119666,7.647414E-06,8.215336E-06,1.643588E-05,0.03819689,0.03868889,0.008134711,0.4694244,0.4706276,0.1266622,4.305615E-11,4.252992E-11
36423,2023-01-20 11:10:31.721685,266196080,0,0.0001197573,7.803507E-06,8.326652E-06,1.70967E-05,0.04009364,0.04064277,0.008201625,0.4879821,0.4894021,0.1271891,4.315843E-11,4.267586E-11
36587,2023-01-20 11:10:32.221709,266696072,0,0.0001204159,7.6642E-06,8.223599E-06,1.714533E-05,0.03894174,0.03948429,0.008169004,0.4729844,0.4742967,0.127045,4.290089E-11,4.246211E-11
36749,2023-01-20 11:10:32.721658,267196073,0,0.0001214093,7.798205E-06,8.361854E-06,1.68915E-05,0.04091066,0.04150572,0.008236641,0.4927605,0.4943301,0.1276176,4.302501E-11,4.262108E-11
36914,2023-01-20 11:10:33.221717,267696081,0,0.0001223036,7.646852E-06,8.16931E-06,1.673119E-05,0.03939512,0.03997808,0.008191318,0.4764201,0.4778494,0.1273845,4.274524E-11,4.237731E-11
37076,2023-01-20 11:10:33.710570,268196073,0,0.0001231731,7.741822E-06,8.288532E-06,1.658515E-05,0.04113122,0.04181581,0.008249007,0.4955481,0.4972443,0.1279035,4.286016E-11,4.251879E-11
37240,2023-01-20 11:10:34.219756,268696075,0,0.0001232211,7.601061E-06,8.114661E-06,1.714226E-05,0.03933909,0.03998777,0.008194068,0.4777195,0.4792381,0.1275752,4.25744E-11,4.225549E-11
37402,2023-01-20 11:10:34.712928,269196082,0,0.0001239809,7.685571E-06,8.217766E-06,1.701077E-05,0.04071643,0.04145661,0.008237554,0.4946947,0.4964674,0.1279736,4.26603E-11,4.235874E-11
37567,2023-01-20 11:10:35.201586,269696100,0,0.0001247929,7.798727E-06,8.339834E-06,1.680817E-05,0.04243218,0.04324001,0.008287523,0.5135642,0.5156599,0.128401,4.278559E-11,4.249939E-11
37731,2023-01-20 11:10:35.701470,270196081,0,0.0001250937,7.625194E-06,8.17611E-06,1.702184E-05,0.04040594,0.04110895,0.008223435,0.4930803,0.4949293,0.1279634,4.251089E-11,4.223681E-11
37896,2023-01-20 11:10:36.201507,270696111,0,0.0001257289,7.739766E-06,8.29696E-06,1.695072E-05,0.04190997,0.04263183,0.008268845,0.5108868,0.5130039,0.1283531,4.263654E-11,4.237557E-11
38058,2023-01-20 11:10:36.701360,271196072,0,0.0001259319,7.581251E-06,8.126468E-06,1.73106E-05,0.04009955,0.04073469,0.008210805,0.4910725,0.4929438,0.1279274,4.239939E-11,4.215108E-11
38222,2023-01-20 11:10:37.201483,271696111,0,0.0001262882,7.697387E-06,8.256498E-06,1.753169E-05,0.04175636,0.04245984,0.008259052,0.5091754,0.5113214,0.1282939,4.254495E-11,4.230982E-11
38385,2023-01-20 11:10:37.701412,272196072,0,0.0001267683,7.622947E-06,8.176356E-06,1.751822E-05,0.04046541,0.04110821,0.008225205,0.4922997,0.4942564,0.1280658,4.238765E-11,4.21633E-11
38548,2023-01-20 11:10:38.201488,272696123,0,0.000127309,7.782623E-06,8.373064E-06,1.748801E-05,0.04240924,0.04308124,0.008287673,0.5130124,0.5152958,0.1285676,4.257662E-11,4.236415E-11
38710,2023-01-20 11:10:38.701414,273196077,0,0.0001278885,7.683932E-06,8.287596E-06,1.742389E-05,0.04115826,0.04173923,0.008256749,0.4972296,0.4993166,0.128388,4.241657E-11,4.22173E-11
38873,2023-01-20 11:10:39.201476,273696109,0,0.0001289248,7.82836E-06,8.442339E-06,1.693455E-05,0.04304677,0.04363159,0.008316245,0.5183179,0.5206629,0.1289183,4.258974E-11,4.240406E-11
39038,2023-01-20 11:10:39.701419,274196081,0,0.000128987,7.71931E-06,8.284426E-06,1.737809E-05,0.04126972,0.04179403,0.008266032,0.4997799,0.5018501,0.1286003,4.235811E-11,4.2191E-11
39201,2023-01-20 11:10:40.201482,274696116,0,0.0001291261,7.847982E-06,8.409118E-06,1.778397E-05,0.04292402,0.04350835,0.008310901,0.5193077,0.5215934,0.1289955,4.250059E-11,4.234759E-11
39368,2023-01-20 11:10:40.701408,275196077,0,0.0001290589,7.663439E-06,8.232008E-06,1.839909E-05,0.04084867,0.04138851,0.008246831,0.49821,0.5001975,0.1285639,4.224229E-11,4.210636E-11
39532,2023-01-20 11:10:41.201497,275696114,0,0.0001294456,7.804819E-06,8.373595E-06,1.856176E-05,0.04273956,0.04335301,0.008297201,0.5178636,0.5200992,0.1289716,4.241343E-11,4.228803E-11
39696,2023-01-20 11:10:41.701413,276196082,0,0.0001307475,7.610168E-06,8.20486E-06,1.777138E-05,0.04063528,0.04120548,0.008228832,0.496021,0.4979564,0.1284854,4.214903E-11,4.203726E-11
39859,2023-01-20 11:10:42.201508,276696113,0,0.0001308341,7.684906E-06,8.270069E-06,1.818205E-05,0.04153766,0.04213705,0.008246089,0.5099319,0.5120091,0.1285948,4.221724E-11,4.211468E-11
40022,2023-01-20 11:10:42.701389,277196071,0,0.0001312534,7.514473E-06,8.087157E-06,1.821668E-05,0.03924077,0.03979034,0.008164425,0.4861701,0.4879377,0.1279033,4.195022E-11,4.185892E-11
40234,2023-01-20 11:10:43.201498,277696124,0,0.0001317854,7.619823E-06,8.203058E-06,1.813729E-05,0.04046128,0.04104324,0.008195411,0.5007127,0.5026535,0.1280533,4.207482E-11,4.198924E-11
40397,2023-01-20 11:10:43.681923,278196068,0,0.0001324459,7.484608E-06,8.070305E-06,1.792333E-05,0.03874974,0.03929793,0.008135927,0.4802166,0.4819188,0.1275276,4.188655E-11,4.180951E-11
40559,2023-01-20 11:10:44.181918,278696103,0,0.0001324095,7.623636E-06,8.187613E-06,1.838536E-05,0.04007415,0.04067173,0.00817588,0.4955016,0.4974104,0.1277348,4.203309E-11,4.196046E-11
40724,2023-01-20 11:10:44.681848,279196077,0,0.0001326849,7.490265E-06,8.066E-06,1.850992E-05,0.03846573,0.03903797,0.008120993,0.4759346,0.4776242,0.1272665,4.185512E-11,4.178916E-11
40887,2023-01-20 11:10:45.201362,279696115,0,0.0001331862,7.647354E-06,8.209559E-06,1.838442E-05,0.04008806,0.04071701,0.008169257,0.492407,0.49434,0.1275532,4.202504E-11,4.196145E-11
41052,2023-01-20 11:10:45.681745,280196072,0,0.0001332965,7.545765E-06,8.053603E-06,1.858211E-05,0.03831301,0.03889748,0.008107211,0.4725918,0.4742948,0.1270073,4.18143E-11,4.175729E-11
41215,2023-01-20 11:10:46.181739,280696103,0,0.0001336743,7.680511E-06,8.207239E-06,1.855337E-05,0.04013841,0.04084486,0.008167278,0.4904869,0.4924853,0.1274152,4.201254E-11,4.195503E-11
41380,2023-01-20 11:10:46.681695,281196086,0,0.0001345963,7.529254E-06,8.154539E-06,1.79523E-05,0.03920982,0.0398431,0.008138847,0.4755247,0.4773827,0.1271694,4.189311E-11,4.183794E-11
41541,2023-01-20 11:10:47.181721,281696089,0,0.0001342372,7.731213E-06,8.3081E-06,1.863704E-05,0.04140788,0.04204397,0.008212744,0.496557,0.4987465,0.1277047,4.211717E-11,4.206256E-11
41706,2023-01-20 11:10:47.681678,282196072,0,0.0001339938,7.69969E-06,8.198631E-06,1.909065E-05,0.04025075,0.04087096,0.008183364,0.482255,0.4842658,0.1275545,4.196729E-11,4.191955E-11
41868,2023-01-20 11:10:48.181707,282696072,0,0.0001343836,7.775048E-06,8.339021E-06,1.902816E-05,0.04201157,0.04270487,0.008236405,0.5022864,0.5046079,0.1280004,4.212834E-11,4.208102E-11
42033,2023-01-20 11:10:48.681654,283196072,0,0.0001349588,7.624324E-06,8.23787E-06,1.866815E-05,0.0404759,0.04108342,0.008192488,0.4861601,0.4882483,0.1277184,4.193443E-11,4.189283E-11
42194,2023-01-20 11:10:49.181713,283696071,0,0.0001352001,7.755481E-06,8.353279E-06,1.875668E-05,0.04234479,0.04298435,0.008253321,0.5074059,0.5097845,0.1282518,4.212957E-11,4.208804E-11
42360,2023-01-20 11:10:49.681685,284196083,0,0.0001350961,7.615508E-06,8.215367E-06,1.912505E-05,0.04068857,0.04127416,0.008206412,0.4906578,0.4927902,0.1279642,4.193403E-11,4.190018E-11
42520,2023-01-20 11:10:50.181717,284696071,0,0.0001354102,7.784276E-06,8.382446E-06,1.909145E-05,0.04277843,0.04341145,0.008270058,0.5129769,0.5154218,0.128505,4.215286E-11,4.211854E-11
42688,2023-01-20 11:10:50.681659,285196072,0,0.0001355201,7.644241E-06,8.221037E-06,1.919629E-05,0.04092336,0.04153631,0.008214976,0.4948336,0.4969918,0.128198,4.193549E-11,4.190947E-11
42850,2023-01-20 11:10:51.181670,285696071,0,0.000135776,7.752807E-06,8.331443E-06,1.917899E-05,0.04241792,0.04314249,0.008249734,0.5134366,0.5158654,0.1285287,4.207768E-11,4.205161E-11
43015,2023-01-20 11:10:51.681703,286196095,0,0.0001359318,7.641896E-06,8.206355E-06,1.916132E-05,0.04083534,0.04154693,0.008203514,0.4957744,0.4979652,0.12823,4.190929E-11,4.188789E-11
43176,2023-01-20 11:10:52.181712,286696070,0,0.0001361165,7.798026E-06,8.361841E-06,1.911734E-05,0.04270558,0.04353584,0.008256314,0.5161858,0.5187362,0.1286716,4.210682E-11,4.2082E-11
43342,2023-01-20 11:10:52.674346,287196071,0,0.0001359395,7.618619E-06,8.190276E-06,1.932522E-05,0.04067566,0.04154161,0.00818878,0.4955452,0.4977888,0.1281976,4.186757E-11,4.184567E-11
43503,2023-01-20 11:10:53.181699,287696100,0,0.0001359526,7.723302E-06,8.292043E-06,1.936574E-05,0.04206734,0.04302707,0.008227916,0.5131409,0.5157143,0.1285053,4.201244E-11,4.198637E-11
43668,2023-01-20 11:10:53.681680,288196077,0,0.0001357082,7.526284E-06,8.088106E-06,1.94968E-05,0.03980633,0.04069251,0.00814936,0.4905516,0.4927395,0.1279001,4.175307E-11,4.172854E-11
43829,2023-01-20 11:10:54.161811,288696072,0,0.0001358643,7.632749E-06,8.199229E-06,1.933151E-05,0.04117801,0.04205589,0.008186186,0.5068044,0.5092978,0.1281248,4.190242E-11,4.187408E-11
43995,2023-01-20 11:10:54.661632,289196068,0,0.0001358046,7.514681E-06,8.080423E-06,1.928216E-05,0.03961397,0.04046848,0.008139545,0.4876928,0.4899203,0.1277714,4.174362E-11,4.171615E-11
44156,2023-01-20 11:10:55.161714,289696075,0,0.000135404,7.691109E-06,8.241172E-06,1.960203E-05,0.04138795,0.04238436,0.008194,0.5061032,0.5087188,0.1281438,4.194437E-11,4.19127E-11
44323,2023-01-20 11:10:55.661754,290196083,0,0.0001351421,7.561674E-06,8.091217E-06,1.965146E-05,0.03966693,0.04063036,0.008142595,0.4868989,0.4892378,0.1277449,4.17576E-11,4.172582E-11
44485,2023-01-20 11:10:56.161687,290696072,0,0.0001350518,7.632541E-06,8.201048E-06,1.960367E-05,0.0410161,0.04210944,0.008180718,0.5030407,0.5057255,0.1280202,4.190005E-11,4.186387E-11
44650,2023-01-20 11:10:56.661639,291196079,0,0.000134775,7.460188E-06,8.024076E-06,1.957271E-05,0.03899276,0.03996515,0.008112365,0.4818874,0.4842194,0.1274753,4.167531E-11,4.163894E-11
44812,2023-01-20 11:10:57.161652,291696072,0,0.0001347542,7.559748E-06,8.151544E-06,1.943948E-05,0.04043545,0.04143279,0.00815339,0.4981322,0.5008258,0.1277305,4.184052E-11,4.180061E-11
44977,2023-01-20 11:10:57.661653,292196069,0,0.000134632,7.417476E-06,7.990838E-06,1.926852E-05,0.03837986,0.03917482,0.008085119,0.4770573,0.4793794,0.1271897,4.162752E-11,4.159064E-11
45138,2023-01-20 11:10:58.161720,292696101,0,0.0001342891,7.547806E-06,8.090087E-06,1.941819E-05,0.03953687,0.04033849,0.008115786,0.4912524,0.4938201,0.1273376,4.176358E-11,4.172656E-11
45303,2023-01-20 11:10:58.661662,293196071,0,0.0001338458,7.416358E-06,7.93336E-06,1.958217E-05,0.03758372,0.03830147,0.00804117,0.4697231,0.4719134,0.1266871,4.155422E-11,4.152203E-11
45465,2023-01-20 11:10:59.161662,293696072,0,0.0001339604,7.559787E-06,8.065984E-06,1.929504E-05,0.0391678,0.03996177,0.008093522,0.4857045,0.4881661,0.1269926,4.174873E-11,4.171525E-11
45680,2023-01-20 11:10:59.661648,294196082,0,0.0001337618,7.408649E-06,7.909446E-06,1.920219E-05,0.03731712,0.03804896,0.008023548,0.4653983,0.4675153,0.1263811,4.153219E-11,4.150104E-11
45841,2023-01-20 11:11:00.161687,294696068,0,0.0001335051,7.50113E-06,8.046889E-06,1.928113E-05,0.03884823,0.03965688,0.008070676,0.480965,0.4833637,0.1266306,4.170768E-11,4.16738E-11
46008,2023-01-20 11:11:00.661651,295196072,0,0.0001331742,7.374495E-06,7.927412E-06,1.936806E-05,0.03733954,0.0380298,0.008020816,0.4634045,0.4655365,0.1262042,4.154936E-11,4.151759E-11
46170,2023-01-20 11:11:01.161687,295696068,0,0.000133151,7.510584E-06,8.06403E-06,1.923232E-05,0.03896183,0.03968345,0.008074531,0.4799609,0.4823691,0.1265257,4.17344E-11,4.170189E-11
46336,2023-01-20 11:11:01.661646,296196072,0,0.0001325548,7.416917E-06,7.962632E-06,1.95666E-05,0.03755058,0.03817832,0.00802836,0.4633084,0.4654557,0.1261333,4.157774E-11,4.154908E-11
46496,2023-01-20 11:11:02.161657,296696068,0,0.0001325877,7.58222E-06,8.125381E-06,1.941243E-05,0.03962488,0.04029148,0.008100846,0.4824212,0.4848867,0.1266562,4.181364E-11,4.178401E-11
46661,2023-01-20 11:11:02.661657,297196072,0,0.0001324346,7.504683E-06,8.036044E-06,1.935978E-05,0.03861269,0.03929155,0.008071813,0.4683487,0.470591,0.1264662,4.169471E-11,4.166861E-11
46822,2023-01-20 11:11:03.141915,297696077,0,0.0001323087,7.59972E-06,8.142158E-06,1.932555E-05,0.0400034,0.04077112,0.008114312,0.4852512,0.4877508,0.1268079,4.183046E-11,4.180346E-11
46988,2023-01-20 11:11:03.641835,298196071,0,0.0001325591,7.398002E-06,7.952377E-06,1.883289E-05,0.03788511,0.03856376,0.008039747,0.4653951,0.4675323,0.1262888,4.156753E-11,4.154385E-11
47149,2023-01-20 11:11:04.141788,298696075,0,0.0001320568,7.530783E-06,8.07525E-06,1.909742E-05,0.03917747,0.03993761,0.008077811,0.4807941,0.4831723,0.1265406,4.170573E-11,4.167998E-11
47314,2023-01-20 11:11:04.641681,299196080,0,0.0001315309,7.359913E-06,7.932492E-06,1.933418E-05,0.03748902,0.03828339,0.008016551,0.462458,0.4645503,0.126055,4.150642E-11,4.148121E-11
47475,2023-01-20 11:11:05.141716,299696089,0,0.0001311073,7.489453E-06,8.050021E-06,1.951063E-05,0.03905285,0.03993717,0.008069992,0.4791218,0.4815403,0.1264266,4.168709E-11,4.165767E-11
47643,2023-01-20 11:11:05.641675,300196074,0,0.0001308864,7.343216E-06,7.913948E-06,1.937183E-05,0.03755984,0.03840918,0.008018956,0.4620664,0.4642236,0.1260155,4.152224E-11,4.149061E-11
47804,2023-01-20 11:11:06.141744,300696072,0,0.0001306538,7.501671E-06,8.079995E-06,1.935885E-05,0.03956718,0.04047709,0.008088663,0.4812678,0.4838377,0.1265256,4.1755E-11,4.17182E-11
47970,2023-01-20 11:11:06.641671,301196067,0,0.0001305886,7.38483E-06,7.974712E-06,1.91012E-05,0.03818753,0.03899643,0.008049305,0.4662573,0.4685873,0.1262673,4.161121E-11,4.157404E-11
48131,2023-01-20 11:11:07.141698,301696074,0,0.0001304062,7.551411E-06,8.099313E-06,1.902802E-05,0.03970758,0.04046674,0.008101112,0.4840915,0.4867396,0.1266559,4.178271E-11,4.174396E-11
48297,2023-01-20 11:11:07.641676,302196080,0,0.0001291264,7.515607E-06,7.972546E-06,1.986241E-05,0.03810134,0.03884724,0.008051875,0.4678509,0.4702006,0.1263289,4.161381E-11,4.157852E-11
48458,2023-01-20 11:11:08.141710,302696081,0,0.0001289625,7.616662E-06,8.12123E-06,1.978553E-05,0.03986357,0.04072827,0.008111014,0.4868397,0.4895515,0.1268041,4.181605E-11,4.177833E-11
48623,2023-01-20 11:11:08.641670,303196068,0,0.0001292605,7.482023E-06,8.002246E-06,1.911289E-05,0.03825708,0.03903645,0.008057903,0.4702022,0.472614,0.1264544,4.163512E-11,4.159822E-11
48784,2023-01-20 11:11:09.141701,303696079,0,0.0001286964,7.576418E-06,8.133411E-06,1.943167E-05,0.03985076,0.04069851,0.008107372,0.4880401,0.4907747,0.1268703,4.181061E-11,4.177063E-11
48950,2023-01-20 11:11:09.641675,304196079,0,0.0001283594,7.423692E-06,8.010768E-06,1.951026E-05,0.03824328,0.03894788,0.008054885,0.4710637,0.473489,0.1265042,4.163786E-11,4.159877E-11
49112,2023-01-20 11:11:10.141693,304696074,0,0.0001280779,7.549513E-06,8.144165E-06,1.964075E-05,0.03985003,0.04059785,0.008105488,0.4890414,0.4917655,0.126896,4.182201E-11,4.17813E-11
49279,2023-01-20 11:11:10.641671,305196072,0,0.0001282961,7.434888E-06,8.023407E-06,1.918202E-05,0.03833781,0.03899497,0.008056335,0.4720157,0.4744104,0.1265753,4.165584E-11,4.161863E-11
49440,2023-01-20 11:11:11.141695,305696086,0,0.0001282985,7.582752E-06,8.162026E-06,1.901937E-05,0.04007914,0.04081639,0.008109531,0.4903559,0.4930379,0.1269899,4.184634E-11,4.180825E-11
49608,2023-01-20 11:11:11.641688,306196072,0,0.0001279985,7.479639E-06,8.056744E-06,1.908904E-05,0.03868794,0.03936529,0.008066838,0.4740877,0.4764911,0.1266978,4.169181E-11,4.16576E-11
49770,2023-01-20 11:11:12.121915,306696068,0,0.0001279164,7.623393E-06,8.187897E-06,1.897622E-05,0.040359,0.04108799,0.00811994,0.4922157,0.4949089,0.1271459,4.186949E-11,4.183404E-11
49934,2023-01-20 11:11:12.621879,307196085,0,0.0001280655,7.473867E-06,8.061259E-06,1.861134E-05,0.03876576,0.03942614,0.00806985,0.4745339,0.476906,0.1268244,4.167833E-11,4.164584E-11
50095,2023-01-20 11:11:13.121826,307696099,0,0.0001275917,7.634621E-06,8.200967E-06,1.891824E-05,0.0405421,0.04121581,0.008126634,0.4931368,0.4957882,0.1272667,4.186992E-11,4.183568E-11
50260,2023-01-20 11:11:13.624160,308196072,0,0.0001271054,7.554334E-06,8.105742E-06,1.922348E-05,0.03945065,0.04011852,0.008100761,0.4785784,0.4809911,0.1271604,4.175356E-11,4.17218E-11
50422,2023-01-20 11:11:14.121805,308696094,0,0.0001268711,7.694524E-06,8.256409E-06,1.929043E-05,0.04120464,0.04198156,0.0081541,0.4979572,0.5006812,0.1276042,4.193882E-11,4.190408E-11
50587,2023-01-20 11:11:14.621690,309196081,0,0.00012646,7.56923E-06,8.099503E-06,1.941866E-05,0.03946998,0.04023554,0.008099926,0.4797251,0.4821163,0.1272579,4.172828E-11,4.169499E-11
50748,2023-01-20 11:11:15.121692,309696078,0,0.0001260918,7.713028E-06,8.239201E-06,1.959307E-05,0.0414251,0.04230314,0.008161567,0.4998049,0.5026004,0.1277727,4.193777E-11,4.189984E-11
50915,2023-01-20 11:11:15.621639,310196071,0,0.0001265778,7.532044E-06,8.11432E-06,1.887583E-05,0.0399364,0.04073695,0.008117056,0.4828895,0.4854056,0.1275004,4.175733E-11,4.171966E-11
51126,2023-01-20 11:11:16.121737,310696118,0,0.0001273677,7.682876E-06,8.255151E-06,1.786211E-05,0.0416623,0.04253675,0.008169648,0.5025292,0.5054182,0.1279394,4.194304E-11,4.190122E-11
51292,2023-01-20 11:11:16.621641,311196068,0,0.0001273651,7.51765E-06,8.097907E-06,1.760011E-05,0.0397909,0.04053079,0.008115565,0.4838383,0.4863685,0.1276038,4.173259E-11,4.169269E-11
51453,2023-01-20 11:11:17.121705,311696105,0,0.0001265813,7.593052E-06,8.180662E-06,1.82163E-05,0.04093537,0.04168773,0.008143133,0.4996428,0.5024047,0.1278151,4.18457E-11,4.180322E-11
51618,2023-01-20 11:11:17.621659,312196075,0,0.0001254892,7.38384E-06,7.949172E-06,1.904385E-05,0.038073,0.03875926,0.008041926,0.4751831,0.4774562,0.1270378,4.153125E-11,4.149364E-11
51779,2023-01-20 11:11:18.121711,312696093,0,0.0001249813,7.51444E-06,8.029533E-06,1.932203E-05,0.03897723,0.03974702,0.008065748,0.4886308,0.4911056,0.127144,4.165866E-11,4.161958E-11
51945,2023-01-20 11:11:18.621649,313196068,0,0.000125493,7.392419E-06,7.845414E-06,1.840611E-05,0.03662814,0.03736088,0.007975104,0.4658161,0.4678918,0.1263614,4.142064E-11,4.138564E-11
52106,2023-01-20 11:11:19.121724,313696112,0,0.0001254986,7.484415E-06,7.994789E-06,1.818814E-05,0.03817543,0.03890451,0.008022776,0.4810798,0.4834248,0.1265669,4.162011E-11,4.158177E-11
52272,2023-01-20 11:11:19.621631,314196081,0,0.0001246117,7.344156E-06,7.828834E-06,1.874234E-05,0.03623271,0.03690364,0.007946435,0.4603018,0.4623015,0.1258978,4.14094E-11,4.137386E-11
52433,2023-01-20 11:11:20.121700,314696100,0,0.0001236392,7.478473E-06,7.94109E-06,1.9428E-05,0.03748256,0.03822896,0.007985218,0.4739557,0.4761737,0.1260211,4.156697E-11,4.15286E-11
52601,2023-01-20 11:11:20.621675,315196072,0,0.0001233973,7.346562E-06,7.816065E-06,1.932019E-05,0.03575727,0.03644674,0.007921658,0.4550505,0.4569876,0.1254179,4.13958E-11,4.135912E-11
52762,2023-01-20 11:11:21.121709,315696084,0,0.0001237946,7.455053E-06,7.952758E-06,1.867633E-05,0.03719931,0.03794594,0.00797277,0.4697945,0.4719821,0.12566,4.158563E-11,4.154617E-11
52928,2023-01-20 11:11:21.621624,316196072,0,0.0001233753,7.333279E-06,7.846755E-06,1.879958E-05,0.03584667,0.03650981,0.007921547,0.4526516,0.4545963,0.1251634,4.143827E-11,4.140111E-11
53089,2023-01-20 11:11:22.110555,316696081,0,0.000122436,7.50743E-06,8.012037E-06,1.95144E-05,0.03769416,0.03839931,0.00799132,0.4697002,0.4719599,0.1255872,4.16638E-11,4.16248E-11
53255,2023-01-20 11:11:22.601539,317196099,0,0.0001226471,7.660627E-06,8.147446E-06,1.907589E-05,0.03932507,0.04010405,0.008046837,0.4864219,0.4889818,0.1259744,4.184159E-11,4.180207E-11
53416,2023-01-20 11:11:23.101434,317696079,0,0.0001230317,7.498517E-06,8.022724E-06,1.844339E-05,0.03787977,0.03857988,0.007995866,0.4684965,0.4707609,0.1255677,4.165476E-11,4.162022E-11
53581,2023-01-20 11:11:23.601405,318196110,0,0.0001228167,7.640412E-06,8.185551E-06,1.851211E-05,0.03981861,0.04055194,0.008068747,0.4875844,0.490194,0.1261206,4.1881E-11,4.184509E-11
53742,2023-01-20 11:11:24.101532,318696096,0,0.0001221504,7.548175E-06,8.064574E-06,1.895561E-05,0.03848074,0.03917576,0.008028212,0.4713162,0.4736592,0.1258437,4.171843E-11,4.168801E-11
53907,2023-01-20 11:11:24.601462,319196117,0,0.0001225441,7.719214E-06,8.22808E-06,1.832691E-05,0.04017282,0.04094473,0.008083218,0.4893304,0.4919978,0.1262884,4.18962E-11,4.186601E-11
54069,2023-01-20 11:11:25.101439,319696080,0,0.0001225178,7.615561E-06,8.131753E-06,1.809452E-05,0.03892837,0.03956874,0.00804723,0.4732854,0.475673,0.1260711,4.173637E-11,4.171253E-11
54236,2023-01-20 11:11:25.601367,320196100,0,0.0001219581,7.770168E-06,8.216211E-06,1.85602E-05,0.04069145,0.04142898,0.008102764,0.4920117,0.4947031,0.1265441,4.191355E-11,4.188968E-11
54396,2023-01-20 11:11:26.101437,320696084,0,0.0001210805,7.486277E-06,8.054505E-06,1.935084E-05,0.03889663,0.03967464,0.008036735,0.4728146,0.4751568,0.1261122,4.167207E-11,4.165324E-11
54561,2023-01-20 11:11:26.601438,321196108,0,0.0001208553,7.640484E-06,8.164626E-06,1.937882E-05,0.04047112,0.04132698,0.008083814,0.4898801,0.4925381,0.1265128,4.182971E-11,4.181124E-11
54724,2023-01-20 11:11:27.101450,321696076,0,0.0001198253,7.477503E-06,7.98283E-06,2.017414E-05,0.0385047,0.0392582,0.008013429,0.4696673,0.4719531,0.1259948,4.158538E-11,4.157275E-11
54889,2023-01-20 11:11:27.601462,322196116,0,0.0001202483,7.520309E-06,8.072693E-06,1.966113E-05,0.03962949,0.04054066,0.008049921,0.4850855,0.4876583,0.1262561,4.172451E-11,4.171198E-11
55050,2023-01-20 11:11:28.101449,322696091,0,0.0001215911,7.361455E-06,7.938548E-06,1.811879E-05,0.03782066,0.03856925,0.007990411,0.466228,0.4684779,0.1258045,4.1545E-11,4.153624E-11
