LineNo,UTC_Approx,TimeUS,C,V12,V13,V14,V15,V16,V17,V18,V19,V20,V21,V22,V23
685,2023-01-20 11:08:47.421095,161675791,0,1.090015E-10,6.157649E-06,6.159714E-06,6.159734E-08,0,0,0,0,0,0,0,0
1881,2023-01-20 11:08:47.941896,162196081,0,1.090068E-10,6.065277E-06,6.067277E-06,6.07325E-08,0,0,0,0,0,0,0,0
2124,2023-01-20 11:08:48.438031,162696062,0,1.090001E-10,5.613258E-06,5.614938E-06,5.889742E-08,0,0,0,0,0,0,0,0
2408,2023-01-20 11:08:48.921974,163196065,0,1.089867E-10,5.047526E-06,5.04882E-06,5.717436E-08,0,0,0,0,0,0,0,0
2617,2023-01-20 11:08:49.441806,163696078,0,1.089798E-10,4.098395E-06,4.099104E-06,5.476375E-08,0,0,0,0,0,0,0,0
2816,2023-01-20 11:08:49.921949,164196069,0,1.089718E-10,3.51743E-06,3.517816E-06,5.279423E-08,0,0,0,0,0,0,0,0
3018,2023-01-20 11:08:50.421912,164696066,0,1.089611E-10,2.6927E-06,2.69271E-06,4.995121E-08,0,0,0,0,0,0,0,0
3217,2023-01-20 11:08:50.921874,165196076,0,1.089593E-10,2.314401E-06,2.314247E-06,4.778742E-08,0,0,0,0,0,0,0,0
3418,2023-01-20 11:08:51.421759,165696074,0,1.089478E-10,1.884086E-06,1.883776E-06,4.507485E-08,0,0,0,0,0,0,0,0
3617,2023-01-20 11:08:51.921747,166196081,0,1.089405E-10,1.666212E-06,1.665816E-06,4.294287E-08,0,0,0,0,0,0,0,0
3793,2023-01-20 11:08:52.421755,166696087,0,1.089384E-10,1.426421E-06,1.425936E-06,4.038059E-08,0,0,0,0,0,0,0,0
3953,2023-01-20 11:08:52.921760,167196070,0,1.089292E-10,1.316668E-06,1.316125E-06,3.853938E-08,0,0,0,0,0,0,0,0
4116,2023-01-20 11:08:53.421714,167696074,0,1.089231E-10,1.190536E-06,1.189923E-06,3.639017E-08,0,0,0,0,0,0,0,0
4276,2023-01-20 11:08:53.921691,168196079,0,1.08922E-10,1.128032E-06,1.127358E-06,3.47949E-08,0,0,0,0,0,0,0,0
4441,2023-01-20 11:08:54.421693,168696079,0,1.089131E-10,1.059727E-06,1.058969E-06,3.300675E-08,0,0,0,0,0,0,0,0
4601,2023-01-20 11:08:54.921667,169196074,0,1.089042E-10,1.01946E-06,1.018611E-06,3.152153E-08,0,0,0,0,0,0,0,0
4764,2023-01-20 11:08:55.421686,169696081,0,1.088929E-10,9.747984E-07,9.73792E-07,2.890538E-08,0,0,0,0,0,0,0,0
4926,2023-01-20 11:08:55.921693,170196083,0,1.088851E-10,9.52852E-07,9.517502E-07,2.695465E-08,0,0,0,0,0,0,0,0
5089,2023-01-20 11:08:56.421682,170696072,0,1.088794E-10,9.285799E-07,9.273698E-07,2.535474E-08,0,0,0,0,0,0,0,0
5249,2023-01-20 11:08:56.921704,171196093,0,1.08865E-10,9.173424E-07,9.160651E-07,2.42182E-08,0,0,0,0,0,0,0,0
5413,2023-01-20 11:08:57.421693,171696076,0,1.088469E-10,9.061586E-07,9.048724E-07,2.306686E-08,0,0,0,0,0,0,0,0
5573,2023-01-20 11:08:57.921687,172196074,0,1.08838E-10,9.016574E-07,9.004091E-07,2.218939E-08,0,0,0,0,0,0,0,0
5738,2023-01-20 11:08:58.421675,172696069,0,1.09806E-10,8.93451E-07,8.924592E-07,2.126857E-08,0.002484595,0.0009601093,0.002500009,0.0025,0.0025,0.0025,0,0
5898,2023-01-20 11:08:58.921696,173196099,0,1.107872E-10,8.815019E-07,8.828462E-07,2.050102E-08,0.002480991,0.0005991079,0.002500018,0.0025,0.0025,0.0025,0,0
6063,2023-01-20 11:08:59.401838,173696092,0,1.117769E-10,8.651153E-07,8.752562E-07,1.974123E-08,0.002479399,0.0004391714,0.002500027,0.0025,0.0025,0.0025,0,0
6223,2023-01-20 11:08:59.901607,174196077,0,1.12758E-10,8.462488E-07,8.685248E-07,1.895046E-08,0.002478505,0.000348911,0.002500036,0.0025,0.0025,0.0025,0,0
6386,2023-01-20 11:09:00.401565,174696110,0,1.137438E-10,8.388071E-07,8.627836E-07,1.832758E-08,0.002477933,0.0002909397,0.002500046,0.0025,0.0025,0.0025,0,0
6549,2023-01-20 11:09:00.901477,175196089,0,1.147263E-10,8.326078E-07,8.491467E-07,1.765613E-08,0.002477539,0.0002505603,0.002500055,0.0025,0.0025,0.0025,0,0
6712,2023-01-20 11:09:01.401499,175696120,0,1.157063E-10,8.303977E-07,8.373294E-07,1.707741E-08,0.00247725,0.0002208203,0.002500064,0.0025,0.0025,0.0025,0,0
6873,2023-01-20 11:09:01.901423,176196083,0,1.166976E-10,8.278093E-07,8.210712E-07,1.645127E-08,0.002477031,0.0001980044,0.002500074,0.0025,0.0025,0.0025,0,0
7036,2023-01-20 11:09:02.401486,176696112,0,1.176818E-10,8.260625E-07,8.093618E-07,1.593101E-08,0.002476859,0.0001799468,0.002500083,0.0025,0.0025,0.0025,0,0
7196,2023-01-20 11:09:02.901450,177196088,0,1.186606E-10,8.240237E-07,7.924901E-07,1.537478E-08,0.002476722,0.0001652996,0.002500092,0.0025,0.0025,0.0025,0,0
7359,2023-01-20 11:09:03.401444,177696118,0,1.196487E-10,8.227136E-07,7.849865E-07,1.49186E-08,0.00247661,0.0001531801,0.002500102,0.0025,0.0025,0.0025,0,0
7520,2023-01-20 11:09:03.901412,178196072,0,1.206242E-10,8.208195E-07,7.793006E-07,1.444503E-08,0.002476517,0.0001429861,0.002500111,0.0025,0.0025,0.0025,0,0
7684,2023-01-20 11:09:04.401466,178696108,0,1.215973E-10,8.191368E-07,7.772191E-07,1.404704E-08,0.002476439,0.0001342925,0.00250012,0.0025,0.0025,0.0025,0,0
7844,2023-01-20 11:09:04.901417,179196079,0,1.225668E-10,8.165174E-07,7.753749E-07,1.363304E-08,0.002476373,0.0001267909,0.00250013,0.0025,0.0025,0.0025,0,0
8008,2023-01-20 11:09:05.401499,179696124,0,1.235372E-10,8.141806E-07,7.743216E-07,1.329122E-08,0.002476317,0.0001202518,0.002500139,0.0025,0.0025,0.0025,0,0
8170,2023-01-20 11:09:05.901415,180196071,0,1.244054E-10,8.062188E-07,7.587626E-07,1.29324E-08,0.001493364,0.0001030881,0.001512245,0.001512679,0.001236479,0.001515892,0,0
8333,2023-01-20 11:09:06.401425,180696107,0,1.253254E-10,8.015164E-07,7.523183E-07,1.263717E-08,0.001289363,9.715085E-05,0.001351527,0.001314399,0.000957905,0.001355537,0,0
8493,2023-01-20 11:09:06.901413,181196074,0,1.262341E-10,7.950242E-07,7.456956E-07,1.234631E-08,0.001146316,9.189946E-05,0.001315057,0.001148789,0.0007941916,0.001302894,0,0
8657,2023-01-20 11:09:07.401486,181696127,0,1.27177E-10,7.878022E-07,7.39522E-07,1.209274E-08,0.001060167,8.695581E-05,0.001304866,0.001027617,0.0007090386,0.001277759,0,0
8817,2023-01-20 11:09:07.901447,182196083,0,1.28129E-10,7.681174E-07,7.242034E-07,1.180956E-08,0.000982237,8.227064E-05,0.001297783,0.0009253361,0.0006672906,0.001271465,0,0
8980,2023-01-20 11:09:08.401476,182696114,0,1.290395E-10,7.456469E-07,7.020485E-07,1.155661E-08,0.0008648649,7.653428E-05,0.001263474,0.0007314275,0.000599015,0.001258766,0,0
9142,2023-01-20 11:09:08.901434,183196083,0,1.299623E-10,7.044948E-07,6.660304E-07,1.127625E-08,0.0008196867,7.216658E-05,0.00125344,0.0006450001,0.0005610354,0.001256022,0,0
9304,2023-01-20 11:09:09.381877,183696116,0,1.30873E-10,6.776615E-07,6.409603E-07,1.105311E-08,0.0007900203,6.799766E-05,0.001238957,0.000567705,0.0005291927,0.001247881,0,0
9468,2023-01-20 11:09:09.881870,184196082,0,1.317794E-10,6.26817E-07,5.970584E-07,1.078763E-08,0.0007749382,6.420742E-05,0.001226436,0.0005178302,0.0005080627,0.001240339,0,0
9629,2023-01-20 11:09:10.381842,184696092,0,1.327008E-10,5.926947E-07,5.668943E-07,1.056674E-08,0.0007657883,6.082245E-05,0.001221873,0.0004903677,0.0004902081,0.001238871,0,0
9793,2023-01-20 11:09:10.881716,185196074,0,1.336004E-10,5.520308E-07,5.290423E-07,1.033266E-08,0.0007532308,5.773844E-05,0.001218052,0.0004634178,0.0004743308,0.001237066,0,0
9955,2023-01-20 11:09:11.381681,185696105,0,1.344936E-10,5.264426E-07,5.040343E-07,1.013932E-08,0.0007380278,5.492174E-05,0.001217043,0.0004367279,0.0004593889,0.001234801,0,0
10116,2023-01-20 11:09:11.881695,186196078,0,1.35385E-10,4.937386E-07,4.719882E-07,9.926783E-09,0.0007219907,5.23659E-05,0.001216701,0.0004138262,0.0004451839,0.001230993,0,0
10278,2023-01-20 11:09:12.381693,186696083,0,1.362633E-10,4.753574E-07,4.538402E-07,9.755783E-09,0.0007119643,5.012E-05,0.001216248,0.0003976967,0.0004355084,0.001229728,0,0
10440,2023-01-20 11:09:12.881701,187196075,0,1.371192E-10,4.522845E-07,4.31306E-07,9.568843E-09,0.000704943,4.812347E-05,0.00121565,0.0003861856,0.0004274416,0.001228726,0,0
10601,2023-01-20 11:09:13.381709,187696083,0,1.379709E-10,4.380313E-07,4.175044E-07,9.409622E-09,0.0006990167,4.632688E-05,0.001214367,0.0003755731,0.0004215637,0.001228174,0,0
10763,2023-01-20 11:09:13.881692,188196070,0,1.387762E-10,4.175797E-07,3.981516E-07,9.218813E-09,0.0006880547,4.474766E-05,0.001211579,0.0003642745,0.0004145388,0.001223372,0,0
10926,2023-01-20 11:09:14.381693,188696071,0,1.395488E-10,4.075971E-07,3.886971E-07,9.070214E-09,0.0006751696,4.332134E-05,0.001193518,0.0003531527,0.0004085901,0.001203898,0,0
11088,2023-01-20 11:09:14.881700,189196090,0,1.40285E-10,3.995867E-07,3.812725E-07,8.931383E-09,0.0006636503,4.206488E-05,0.001184517,0.0003426,0.0004025886,0.001197763,0,0
11252,2023-01-20 11:09:15.381713,189696072,0,1.41001E-10,3.946407E-07,3.767364E-07,8.809546E-09,0.0006538056,4.093019E-05,0.001180325,0.0003332485,0.0003972612,0.001196361,0,0
11416,2023-01-20 11:09:15.881710,190196071,0,1.416698E-10,3.877942E-07,3.70667E-07,8.671325E-09,0.0006467622,3.990109E-05,0.001175845,0.0003262029,0.0003924326,0.001191613,0,0
11577,2023-01-20 11:09:16.381706,190696071,0,1.423267E-10,3.837901E-07,3.670077E-07,8.550384E-09,0.0006413024,3.892579E-05,0.001167026,0.0003222603,0.0003878835,0.001177691,0,0
11739,2023-01-20 11:09:16.881707,191196074,0,1.429826E-10,3.794838E-07,3.628687E-07,8.41594E-09,0.0006328969,3.789747E-05,0.001144367,0.0003165444,0.0003817021,0.001147523,0,0
11900,2023-01-20 11:09:17.381722,191696078,0,1.436564E-10,3.774367E-07,3.605159E-07,8.305598E-09,0.0005044473,3.51862E-05,0.001103946,0.0002499267,0.0003076,0.001113601,0,0
12062,2023-01-20 11:09:17.881715,192196073,0,1.437293E-10,3.730821E-07,3.558444E-07,8.181268E-09,0.0003020255,3.1064E-05,0.001038511,0.0001492421,0.0001816222,0.001090125,0,0
12224,2023-01-20 11:09:18.365381,192696079,0,1.436476E-10,3.675956E-07,3.507128E-07,8.072779E-09,0.0002113019,2.837696E-05,0.0009748436,9.885208E-05,0.0001196745,0.001067765,0,0
12387,2023-01-20 11:09:18.861809,193196092,0,1.439645E-10,3.543881E-07,3.397995E-07,7.943707E-09,0.0001811955,2.707822E-05,0.0009105104,7.974294E-05,0.0001014199,0.001025594,0,0
12549,2023-01-20 11:09:19.361931,193696087,0,1.443938E-10,3.42604E-07,3.314383E-07,7.831077E-09,0.0001639589,2.616506E-05,0.0008403737,6.743604E-05,9.225386E-05,0.0009696071,0,0
12714,2023-01-20 11:09:19.861708,194196071,0,1.445994E-10,3.234196E-07,3.178666E-07,7.693751E-09,0.0001490526,2.539128E-05,0.0007850057,5.86844E-05,8.542948E-05,0.0009178898,0,0
12876,2023-01-20 11:09:20.361708,194696077,0,1.448652E-10,3.107131E-07,3.087691E-07,7.57682E-09,0.0001365948,2.4571E-05,0.0007683401,5.247916E-05,7.870756E-05,0.0009017564,0,0
13041,2023-01-20 11:09:20.861702,195196079,0,1.450115E-10,2.955625E-07,2.973966E-07,7.447244E-09,0.0001257412,2.373089E-05,0.0007641246,4.829498E-05,7.230321E-05,0.0008931053,0,0
13204,2023-01-20 11:09:21.361696,195696072,0,1.452611E-10,2.856664E-07,2.904092E-07,7.341107E-09,0.0001142376,2.293704E-05,0.0007519276,4.477204E-05,6.58573E-05,0.0008722043,0,0
13367,2023-01-20 11:09:21.861711,196196080,0,1.453911E-10,2.732024E-07,2.818059E-07,7.222945E-09,0.0001033531,2.217971E-05,0.0007344889,4.208507E-05,5.989415E-05,0.000841962,0,0
13530,2023-01-20 11:09:22.361688,196696072,0,1.45622E-10,2.657585E-07,2.773255E-07,7.131647E-09,9.542485E-05,2.15557E-05,0.0007232286,4.004405E-05,5.558383E-05,0.0008209067,0,0
13693,2023-01-20 11:09:22.861695,197196071,0,1.457108E-10,2.562403E-07,2.718386E-07,7.029538E-09,8.952231E-05,2.093918E-05,0.0007139329,3.869874E-05,5.216752E-05,0.0008020779,0,0
13856,2023-01-20 11:09:23.361701,197696081,0,1.458941E-10,2.492795E-07,2.684325E-07,6.942977E-09,8.510953E-05,2.036635E-05,0.0007045015,3.777639E-05,4.946692E-05,0.0007842781,0,0
14019,2023-01-20 11:09:23.861703,198196071,0,1.45961E-10,2.407358E-07,2.646686E-07,6.844997E-09,8.159662E-05,1.982174E-05,0.0006982171,3.700583E-05,4.743103E-05,0.0007720841,0,0
14182,2023-01-20 11:09:24.361698,198696071,0,1.462169E-10,2.36152E-07,2.632247E-07,6.779103E-09,7.954945E-05,1.936978E-05,0.0006942214,3.644745E-05,4.600931E-05,0.0007646232,0,0
14346,2023-01-20 11:09:24.861669,199196067,0,1.463446E-10,2.302438E-07,2.616082E-07,6.70569E-09,7.747762E-05,1.889265E-05,0.0006863832,3.604868E-05,4.45857E-05,0.0007524141,0,0
14509,2023-01-20 11:09:25.361727,199696083,0,1.465252E-10,2.255553E-07,2.606493E-07,6.645452E-09,7.57252E-05,1.84828E-05,0.0006819339,3.562894E-05,4.342527E-05,0.000744993,0,0
14674,2023-01-20 11:09:25.861698,200196068,0,1.465388E-10,2.199689E-07,2.596954E-07,6.581205E-09,7.385037E-05,1.811353E-05,0.0006800592,3.505933E-05,4.242585E-05,0.0007412529,0,0
14837,2023-01-20 11:09:26.361701,200696074,0,1.466002E-10,2.155605E-07,2.590807E-07,6.531112E-09,7.209329E-05,1.778065E-05,0.0006781953,3.447359E-05,4.149902E-05,0.0007377405,0,0
15000,2023-01-20 11:09:26.861679,201196077,0,1.462682E-10,2.096228E-07,2.582512E-07,6.473156E-09,7.066377E-05,1.7441E-05,0.0006768745,3.395075E-05,4.071626E-05,0.0007353317,0,0
15163,2023-01-20 11:09:27.361683,201696075,0,1.460375E-10,2.0472E-07,2.57487E-07,6.427974E-09,6.948406E-05,1.712663E-05,0.0006756415,3.350019E-05,4.004371E-05,0.0007331912,0,0
15326,2023-01-20 11:09:27.861724,202196091,0,1.455263E-10,1.989113E-07,2.563667E-07,6.380314E-09,6.848775E-05,1.681161E-05,0.000674422,3.309554E-05,3.938402E-05,0.0007312461,0,0
15489,2023-01-20 11:09:28.361719,202696083,0,1.451703E-10,1.941711E-07,2.552032E-07,6.344204E-09,6.792708E-05,1.654214E-05,0.0006741056,3.279447E-05,3.895841E-05,0.0007306973,0,0
15652,2023-01-20 11:09:28.841750,203196071,0,1.44649E-10,1.888111E-07,2.536091E-07,6.307305E-09,6.721204E-05,1.627807E-05,0.0006734509,3.246007E-05,3.842782E-05,0.0007295851,0,0
15815,2023-01-20 11:09:29.341729,203696075,0,1.443565E-10,1.847092E-07,2.52368E-07,6.28097E-09,6.671358E-05,1.603924E-05,0.0006729499,3.219739E-05,3.803357E-05,0.0007287606,0,0
15980,2023-01-20 11:09:29.841872,204196071,0,1.437317E-10,1.795271E-07,2.502923E-07,6.251105E-09,6.609969E-05,1.579868E-05,0.0006720415,3.190767E-05,3.754045E-05,0.0007273387,0,0
16143,2023-01-20 11:09:30.341706,204696084,0,1.432666E-10,1.751044E-07,2.484792E-07,6.227184E-09,6.544327E-05,1.556256E-05,0.0006698726,3.165807E-05,3.705367E-05,0.0007244771,0,0
16308,2023-01-20 11:09:30.841669,205196071,0,1.425111E-10,1.696292E-07,2.455919E-07,6.199691E-09,6.483759E-05,1.532626E-05,0.0006670849,3.141948E-05,3.650683E-05,0.0007208903,0,0
16514,2023-01-20 11:09:31.341720,205696091,0,1.420843E-10,1.655843E-07,2.435782E-07,6.180376E-09,6.428349E-05,1.5104E-05,0.0006638981,3.122611E-05,3.607033E-05,0.000717031,0,0
16676,2023-01-20 11:09:31.841718,206196085,0,1.41502E-10,1.608945E-07,2.407365E-07,6.158901E-09,6.369538E-05,1.487989E-05,0.0006593425,3.104327E-05,3.556027E-05,0.0007115045,0,0
16839,2023-01-20 11:09:32.341707,206696076,0,1.411106E-10,1.572685E-07,2.386984E-07,6.143464E-09,6.336079E-05,1.46746E-05,0.0006557825,3.09289E-05,3.521765E-05,0.0007072653,0,0
17002,2023-01-20 11:09:32.841674,207196080,0,1.405966E-10,1.530345E-07,2.358462E-07,6.125887E-09,6.30021E-05,1.447251E-05,0.000650262,3.08229E-05,3.484007E-05,0.000700593,0,0
17165,2023-01-20 11:09:33.341682,207696085,0,1.401929E-10,1.497594E-07,2.337899E-07,6.113396E-09,6.274488E-05,1.429162E-05,0.0006480149,3.071532E-05,3.459278E-05,0.0006977594,0,0
17328,2023-01-20 11:09:33.841701,208196071,0,1.396677E-10,1.458965E-07,2.309387E-07,6.098742E-09,6.235046E-05,1.410796E-05,0.0006442834,3.057914E-05,3.425716E-05,0.000693184,0,0
17491,2023-01-20 11:09:34.341719,208696075,0,1.392577E-10,1.429973E-07,2.290376E-07,6.088762E-09,6.194669E-05,1.393474E-05,0.0006414574,3.0436E-05,3.399015E-05,0.0006898664,0,0
17655,2023-01-20 11:09:34.841714,209196079,0,1.386914E-10,1.397211E-07,2.265418E-07,6.077181E-09,6.139822E-05,1.376662E-05,0.0006383771,3.023299E-05,3.367764E-05,0.0006861722,0,0
17818,2023-01-20 11:09:35.341680,209696082,0,1.381812E-10,1.371885E-07,2.248241E-07,6.069276E-09,6.08925E-05,1.360578E-05,0.0006355462,3.003766E-05,3.342757E-05,0.0006829769,0,0
17983,2023-01-20 11:09:35.841697,210196072,0,1.374519E-10,1.342372E-07,2.224572E-07,6.059085E-09,6.031371E-05,1.344536E-05,0.0006322362,2.981462E-05,3.311963E-05,0.0006790919,0,0
18146,2023-01-20 11:09:36.341726,210696079,0,1.368515E-10,1.32005E-07,2.208983E-07,6.052642E-09,5.984986E-05,1.329233E-05,0.0006296739,2.96224E-05,3.28935E-05,0.0006762431,0,0
18309,2023-01-20 11:09:36.821904,211196076,0,1.360398E-10,1.294823E-07,2.188287E-07,6.044321E-09,5.953217E-05,1.313935E-05,0.0006280651,2.947759E-05,3.265617E-05,0.0006742455,0,0
18472,2023-01-20 11:09:37.321862,211696081,0,1.353986E-10,1.274973E-07,2.173593E-07,6.038957E-09,5.936219E-05,1.299228E-05,0.0006263742,2.939512E-05,3.249383E-05,0.000672262,0,0
18635,2023-01-20 11:09:37.821722,212196068,0,1.347645E-10,1.252711E-07,2.154579E-07,6.031933E-09,5.911919E-05,1.284048E-05,0.0006224567,2.931219E-05,3.227222E-05,0.0006677345,0,0
18798,2023-01-20 11:09:38.321735,212696092,0,1.343089E-10,1.235788E-07,2.142108E-07,6.027811E-09,5.888709E-05,1.269439E-05,0.0006181172,2.923943E-05,3.209718E-05,0.0006630526,0,0
18961,2023-01-20 11:09:38.821697,213196071,0,1.337947E-10,1.216217E-07,2.124731E-07,6.021554E-09,5.856988E-05,1.25532E-05,0.0006135974,2.912622E-05,3.189909E-05,0.0006581361,0,0
19124,2023-01-20 11:09:39.321691,213696082,0,1.333927E-10,1.201329E-07,2.113332E-07,6.018103E-09,5.82485E-05,1.24183E-05,0.0006091278,2.900733E-05,3.173926E-05,0.0006535447,0,0
19291,2023-01-20 11:09:39.821704,214196079,0,1.329296E-10,1.185144E-07,2.099196E-07,6.013134E-09,5.785951E-05,1.228725E-05,0.0006044865,2.886962E-05,3.155814E-05,0.0006486304,0,0
19454,2023-01-20 11:09:40.321710,214696075,0,1.324627E-10,1.17252E-07,2.089655E-07,6.010472E-09,5.756576E-05,1.21658E-05,0.0006016252,2.874679E-05,3.143709E-05,0.0006457111,0,0
19619,2023-01-20 11:09:40.821700,215196072,0,1.31847E-10,1.159017E-07,2.077966E-07,6.00665E-09,5.714508E-05,1.205154E-05,0.0005984885,2.855893E-05,3.130866E-05,0.0006423002,0,0
19782,2023-01-20 11:09:41.321683,215696076,0,1.313042E-10,1.147939E-07,2.069415E-07,6.004332E-09,5.668472E-05,1.193691E-05,0.0005938865,2.835359E-05,3.117843E-05,0.0006375835,0,0
19945,2023-01-20 11:09:41.821684,216196071,0,1.30615E-10,1.135488E-07,2.058166E-07,5.999816E-09,5.632604E-05,1.182078E-05,0.0005900341,2.819311E-05,3.101801E-05,0.0006335846,0,0
20108,2023-01-20 11:09:42.321703,216696073,0,1.299874E-10,1.125486E-07,2.049993E-07,5.997168E-09,5.613044E-05,1.171163E-05,0.0005879079,2.809117E-05,3.091617E-05,0.0006314467,0,0
20271,2023-01-20 11:09:42.821689,217196072,0,1.29282E-10,1.114804E-07,2.040021E-07,5.992898E-09,5.59846E-05,1.16043E-05,0.0005859155,2.80134E-05,3.080937E-05,0.0006293112,0,0
20434,2023-01-20 11:09:43.321714,217696085,0,1.287235E-10,1.106459E-07,2.032894E-07,5.990833E-09,5.586632E-05,1.149919E-05,0.0005830848,2.795483E-05,3.072535E-05,0.0006264467,0,0
20596,2023-01-20 11:09:43.821690,218196072,0,1.281689E-10,1.097434E-07,2.024106E-07,5.987327E-09,5.573113E-05,1.139591E-05,0.0005799016,2.78927E-05,3.063292E-05,0.0006231476,0,0
20759,2023-01-20 11:09:44.321712,218696080,0,1.276367E-10,1.090387E-07,2.017757E-07,5.985871E-09,5.563576E-05,1.129785E-05,0.0005773866,2.783905E-05,3.0574E-05,0.0006206953,0,0
20922,2023-01-20 11:09:44.821706,219196074,0,1.270349E-10,1.082904E-07,2.010237E-07,5.983285E-09,5.555892E-05,1.120287E-05,0.0005755475,2.780125E-05,3.052059E-05,0.0006187394,0,0
21086,2023-01-20 11:09:45.321710,219696075,0,1.263294E-10,1.076731E-07,2.00448E-07,5.982277E-09,5.550896E-05,1.111278E-05,0.0005747962,2.776989E-05,3.049079E-05,0.0006178225,0,0
21251,2023-01-20 11:09:45.801679,220196086,0,1.255555E-10,1.070774E-07,1.998876E-07,5.981263E-09,5.545495E-05,1.102516E-05,0.0005742433,2.773823E-05,3.046308E-05,0.0006170317,0,0
21414,2023-01-20 11:09:46.301643,220696071,0,1.24734E-10,1.063915E-07,1.991751E-07,5.97872E-09,5.537782E-05,1.093903E-05,0.0005736868,2.769866E-05,3.042359E-05,0.0006161339,0,0
21577,2023-01-20 11:09:46.801644,221196091,0,1.240557E-10,1.058301E-07,1.986486E-07,5.977893E-09,5.532917E-05,1.085271E-05,0.0005724037,2.767005E-05,3.038973E-05,0.0006147361,0,0
21740,2023-01-20 11:09:47.301546,221696074,0,1.234594E-10,1.051909E-07,1.980066E-07,5.975501E-09,5.526161E-05,1.076803E-05,0.000570813,2.762788E-05,3.035652E-05,0.0006131163,0,0
21952,2023-01-20 11:09:47.801519,222196110,0,1.228426E-10,1.046891E-07,1.975558E-07,5.975016E-09,5.521638E-05,1.068695E-05,0.0005698032,2.758986E-05,3.034008E-05,0.0006121794,0,0
22115,2023-01-20 11:09:48.301470,222696081,0,1.222477E-10,1.041407E-07,1.970373E-07,5.973564E-09,5.513294E-05,1.060843E-05,0.0005685178,2.752871E-05,3.032161E-05,0.0006110265,0,0
22278,2023-01-20 11:09:48.801494,223196102,0,1.21746E-10,1.03702E-07,1.966687E-07,5.973738E-09,5.495337E-05,1.05316E-05,0.0005656669,2.741638E-05,3.030046E-05,0.0006084303,0,0
22441,2023-01-20 11:09:49.301471,223696080,0,1.213038E-10,1.03207E-07,1.962118E-07,5.972512E-09,5.475055E-05,1.045428E-05,0.000561595,2.729993E-05,3.025944E-05,0.0006046012,0,0
22605,2023-01-20 11:09:49.801505,224196122,0,1.208934E-10,1.028097E-07,1.95869E-07,5.972791E-09,5.46088E-05,1.037737E-05,0.0005576078,2.721712E-05,3.022226E-05,0.0006008956,0,0
22769,2023-01-20 11:09:50.301452,224696072,0,1.203412E-10,1.023836E-07,1.954375E-07,5.971784E-09,5.45305E-05,1.030209E-05,0.0005545516,2.716448E-05,3.018277E-05,0.0005980568,0,0
22934,2023-01-20 11:09:50.801495,225196116,0,1.196494E-10,1.020343E-07,1.950837E-07,5.972184E-09,5.445096E-05,1.022501E-05,0.0005510122,2.714969E-05,3.01228E-05,0.0005943644,0,0
23097,2023-01-20 11:09:51.301435,225696073,0,1.189402E-10,1.016461E-07,1.946383E-07,5.971105E-09,5.43897E-05,1.015046E-05,0.0005482513,2.713665E-05,3.007827E-05,0.0005914454,0,0
23260,2023-01-20 11:09:51.801516,226196110,0,1.182254E-10,1.013307E-07,1.942963E-07,5.971495E-09,5.43733E-05,1.008106E-05,0.0005473259,2.711655E-05,3.006161E-05,0.0005905992,0,0
23423,2023-01-20 11:09:52.301447,226696072,0,1.174469E-10,1.00975E-07,1.938702E-07,5.970652E-09,5.433381E-05,1.001444E-05,0.0005470138,2.708178E-05,3.00478E-05,0.0005902967,0,0
23586,2023-01-20 11:09:52.801530,227196116,0,1.167332E-10,1.006826E-07,1.935383E-07,5.971268E-09,5.430913E-05,9.949048E-06,0.0005464357,2.705114E-05,3.003418E-05,0.000589855,0,0
23749,2023-01-20 11:09:53.301456,227696077,0,1.160656E-10,1.003569E-07,1.931334E-07,5.970889E-09,5.428929E-05,9.883908E-06,0.0005454068,2.70249E-05,3.001419E-05,0.000588968,0,0
23912,2023-01-20 11:09:53.801462,228196110,0,1.15422E-10,1.000826E-07,1.927981E-07,5.971762E-09,5.42751E-05,9.819913E-06,0.000544456,2.700063E-05,2.999689E-05,0.0005881822,0,0
24074,2023-01-20 11:09:54.301469,228696073,0,1.146923E-10,9.977919E-08,1.923931E-07,5.971515E-09,5.423663E-05,9.75757E-06,0.0005439597,2.696469E-05,2.997808E-05,0.0005877662,0,0
24237,2023-01-20 11:09:54.801530,229196121,0,1.140354E-10,9.952868E-08,1.920674E-07,5.97247E-09,5.415157E-05,9.696918E-06,0.0005430302,2.689617E-05,2.996471E-05,0.0005870007,0,0
24401,2023-01-20 11:09:55.301441,229696070,0,1.133811E-10,9.92561E-08,1.916964E-07,5.972402E-09,5.401008E-05,9.637008E-06,0.000541637,2.680019E-05,2.994323E-05,0.0005857013,0,0
24566,2023-01-20 11:09:55.801279,230196106,0,1.127396E-10,9.903581E-08,1.914064E-07,5.973558E-09,5.393443E-05,9.578055E-06,0.0005407972,2.673654E-05,2.99273E-05,0.0005850295,0,0
24729,2023-01-20 11:09:56.281905,230696069,0,1.120268E-10,9.879376E-08,1.910716E-07,5.973548E-09,5.387445E-05,9.519357E-06,0.0005403101,2.668799E-05,2.990252E-05,0.0005846306,0,0
24890,2023-01-20 11:09:56.781859,231196086,0,1.112444E-10,9.85863E-08,1.907904E-07,5.974488E-09,5.381124E-05,9.461247E-06,0.0005401182,2.664906E-05,2.987293E-05,0.0005843986,0,0
25055,2023-01-20 11:09:57.281689,231696072,0,1.103992E-10,9.835335E-08,1.904674E-07,5.974077E-09,5.37413E-05,9.403201E-06,0.0005399297,2.661716E-05,2.983086E-05,0.0005840767,0,0
25216,2023-01-20 11:09:57.781725,232196099,0,1.096694E-10,9.816134E-08,1.90203E-07,5.97493E-09,5.371256E-05,9.346149E-06,0.0005395454,2.660252E-05,2.979492E-05,0.0005836884,0,0
25381,2023-01-20 11:09:58.281722,232696083,0,1.09011E-10,9.794984E-08,1.899119E-07,5.974535E-09,5.366109E-05,9.29099E-06,0.0005392898,2.656087E-05,2.977398E-05,0.0005834773,0,0
25542,2023-01-20 11:09:58.781709,233196087,0,1.084974E-10,9.777423E-08,1.896768E-07,5.975399E-09,5.359463E-05,9.237392E-06,0.0005382174,2.649981E-05,2.976147E-05,0.0005826319,0,0
25707,2023-01-20 11:09:59.281677,233696077,0,1.081921E-10,9.758499E-08,1.894161E-07,5.975101E-09,5.353755E-05,9.184003E-06,0.00053595,2.643848E-05,2.975227E-05,0.0005806801,0,0
25869,2023-01-20 11:09:59.781658,234196067,0,1.079712E-10,9.743261E-08,1.892074E-07,5.9761E-09,5.336183E-05,9.13111E-06,0.0005316252,2.631782E-05,2.97425E-05,0.0005766448,0,0
26035,2023-01-20 11:10:00.281715,234696084,0,1.078855E-10,9.72647E-08,1.889635E-07,5.975638E-09,5.25592E-05,9.06859E-06,0.0005158377,2.594332E-05,2.966115E-05,0.0005603799,0,0
26198,2023-01-20 11:10:00.781703,235196069,0,1.081795E-10,9.713007E-08,1.887677E-07,5.976692E-09,5.167964E-05,9.000708E-06,0.0004988139,2.556206E-05,2.953655E-05,0.0005424775,0,0
26362,2023-01-20 11:10:01.281703,235696075,0,1.082543E-10,9.700153E-08,1.885428E-07,5.975516E-09,5.158975E-05,8.92166E-06,0.0004979717,2.548222E-05,2.936302E-05,0.0005416102,0,0
26522,2023-01-20 11:10:01.781703,236196103,0,1.079121E-10,9.689548E-08,1.883625E-07,5.975029E-09,5.14454E-05,8.826357E-06,0.0004968214,2.53518E-05,2.910004E-05,0.000540427,0,0
26686,2023-01-20 11:10:02.281682,236696075,0,1.043008E-10,9.666622E-08,1.881146E-07,5.9716E-09,4.545197E-05,8.548305E-06,0.0003890641,2.309563E-05,2.785287E-05,0.0004230471,0,0
26849,2023-01-20 11:10:02.781705,237196070,0,1.011497E-10,9.641656E-08,1.877515E-07,5.969592E-09,4.263782E-05,8.363024E-06,0.0003479673,2.224626E-05,2.697621E-05,0.0003775552,0,0
27012,2023-01-20 11:10:03.281701,237696076,0,9.532174E-11,9.585658E-08,1.865805E-07,5.962138E-09,3.977818E-05,8.12463E-06,0.0003341685,2.163455E-05,2.487976E-05,0.0003597765,0,0
27172,2023-01-20 11:10:03.781711,238196072,0,9.102634E-11,9.493431E-08,1.845588E-07,5.951264E-09,3.711741E-05,7.965306E-06,0.0003309002,2.064343E-05,2.232262E-05,0.0003544672,0,0
27336,2023-01-20 11:10:04.281678,238696072,0,8.743515E-11,9.35144E-08,1.812843E-07,5.927878E-09,3.424462E-05,7.838725E-06,0.0003244531,1.907919E-05,1.953423E-05,0.0003465688,0,0
27496,2023-01-20 11:10:04.781706,239196076,0,8.518375E-11,9.20886E-08,1.776439E-07,5.897797E-09,3.158189E-05,7.756724E-06,0.0003155107,1.748898E-05,1.7174E-05,0.0003364249,0,0
27661,2023-01-20 11:10:05.261938,239696076,0,8.372917E-11,9.019237E-08,1.719921E-07,5.84998E-09,2.935776E-05,7.682139E-06,0.0003090874,1.626815E-05,1.535251E-05,0.0003287871,0,0
27823,2023-01-20 11:10:05.765348,240196073,0,8.283235E-11,8.860166E-08,1.669578E-07,5.804496E-09,2.774713E-05,7.617126E-06,0.0003058957,1.537601E-05,1.403669E-05,0.000324849,0,0
27992,2023-01-20 11:10:06.274343,240696075,0,8.218441E-11,8.596957E-08,1.580884E-07,5.727239E-09,2.647294E-05,7.548828E-06,0.0003037489,1.464245E-05,1.299879E-05,0.0003222366,0,0
28151,2023-01-20 11:10:06.761743,241196086,0,8.172622E-11,8.381478E-08,1.510412E-07,5.658707E-09,2.523251E-05,7.47955E-06,0.0003019136,1.409225E-05,1.212341E-05,0.0003195305,0,0
28315,2023-01-20 11:10:07.261698,241696070,0,8.141546E-11,8.071375E-08,1.413802E-07,5.563401E-09,2.368859E-05,7.394343E-06,0.0002978208,1.377362E-05,1.133202E-05,0.000313325,0,0
28476,2023-01-20 11:10:07.761634,242196071,0,8.129274E-11,7.869424E-08,1.356915E-07,5.495509E-09,2.208149E-05,7.312752E-06,0.0002914477,1.359231E-05,1.064741E-05,0.000304226,0,0
28640,2023-01-20 11:10:08.261683,242696076,0,8.1276E-11,7.555371E-08,1.271844E-07,5.397655E-09,2.068964E-05,7.230241E-06,0.0002855189,1.343952E-05,1.006562E-05,0.0002959864,0,0
28800,2023-01-20 11:10:08.761641,243196072,0,8.129782E-11,7.339996E-08,1.217528E-07,5.323057E-09,1.939015E-05,7.155102E-06,0.0002792523,1.32813E-05,9.547907E-06,0.0002875569,0,0
28965,2023-01-20 11:10:09.261699,243696075,0,8.136729E-11,7.06647E-08,1.150426E-07,5.230916E-09,1.831636E-05,7.0798E-06,0.0002743336,1.310647E-05,9.107125E-06,0.0002810477,0,0
29178,2023-01-20 11:10:09.761671,244196068,0,8.149495E-11,6.900027E-08,1.111441E-07,5.165217E-09,1.745419E-05,7.014387E-06,0.0002709198,1.294062E-05,8.741407E-06,0.000276427,0,0
29343,2023-01-20 11:10:10.261680,244696074,0,8.166635E-11,6.703376E-08,1.065687E-07,5.088838E-09,1.676033E-05,6.948989E-06,0.0002686071,1.277067E-05,8.430246E-06,0.0002733202,0,0
29507,2023-01-20 11:10:10.761676,245196068,0,8.190137E-11,6.57743E-08,1.037083E-07,5.030809E-09,1.618416E-05,6.891294E-06,0.0002670328,1.261275E-05,8.161689E-06,0.0002711282,0,0
29672,2023-01-20 11:10:11.261713,245696080,0,8.214353E-11,6.402342E-08,9.971305E-08,4.955063E-09,1.571239E-05,6.830179E-06,0.0002660028,1.24499E-05,7.928945E-06,0.000269773,0,0
29834,2023-01-20 11:10:11.761696,246196076,0,8.242076E-11,6.294194E-08,9.730805E-08,4.898482E-09,1.532144E-05,6.777285E-06,0.0002653004,1.228353E-05,7.722417E-06,0.0002688529,0,0
29999,2023-01-20 11:10:12.261697,246696078,0,8.268381E-11,6.159122E-08,9.429134E-08,4.829733E-09,1.493607E-05,6.720017E-06,0.0002644888,1.213249E-05,7.535994E-06,0.0002678445,0,0
30160,2023-01-20 11:10:12.761674,247196067,0,8.29587E-11,6.080351E-08,9.258111E-08,4.779392E-09,1.455374E-05,6.66875E-06,0.000263549,1.200716E-05,7.368224E-06,0.0002665793,0,0
30325,2023-01-20 11:10:13.261709,247696087,0,8.318585E-11,5.98113E-08,9.042235E-08,4.718383E-09,1.41524E-05,6.612048E-06,0.0002621456,1.188509E-05,7.215853E-06,0.0002648249,0,0
30486,2023-01-20 11:10:13.761676,248196071,0,8.346138E-11,5.926184E-08,8.926393E-08,4.67447E-09,1.380654E-05,6.562688E-06,0.000261075,1.177672E-05,7.083235E-06,0.0002634186,0,0
30652,2023-01-20 11:10:14.261728,248696082,0,8.370743E-11,5.86025E-08,8.786694E-08,4.623135E-09,1.350747E-05,6.510342E-06,0.0002602879,1.166239E-05,6.96499E-06,0.0002624441,0,0
30813,2023-01-20 11:10:14.761707,249196080,0,8.398932E-11,5.8226E-08,8.709132E-08,4.584414E-09,1.32237E-05,6.464355E-06,0.0002594386,1.155862E-05,6.857549E-06,0.0002613552,0,0
30978,2023-01-20 11:10:15.261711,249696070,0,8.425489E-11,5.779585E-08,8.619543E-08,4.540377E-09,1.298077E-05,6.415981E-06,0.0002589166,1.145666E-05,6.761587E-06,0.00026071,0,0
31142,2023-01-20 11:10:15.747111,250196072,0,8.455915E-11,5.754814E-08,8.568897E-08,4.506405E-09,1.276002E-05,6.3742E-06,0.0002585184,1.137236E-05,6.676736E-06,0.0002601488,0,0
31308,2023-01-20 11:10:16.241863,250696072,0,8.48405E-11,5.726167E-08,8.510147E-08,4.467287E-09,1.257038E-05,6.331117E-06,0.0002582494,1.127914E-05,6.599562E-06,0.0002598252,0,0
31468,2023-01-20 11:10:16.741790,251196072,0,8.515357E-11,5.708371E-08,8.473751E-08,4.435686E-09,1.240879E-05,6.293291E-06,0.000258036,1.118718E-05,6.5289E-06,0.0002595798,0,0
31633,2023-01-20 11:10:17.241742,251696072,0,8.541613E-11,5.688803E-08,8.433454E-08,4.399449E-09,1.22328E-05,6.254031E-06,0.0002578068,1.110794E-05,6.461117E-06,0.0002592772,0,0
31794,2023-01-20 11:10:17.741701,252196086,0,8.571585E-11,5.676082E-08,8.406742E-08,4.370467E-09,1.204252E-05,6.218156E-06,0.0002574165,1.10498E-05,6.399993E-06,0.0002586939,0,0
31960,2023-01-20 11:10:18.241716,252696085,0,8.59978E-11,5.661916E-08,8.377739E-08,4.338141E-09,1.185407E-05,6.182845E-06,0.0002569905,1.099093E-05,6.341306E-06,0.000258082,0,0
32121,2023-01-20 11:10:18.741684,253196077,0,8.630976E-11,5.651545E-08,8.355737E-08,4.311486E-09,1.169665E-05,6.150391E-06,0.0002566961,1.093143E-05,6.288539E-06,0.0002576524,0,0
32286,2023-01-20 11:10:19.241710,253696075,0,8.659341E-11,5.639498E-08,8.330893E-08,4.281385E-09,1.154093E-05,6.11826E-06,0.0002563945,1.087264E-05,6.238117E-06,0.000257218,0,0
32448,2023-01-20 11:10:19.741691,254196078,0,8.689162E-11,5.630155E-08,8.310369E-08,4.256401E-09,1.139779E-05,6.08758E-06,0.0002561421,1.082327E-05,6.193457E-06,0.0002568242,0,0
32614,2023-01-20 11:10:20.241710,254696081,0,8.717128E-11,5.618926E-08,8.286288E-08,4.228003E-09,1.124871E-05,6.057039E-06,0.0002558484,1.078003E-05,6.149535E-06,0.0002563595,0,0
32778,2023-01-20 11:10:20.741679,255196068,0,8.74871E-11,5.610003E-08,8.265536E-08,4.204239E-09,1.112491E-05,6.027796E-06,0.0002557155,1.074056E-05,6.11033E-06,0.0002561012,0,0
32943,2023-01-20 11:10:21.241705,255696073,0,8.775732E-11,5.59867E-08,8.240569E-08,4.176532E-09,1.101593E-05,5.999251E-06,0.0002556248,1.069164E-05,6.07151E-06,0.0002559409,0,0
33104,2023-01-20 11:10:21.741685,256196077,0,8.803926E-11,5.590058E-08,8.219869E-08,4.154275E-09,1.092177E-05,5.971441E-06,0.0002555904,1.064887E-05,6.038917E-06,0.0002558501,0,0
33269,2023-01-20 11:10:22.241675,256696075,0,8.828591E-11,5.578625E-08,8.194036E-08,4.12787E-09,1.082288E-05,5.943582E-06,0.000255503,1.060572E-05,6.006077E-06,0.0002556883,0,0
33431,2023-01-20 11:10:22.741678,257196068,0,8.852086E-11,5.569174E-08,8.172436E-08,4.105734E-09,1.073621E-05,5.916345E-06,0.0002553458,1.055689E-05,5.978372E-06,0.0002554836,0,0
33596,2023-01-20 11:10:23.241719,257696081,0,8.872102E-11,5.557104E-08,8.145437E-08,4.079196E-09,1.066109E-05,5.889704E-06,0.0002552568,1.050567E-05,5.948425E-06,0.0002553893,0,0
33757,2023-01-20 11:10:23.741693,258196080,0,8.893204E-11,5.548081E-08,8.124413E-08,4.057908E-09,1.058166E-05,5.863352E-06,0.0002551443,1.046395E-05,5.923309E-06,0.000255229,0,0
33922,2023-01-20 11:10:24.241675,258696072,0,8.910892E-11,5.537168E-08,8.099483E-08,4.033279E-09,1.049504E-05,5.836701E-06,0.0002550154,1.042894E-05,5.897305E-06,0.0002550167,0,0
34084,2023-01-20 11:10:24.741659,259196072,0,8.930908E-11,5.529371E-08,8.080312E-08,4.013716E-09,1.041411E-05,5.810663E-06,0.0002549465,1.040204E-05,5.875251E-06,0.0002548623,0,0
34249,2023-01-20 11:10:25.237966,259696072,0,8.948449E-11,5.519372E-08,8.056094E-08,3.989557E-09,1.031691E-05,5.783409E-06,0.0002547587,1.038494E-05,5.850595E-06,0.0002545234,0,0
34413,2023-01-20 11:10:25.721756,260196077,0,8.966904E-11,5.512151E-08,8.037961E-08,3.970333E-09,1.021162E-05,5.756062E-06,0.0002543896,1.03716E-05,5.829847E-06,0.0002539565,0,0
34626,2023-01-20 11:10:26.221714,260696068,0,8.985958E-11,5.503394E-08,8.016438E-08,3.947649E-09,1.011763E-05,5.727516E-06,0.0002541394,1.035555E-05,5.806872E-06,0.000253551,0,0
34788,2023-01-20 11:10:26.721681,261196072,0,9.004394E-11,5.49708E-08,8.000394E-08,3.929446E-09,1.00381E-05,5.700649E-06,0.0002539968,1.033754E-05,5.787668E-06,0.0002532931,0,0
34953,2023-01-20 11:10:27.221729,261696073,0,9.021636E-11,5.489827E-08,7.982078E-08,3.908081E-09,9.963524E-06,5.672776E-06,0.0002539047,1.031968E-05,5.766116E-06,0.0002531068,0,0
35114,2023-01-20 11:10:27.721685,262196072,0,9.038956E-11,5.484554E-08,7.968427E-08,3.890902E-09,9.906092E-06,5.647297E-06,0.000253874,1.029586E-05,5.748135E-06,0.0002530349,0,0
35278,2023-01-20 11:10:28.221685,262696077,0,9.052402E-11,5.478328E-08,7.952604E-08,3.87005E-09,9.846079E-06,5.620918E-06,0.0002538348,1.02745E-05,5.728774E-06,0.000252944,0,0
35440,2023-01-20 11:10:28.721683,263196071,0,9.065419E-11,5.473819E-08,7.940839E-08,3.85345E-09,9.791834E-06,5.59654E-06,0.0002538067,1.025346E-05,5.712948E-06,0.0002528716,0,0
35605,2023-01-20 11:10:29.221731,263696083,0,9.075515E-11,5.468609E-08,7.927392E-08,3.833464E-09,9.732507E-06,5.571483E-06,0.0002537564,1.023636E-05,5.696079E-06,0.0002527561,0,0
35768,2023-01-20 11:10:29.721692,264196089,0,9.085258E-11,5.464818E-08,7.917389E-08,3.817787E-09,9.672904E-06,5.547799E-06,0.0002536773,1.022204E-05,5.68222E-06,0.0002525958,0,0
35932,2023-01-20 11:10:30.221668,264696072,0,9.092793E-11,5.460637E-08,7.906156E-08,3.799223E-09,9.613633E-06,5.523631E-06,0.0002536084,1.020975E-05,5.667113E-06,0.0002524508,0,0
36097,2023-01-20 11:10:30.721651,265196072,0,9.102176E-11,5.457515E-08,7.897448E-08,3.784342E-09,9.556774E-06,5.500741E-06,0.0002535386,1.019873E-05,5.653848E-06,0.0002523032,0,0
36262,2023-01-20 11:10:31.221703,265696075,0,9.108069E-11,5.453964E-08,7.887753E-08,3.766507E-09,9.506478E-06,5.477386E-06,0.000253504,1.01846E-05,5.639879E-06,0.0002522159,0,0
36424,2023-01-20 11:10:31.721685,266196080,0,9.114241E-11,5.451241E-08,7.880094E-08,3.75212E-09,9.462862E-06,5.455547E-06,0.0002534871,1.016935E-05,5.627241E-06,0.0002521647,0,0
36588,2023-01-20 11:10:32.221709,266696072,0,9.117253E-11,5.448308E-08,7.871814E-08,3.735052E-09,9.421104E-06,5.433579E-06,0.0002534712,1.01536E-05,5.613158E-06,0.0002521233,0,0
36750,2023-01-20 11:10:32.721658,267196073,0,9.119865E-11,5.445951E-08,7.865151E-08,3.721174E-09,9.376025E-06,5.412495E-06,0.0002534287,1.014123E-05,5.601332E-06,0.0002520276,0,0
36915,2023-01-20 11:10:33.221717,267696081,0,9.118856E-11,5.4433E-08,7.857645E-08,3.704285E-09,9.338705E-06,5.391418E-06,0.000253405,1.012432E-05,5.58952E-06,0.0002519828,0,0
37077,2023-01-20 11:10:33.710570,268196073,0,9.117789E-11,5.441025E-08,7.851374E-08,3.69056E-09,9.308109E-06,5.371558E-06,0.0002533742,1.01041E-05,5.57969E-06,0.0002519477,0,0
37241,2023-01-20 11:10:34.219756,268696075,0,9.110136E-11,5.438475E-08,7.84449E-08,3.673812E-09,9.27956E-06,5.351879E-06,0.0002533179,1.008192E-05,5.56943E-06,0.0002518938,0,0
37403,2023-01-20 11:10:34.712928,269196082,0,9.104138E-11,5.436286E-08,7.838642E-08,3.660034E-09,9.255315E-06,5.333024E-06,0.0002532438,1.005839E-05,5.559604E-06,0.0002518336,0,0
37568,2023-01-20 11:10:35.201586,269696100,0,9.096858E-11,5.434219E-08,7.832965E-08,3.646603E-09,9.227075E-06,5.314329E-06,0.0002532224,1.004052E-05,5.550724E-06,0.0002518044,0,0
37732,2023-01-20 11:10:35.701470,270196081,0,9.083729E-11,5.43189E-08,7.826799E-08,3.630242E-09,9.196524E-06,5.295612E-06,0.000253178,1.002402E-05,5.541381E-06,0.000251737,0,0
37897,2023-01-20 11:10:36.201507,270696111,0,9.074691E-11,5.4299E-08,7.821522E-08,3.617044E-09,9.164343E-06,5.277225E-06,0.0002531464,1.001114E-05,5.532773E-06,0.0002516699,0,0
38059,2023-01-20 11:10:36.701360,271196072,0,9.061476E-11,5.427634E-08,7.815839E-08,3.60113E-09,9.135107E-06,5.258785E-06,0.0002531044,9.996253E-06,5.523692E-06,0.0002516023,0,0
38223,2023-01-20 11:10:37.201483,271696111,0,9.051604E-11,5.425587E-08,7.811011E-08,3.58828E-09,9.109058E-06,5.240805E-06,0.0002530292,9.979841E-06,5.514969E-06,0.0002515059,0,0
38386,2023-01-20 11:10:37.701412,272196072,0,9.038666E-11,5.423375E-08,7.805973E-08,3.573275E-09,9.081717E-06,5.222843E-06,0.0002529687,9.965449E-06,5.505792E-06,0.0002514181,0,0
38549,2023-01-20 11:10:38.201488,272696123,0,9.027634E-11,5.421419E-08,7.801624E-08,3.561029E-09,9.050743E-06,5.205074E-06,0.0002528998,9.955075E-06,5.497336E-06,0.0002513014,0,0
38711,2023-01-20 11:10:38.701414,273196077,0,9.014183E-11,5.419286E-08,7.797087E-08,3.546371E-09,9.012137E-06,5.186899E-06,0.0002527748,9.949058E-06,5.488303E-06,0.0002510991,0,0
38874,2023-01-20 11:10:39.201476,273696109,0,9.003781E-11,5.417303E-08,7.793145E-08,3.534242E-09,8.973301E-06,5.168991E-06,0.0002525972,9.943152E-06,5.480541E-06,0.0002508327,0,0
39039,2023-01-20 11:10:39.701419,274196081,0,8.991249E-11,5.415037E-08,7.78881E-08,3.519307E-09,8.941764E-06,5.150686E-06,0.0002525421,9.935048E-06,5.472473E-06,0.0002507256,0,0
39202,2023-01-20 11:10:40.201482,274696116,0,8.980522E-11,5.413061E-08,7.785026E-08,3.507079E-09,8.911735E-06,5.133082E-06,0.0002525072,9.927785E-06,5.464213E-06,0.0002506461,0,0
39369,2023-01-20 11:10:40.701408,275196077,0,8.968602E-11,5.410768E-08,7.781097E-08,3.492058E-09,8.884003E-06,5.115193E-06,0.0002524758,9.919529E-06,5.45453E-06,0.0002505785,0,0
39533,2023-01-20 11:10:41.201497,275696114,0,8.957499E-11,5.408767E-08,7.77785E-08,3.480226E-09,8.856311E-06,5.098107E-06,0.0002524164,9.9123E-06,5.445002E-06,0.0002504746,0,0
39697,2023-01-20 11:10:41.701413,276196082,0,8.943755E-11,5.406431E-08,7.774496E-08,3.465447E-09,8.829713E-06,5.080784E-06,0.0002523363,9.903684E-06,5.435727E-06,0.0002503495,0,0
39860,2023-01-20 11:10:42.201508,276696113,0,8.931108E-11,5.404294E-08,7.771569E-08,3.453016E-09,8.803579E-06,5.064041E-06,0.0002522532,9.895798E-06,5.427351E-06,0.0002502179,0,0
40023,2023-01-20 11:10:42.701389,277196071,0,8.915259E-11,5.401925E-08,7.76854E-08,3.438181E-09,8.781341E-06,5.047305E-06,0.0002522174,9.886178E-06,5.418363E-06,0.0002501551,0,0
40235,2023-01-20 11:10:43.201498,277696124,0,8.900926E-11,5.399868E-08,7.765975E-08,3.426369E-09,8.754405E-06,5.031095E-06,0.0002521491,9.880426E-06,5.409951E-06,0.0002500369,0,0
40398,2023-01-20 11:10:43.681923,278196068,0,8.884397E-11,5.397571E-08,7.763377E-08,3.412429E-09,8.72867E-06,5.014764E-06,0.0002520936,9.874062E-06,5.401473E-06,0.0002499361,0,0
40560,2023-01-20 11:10:44.181918,278696103,0,8.869366E-11,5.395516E-08,7.761074E-08,3.40113E-09,8.707101E-06,4.999036E-06,0.0002520655,9.866255E-06,5.393435E-06,0.0002498778,0,0
40725,2023-01-20 11:10:44.681848,279196077,0,8.852102E-11,5.393313E-08,7.758733E-08,3.387654E-09,8.683725E-06,4.983392E-06,0.0002520368,9.859882E-06,5.384655E-06,0.0002498157,0,0
40888,2023-01-20 11:10:45.201362,279696115,0,8.83611E-11,5.391392E-08,7.756677E-08,3.37688E-09,8.659459E-06,4.968095E-06,0.0002519962,9.854637E-06,5.376378E-06,0.0002497367,0,0
41053,2023-01-20 11:10:45.681745,280196072,0,8.816332E-11,5.389325E-08,7.754355E-08,3.363519E-09,8.639272E-06,4.952953E-06,0.0002519586,9.844733E-06,5.367742E-06,0.0002496932,0,0
41216,2023-01-20 11:10:46.181739,280696103,0,8.798923E-11,5.387466E-08,7.752331E-08,3.353295E-09,8.626674E-06,4.938459E-06,0.0002519222,9.830622E-06,5.359307E-06,0.0002496711,0,0
41381,2023-01-20 11:10:46.681695,281196086,0,8.777692E-11,5.38552E-08,7.750314E-08,3.341109E-09,8.600658E-06,4.923744E-06,0.0002518306,9.826207E-06,5.351108E-06,0.00024953,0,0
41542,2023-01-20 11:10:47.181721,281696089,0,8.760612E-11,5.383809E-08,7.748491E-08,3.331444E-09,8.576754E-06,4.909209E-06,0.0002517671,9.821869E-06,5.343332E-06,0.0002494228,0,0
41707,2023-01-20 11:10:47.681678,282196072,0,8.741451E-11,5.382008E-08,7.746375E-08,3.319529E-09,8.556358E-06,4.894826E-06,0.0002517346,9.814647E-06,5.334884E-06,0.0002493733,0,0
41869,2023-01-20 11:10:48.181707,282696072,0,8.723241E-11,5.380388E-08,7.744413E-08,3.309653E-09,8.53954E-06,4.880773E-06,0.0002517062,9.805599E-06,5.326135E-06,0.0002493417,0,0
42034,2023-01-20 11:10:48.681654,283196072,0,8.702369E-11,5.378713E-08,7.742311E-08,3.297653E-09,8.512782E-06,4.86656E-06,0.0002516125,9.802236E-06,5.317528E-06,0.0002492043,0,0
42195,2023-01-20 11:10:49.181713,283696071,0,8.686112E-11,5.377224E-08,7.740486E-08,3.288246E-09,8.48714E-06,4.85252E-06,0.0002515145,9.79933E-06,5.309492E-06,0.0002490573,0,0
42361,2023-01-20 11:10:49.681685,284196083,0,8.667804E-11,5.375559E-08,7.738435E-08,3.276498E-09,8.465402E-06,4.838504E-06,0.0002514599,9.795596E-06,5.301106E-06,0.0002489635,0,0
42521,2023-01-20 11:10:50.181717,284696071,0,8.651615E-11,5.37414E-08,7.736687E-08,3.267427E-09,8.441041E-06,4.824716E-06,0.0002513627,9.793375E-06,5.293029E-06,0.0002488143,0,0
42689,2023-01-20 11:10:50.681659,285196072,0,8.633082E-11,5.372574E-08,7.734602E-08,3.255838E-09,8.425E-06,4.811144E-06,0.0002513473,9.786469E-06,5.284832E-06,0.0002487846,0,0
42851,2023-01-20 11:10:51.181670,285696071,0,8.615407E-11,5.371178E-08,7.732766E-08,3.246454E-09,8.409391E-06,4.797866E-06,0.0002513356,9.780369E-06,5.276833E-06,0.000248755,0,0
43016,2023-01-20 11:10:51.681703,286196095,0,8.594919E-11,5.369732E-08,7.730754E-08,3.23537E-09,8.39423E-06,4.784753E-06,0.0002513269,9.773275E-06,5.268801E-06,0.000248735,0,0
43177,2023-01-20 11:10:52.181712,286696070,0,8.576347E-11,5.368454E-08,7.72898E-08,3.226627E-09,8.381448E-06,4.771935E-06,0.0002513195,9.764847E-06,5.260987E-06,0.0002487232,0,0
43343,2023-01-20 11:10:52.674346,287196071,0,8.551918E-11,5.367062E-08,7.726952E-08,3.215383E-09,8.370022E-06,4.759289E-06,0.000251303,9.754462E-06,5.252733E-06,0.0002487126,0,0
43504,2023-01-20 11:10:53.181699,287696100,0,8.529956E-11,5.365826E-08,7.725212E-08,3.20657E-09,8.360146E-06,4.746842E-06,0.0002512854,9.744267E-06,5.24449E-06,0.0002486989,0,0
43669,2023-01-20 11:10:53.681680,288196077,0,8.501888E-11,5.364553E-08,7.723258E-08,3.195363E-09,8.34586E-06,4.73442E-06,0.0002512778,9.73679E-06,5.235634E-06,0.0002486835,0,0
43830,2023-01-20 11:10:54.161811,288696072,0,8.47932E-11,5.36346E-08,7.721608E-08,3.18677E-09,8.329141E-06,4.722046E-06,0.0002512563,9.732057E-06,5.227408E-06,0.0002486384,0,0
43996,2023-01-20 11:10:54.661632,289196068,0,8.454581E-11,5.362289E-08,7.719808E-08,3.176545E-09,8.314917E-06,4.709884E-06,0.0002512459,9.72541E-06,5.219089E-06,0.0002486155,0,0
44157,2023-01-20 11:10:55.161714,289696075,0,8.43307E-11,5.361242E-08,7.718206E-08,3.168587E-09,8.304926E-06,4.697908E-06,0.0002512307,9.715839E-06,5.210983E-06,0.0002486038,0,0
44324,2023-01-20 11:10:55.661754,290196083,0,8.405559E-11,5.360121E-08,7.71639E-08,3.158479E-09,8.295455E-06,4.686044E-06,0.000251202,9.704499E-06,5.202049E-06,0.0002485872,0,0
44486,2023-01-20 11:10:56.161687,290696072,0,8.381957E-11,5.359136E-08,7.71479E-08,3.150396E-09,8.286301E-06,4.674281E-06,0.0002511829,9.694145E-06,5.193426E-06,0.0002485763,0,0
44651,2023-01-20 11:10:56.661639,291196079,0,8.352258E-11,5.358081E-08,7.713043E-08,3.140209E-09,8.274326E-06,4.662484E-06,0.0002511757,9.686468E-06,5.184281E-06,0.000248563,0,0
44813,2023-01-20 11:10:57.161652,291696072,0,8.329205E-11,5.357182E-08,7.711593E-08,3.132449E-09,8.259258E-06,4.650771E-06,0.0002511486,9.682174E-06,5.175938E-06,0.0002485102,0,0
44978,2023-01-20 11:10:57.661653,292196069,0,8.303453E-11,5.356218E-08,7.709969E-08,3.122555E-09,8.241939E-06,4.639127E-06,0.0002510955,9.678714E-06,5.167717E-06,0.0002484216,0,0
45139,2023-01-20 11:10:58.161720,292696101,0,8.282348E-11,5.355416E-08,7.708503E-08,3.11483E-09,8.225757E-06,4.627619E-06,0.0002510608,9.674283E-06,5.160041E-06,0.0002483614,0,0
45304,2023-01-20 11:10:58.661662,293196071,0,8.258415E-11,5.354599E-08,7.706805E-08,3.105098E-09,8.208393E-06,4.616204E-06,0.00025101,9.668917E-06,5.151984E-06,0.0002482898,0,0
45466,2023-01-20 11:10:59.161662,293696072,0,8.239452E-11,5.353907E-08,7.705314E-08,3.098027E-09,8.19666E-06,4.605082E-06,0.0002509597,9.658978E-06,5.144253E-06,0.0002482444,0,0
45681,2023-01-20 11:10:59.661648,294196082,0,8.215785E-11,5.353106E-08,7.703583E-08,3.088568E-09,8.187091E-06,4.594079E-06,0.000250918,9.647693E-06,5.136431E-06,0.0002482146,0,0
45842,2023-01-20 11:11:00.161687,294696068,0,8.195879E-11,5.352436E-08,7.702142E-08,3.081579E-09,8.176055E-06,4.583128E-06,0.0002508927,9.639229E-06,5.128898E-06,0.0002481891,0,0
46009,2023-01-20 11:11:00.661651,295196072,0,8.175176E-11,5.35174E-08,7.700555E-08,3.072764E-09,8.160505E-06,4.572197E-06,0.0002508586,9.634839E-06,5.12116E-06,0.000248133,0,0
46171,2023-01-20 11:11:01.161687,295696068,0,8.157712E-11,5.351133E-08,7.699163E-08,3.066095E-09,8.147809E-06,4.561369E-06,0.0002508436,9.629735E-06,5.114002E-06,0.0002481021,0,0
46337,2023-01-20 11:11:01.661646,296196072,0,8.138325E-11,5.350491E-08,7.697562E-08,3.057568E-09,8.133592E-06,4.550598E-06,0.0002508136,9.62486E-06,5.106649E-06,0.0002480539,0,0
46497,2023-01-20 11:11:02.161657,296696068,0,8.124031E-11,5.34999E-08,7.696242E-08,3.051472E-09,8.11773E-06,4.539904E-06,0.0002507614,9.621253E-06,5.099402E-06,0.000247976,0,0
46662,2023-01-20 11:11:02.661657,297196072,0,8.106519E-11,5.349407E-08,7.694685E-08,3.043528E-09,8.106779E-06,4.52935E-06,0.0002507483,9.61492E-06,5.0924E-06,0.000247956,0,0
46823,2023-01-20 11:11:03.141915,297696077,0,8.091164E-11,5.348875E-08,7.693294E-08,3.037032E-09,8.098428E-06,4.518949E-06,0.0002507395,9.607511E-06,5.085486E-06,0.0002479477,0,0
46989,2023-01-20 11:11:03.641835,298196071,0,8.073035E-11,5.348258E-08,7.691727E-08,3.028339E-09,8.089233E-06,4.508631E-06,0.0002507356,9.601158E-06,5.078693E-06,0.000247938,0,0
47150,2023-01-20 11:11:04.141788,298696075,0,8.05751E-11,5.347691E-08,7.690384E-08,3.021876E-09,8.084213E-06,4.498459E-06,0.0002507047,9.591107E-06,5.072247E-06,0.0002479177,0,0
47315,2023-01-20 11:11:04.641681,299196080,0,8.037808E-11,5.346999E-08,7.688845E-08,3.013552E-09,8.082802E-06,4.488458E-06,0.0002505723,9.574875E-06,5.065329E-06,0.0002478161,0,0
47476,2023-01-20 11:11:05.141716,299696089,0,8.021965E-11,5.346429E-08,7.687613E-08,3.007499E-09,8.079416E-06,4.478516E-06,0.0002505265,9.564467E-06,5.058349E-06,0.0002477833,0,0
47644,2023-01-20 11:11:05.641675,300196074,0,8.001279E-11,5.345755E-08,7.686275E-08,2.999519E-09,8.075186E-06,4.468597E-06,0.0002504865,9.554942E-06,5.051057E-06,0.0002477515,0,0
47805,2023-01-20 11:11:06.141744,300696072,0,7.986376E-11,5.345201E-08,7.685254E-08,2.993911E-09,8.067878E-06,4.458717E-06,0.0002504669,9.549944E-06,5.044281E-06,0.0002477203,0,0
47971,2023-01-20 11:11:06.641671,301196067,0,7.96871E-11,5.344526E-08,7.684133E-08,2.986268E-09,8.059164E-06,4.448872E-06,0.000250438,9.545831E-06,5.037587E-06,0.0002476729,0,0
48132,2023-01-20 11:11:07.141698,301696074,0,7.955121E-11,5.343938E-08,7.683165E-08,2.98036E-09,8.049572E-06,4.439021E-06,0.0002504063,9.542278E-06,5.031668E-06,0.000247619,0,0
48298,2023-01-20 11:11:07.641676,302196080,0,7.93771E-11,5.3433E-08,7.681908E-08,2.972625E-09,8.043533E-06,4.429307E-06,0.0002503493,9.531814E-06,5.025026E-06,0.000247575,0,0
48459,2023-01-20 11:11:08.141710,302696081,0,7.92402E-11,5.342804E-08,7.680822E-08,2.966995E-09,8.036888E-06,4.41975E-06,0.0002502828,9.521944E-06,5.018084E-06,0.0002475216,0,0
48624,2023-01-20 11:11:08.641670,303196068,0,7.906992E-11,5.342241E-08,7.679633E-08,2.959345E-09,8.025418E-06,4.410166E-06,0.0002502419,9.516441E-06,5.011504E-06,0.0002474709,0,0
48785,2023-01-20 11:11:09.141701,303696079,0,7.895069E-11,5.341798E-08,7.678656E-08,2.953705E-09,8.014105E-06,4.400706E-06,0.0002501958,9.511016E-06,5.00512E-06,0.0002474159,0,0
48951,2023-01-20 11:11:09.641675,304196079,0,7.881717E-11,5.341244E-08,7.677663E-08,2.946242E-09,7.999688E-06,4.391204E-06,0.0002501265,9.509453E-06,4.998662E-06,0.0002473154,0,0
49113,2023-01-20 11:11:10.141693,304696074,0,7.872642E-11,5.340754E-08,7.676887E-08,2.940767E-09,7.989037E-06,4.381816E-06,0.0002500809,9.507864E-06,4.992529E-06,0.0002472432,0,0
49280,2023-01-20 11:11:10.641671,305196072,0,7.861777E-11,5.34023E-08,7.676024E-08,2.933553E-09,7.97525E-06,4.372435E-06,0.0002500042,9.506814E-06,4.986629E-06,0.0002471317,0,0
49441,2023-01-20 11:11:11.141695,305696086,0,7.853294E-11,5.339783E-08,7.675314E-08,2.928261E-09,7.965895E-06,4.363165E-06,0.0002499848,9.504273E-06,4.98126E-06,0.0002470927,0,0
49609,2023-01-20 11:11:11.641688,306196072,0,7.842359E-11,5.339274E-08,7.674525E-08,2.921275E-09,7.956665E-06,4.353931E-06,0.0002499696,9.501278E-06,4.975917E-06,0.0002470611,0,0
49771,2023-01-20 11:11:12.121915,306696068,0,7.83474E-11,5.338912E-08,7.673881E-08,2.916121E-09,7.945707E-06,4.344791E-06,0.0002499329,9.497859E-06,4.970635E-06,0.0002470081,0,0
49935,2023-01-20 11:11:12.621879,307196085,0,7.82431E-11,5.33846E-08,7.673211E-08,2.909164E-09,7.934113E-06,4.335649E-06,0.000249894,9.495309E-06,4.965543E-06,0.0002469481,0,0
50096,2023-01-20 11:11:13.121826,307696099,0,7.817559E-11,5.33814E-08,7.672702E-08,2.904197E-09,7.920314E-06,4.326531E-06,0.0002498158,9.493273E-06,4.960691E-06,0.000246841,0,0
50261,2023-01-20 11:11:13.624160,308196072,0,7.810277E-11,5.337738E-08,7.672119E-08,2.897845E-09,7.911997E-06,4.317528E-06,0.0002497874,9.488493E-06,4.955474E-06,0.0002468078,0,0
50423,2023-01-20 11:11:14.121805,308696094,0,7.803967E-11,5.337366E-08,7.671623E-08,2.892949E-09,7.908784E-06,4.308749E-06,0.0002497577,9.481013E-06,4.950452E-06,0.0002467878,0,0
50588,2023-01-20 11:11:14.621690,309196081,0,7.793454E-11,5.336924E-08,7.671026E-08,2.886197E-09,7.906082E-06,4.300075E-06,0.0002497068,9.472347E-06,4.945023E-06,0.0002467525,0,0
50749,2023-01-20 11:11:15.121692,309696078,0,7.786323E-11,5.336613E-08,7.670528E-08,2.881537E-09,7.902485E-06,4.291491E-06,0.0002496512,9.463957E-06,4.939658E-06,0.0002467112,0,0
50916,2023-01-20 11:11:15.621639,310196071,0,7.775518E-11,5.336254E-08,7.669982E-08,2.875059E-09,7.894851E-06,4.282866E-06,0.0002496379,9.460401E-06,4.934286E-06,0.0002466921,0,0
51127,2023-01-20 11:11:16.121737,310696118,0,7.767904E-11,5.335972E-08,7.669515E-08,2.870346E-09,7.888355E-06,4.274309E-06,0.0002496225,9.455417E-06,4.929951E-06,0.0002466741,0,0
51293,2023-01-20 11:11:16.621641,311196068,0,7.758569E-11,5.335616E-08,7.66893E-08,2.863814E-09,7.879808E-06,4.265776E-06,0.0002495977,9.451054E-06,4.926004E-06,0.0002466402,0,0
51454,2023-01-20 11:11:17.121705,311696105,0,7.752485E-11,5.335289E-08,7.668481E-08,2.858757E-09,7.872907E-06,4.257291E-06,0.0002495884,9.447485E-06,4.922179E-06,0.0002466209,0,0
51619,2023-01-20 11:11:17.621659,312196075,0,7.74355E-11,5.334853E-08,7.667894E-08,2.851526E-09,7.868172E-06,4.24889E-06,0.0002495775,9.44253E-06,4.917727E-06,0.0002466117,0,0
51780,2023-01-20 11:11:18.121711,312696093,0,7.737935E-11,5.334537E-08,7.667429E-08,2.846534E-09,7.865181E-06,4.240625E-06,0.0002495566,9.436758E-06,4.913073E-06,0.0002465972,0,0
51946,2023-01-20 11:11:18.621649,313196068,0,7.726836E-11,5.334252E-08,7.666687E-08,2.839645E-09,7.857707E-06,4.232322E-06,0.0002494576,9.428525E-06,4.908401E-06,0.0002465058,0,0
52107,2023-01-20 11:11:19.121724,313696112,0,7.719853E-11,5.334116E-08,7.666105E-08,2.835163E-09,7.846472E-06,4.22403E-06,0.0002493324,9.421849E-06,4.904362E-06,0.000246375,0,0
52273,2023-01-20 11:11:19.621631,314196081,0,7.711225E-11,5.33393E-08,7.665268E-08,2.828678E-09,7.837589E-06,4.215874E-06,0.0002492138,9.413552E-06,4.900097E-06,0.0002462614,0,0
52434,2023-01-20 11:11:20.121700,314696100,0,7.704403E-11,5.333814E-08,7.664549E-08,2.82419E-09,7.832403E-06,4.207815E-06,0.0002491212,9.404986E-06,4.895523E-06,0.0002461813,0,0
52602,2023-01-20 11:11:20.621675,315196072,0,7.695471E-11,5.33373E-08,7.663557E-08,2.818096E-09,7.823877E-06,4.199771E-06,0.0002490125,9.397819E-06,4.890434E-06,0.0002460773,0,0
52763,2023-01-20 11:11:21.121709,315696084,0,7.689939E-11,5.333759E-08,7.66272E-08,2.814028E-09,7.813835E-06,4.191739E-06,0.0002489082,9.391934E-06,4.88589E-06,0.0002459697,0,0
52929,2023-01-20 11:11:21.621624,316196072,0,7.682149E-11,5.333769E-08,7.6616E-08,2.808337E-09,7.804932E-06,4.183771E-06,0.0002488514,9.387177E-06,4.881696E-06,0.0002459084,0,0
53090,2023-01-20 11:11:22.110555,316696081,0,7.678179E-11,5.333854E-08,7.660686E-08,2.804711E-09,7.796099E-06,4.175869E-06,0.0002488018,9.383738E-06,4.87726E-06,0.0002458511,0,0
53256,2023-01-20 11:11:22.601539,317196099,0,7.674486E-11,5.333988E-08,7.659627E-08,2.800937E-09,7.786194E-06,4.167995E-06,0.0002487251,9.379871E-06,4.872843E-06,0.0002457654,0,0
53417,2023-01-20 11:11:23.101434,317696079,0,7.667972E-11,5.33416E-08,7.658194E-08,2.795506E-09,7.773241E-06,4.160102E-06,0.0002485914,9.37507E-06,4.868847E-06,0.0002456177,0,0
53582,2023-01-20 11:11:23.601405,318196110,0,7.666038E-11,5.334374E-08,7.657064E-08,2.792171E-09,7.763002E-06,4.152297E-06,0.0002485179,9.371608E-06,4.865289E-06,0.0002455313,0,0
53743,2023-01-20 11:11:24.101532,318696096,0,7.661442E-11,5.334575E-08,7.655608E-08,2.787127E-09,7.753833E-06,4.144521E-06,0.0002484779,9.369245E-06,4.86143E-06,0.0002454788,0,0
53908,2023-01-20 11:11:24.601462,319196117,0,7.659308E-11,5.334861E-08,7.654309E-08,2.78369E-09,7.742528E-06,4.136743E-06,0.000248364,9.364996E-06,4.857834E-06,0.0002453515,0,0
54070,2023-01-20 11:11:25.101439,319696080,0,7.655599E-11,5.335229E-08,7.652677E-08,2.778897E-09,7.723019E-06,4.128887E-06,0.000248068,9.359057E-06,4.854412E-06,0.0002450243,0,0
54237,2023-01-20 11:11:25.601367,320196100,0,7.654925E-11,5.335578E-08,7.651229E-08,2.775622E-09,7.712664E-06,4.121159E-06,0.0002479179,9.352592E-06,4.851224E-06,0.0002448676,0,0
54397,2023-01-20 11:11:26.101437,320696084,0,7.650268E-11,5.335845E-08,7.649505E-08,2.770579E-09,7.709004E-06,4.113625E-06,0.0002478803,9.348171E-06,4.847202E-06,0.0002448341,0,0
54562,2023-01-20 11:11:26.601438,321196108,0,7.648226E-11,5.3362E-08,7.648074E-08,2.767374E-09,7.700948E-06,4.106088E-06,0.000247838,9.346074E-06,4.843414E-06,0.0002447792,0,0
54725,2023-01-20 11:11:27.101450,321696076,0,7.642516E-11,5.336559E-08,7.646347E-08,2.762438E-09,7.690939E-06,4.09856E-06,0.000247768,9.344634E-06,4.839251E-06,0.0002446909,0,0
54890,2023-01-20 11:11:27.601462,322196116,0,7.640071E-11,5.336883E-08,7.644874E-08,2.759211E-09,7.68778E-06,4.091177E-06,0.0002477501,9.341801E-06,4.834759E-06,0.0002446742,0,0
55051,2023-01-20 11:11:28.101449,322696091,0,7.634631E-11,5.337209E-08,7.643314E-08,2.754591E-09,7.67807E-06,4.083741E-06,0.0002476229,9.340398E-06,4.831271E-06,0.0002445201,0,0
55216,2023-01-20 11:11:28.601430,323196110,0,7.633093E-11,5.337463E-08,7.642137E-08,2.751927E-09,7.675613E-06,4.076386E-06,0.0002474708,9.334448E-06,4.828853E-06,0.0002443622,0,0
55378,2023-01-20 11:11:29.101440,323696075,0,7.625703E-11,5.337716E-08,7.640769E-08,2.747349E-09,7.675896E-06,4.069026E-06,0.0002473805,9.32716E-06,4.826237E-06,0.0002442819,0,0
55544,2023-01-20 11:11:29.601393,324196118,0,7.622287E-11,5.338021E-08,7.639665E-08,2.744502E-09,7.67652E-06,4.061757E-06,0.0002473137,9.319874E-06,4.823466E-06,0.0002442294,0,0
55705,2023-01-20 11:11:30.101459,324696080,0,7.613861E-11,5.33833E-08,7.638487E-08,2.740184E-09,7.674656E-06,4.054458E-06,0.0002472894,9.314928E-06,4.820061E-06,0.000244213,0,0
55872,2023-01-20 11:11:30.601474,325196122,0,7.610297E-11,5.338637E-08,7.637583E-08,2.737487E-09,7.673112E-06,4.047263E-06,0.0002472722,9.310924E-06,4.817161E-06,0.0002441992,0,0
56033,2023-01-20 11:11:31.081909,325696084,0,7.603573E-11,5.338905E-08,7.636619E-08,2.733481E-09,7.671497E-06,4.040102E-06,0.0002472604,9.30636E-06,4.814576E-06,0.0002441914,0,0
56197,2023-01-20 11:11:31.581777,326196113,0,7.599463E-11,5.339212E-08,7.635774E-08,2.730519E-09,7.66776E-06,4.032943E-06,0.0002472385,9.302191E-06,4.812222E-06,0.0002441689,0,0
56361,2023-01-20 11:11:32.092355,326696080,0,7.590498E-11,5.339514E-08,7.634655E-08,2.725652E-09,7.661115E-06,4.025743E-06,0.0002470737,9.292668E-06,4.809601E-06,0.0002440108,0,0
56524,2023-01-20 11:11:32.581740,327196096,0,7.587452E-11,5.339844E-08,7.633586E-08,2.722443E-09,7.655221E-06,4.018705E-06,0.0002467865,9.277798E-06,4.807358E-06,0.0002437426,0,0
56736,2023-01-20 11:11:33.081716,327696073,0,7.580189E-11,5.340002E-08,7.632281E-08,2.717416E-09,7.652588E-06,4.011726E-06,0.0002465993,9.263819E-06,4.80509E-06,0.0002435804,0,0
56900,2023-01-20 11:11:33.581678,328196090,0,7.576662E-11,5.340099E-08,7.631282E-08,2.714331E-09,7.655128E-06,4.004871E-06,0.0002463826,9.248137E-06,4.803003E-06,0.0002433978,0,0
57063,2023-01-20 11:11:34.081705,328696089,0,7.567662E-11,5.34004E-08,7.630113E-08,2.709276E-09,7.655384E-06,3.997918E-06,0.0002462984,9.239255E-06,4.800209E-06,0.0002433288,0,0
57226,2023-01-20 11:11:34.581676,329196087,0,7.564526E-11,5.340129E-08,7.62927E-08,2.706383E-09,7.648135E-06,3.990971E-06,0.0002462478,9.238051E-06,4.798271E-06,0.0002432572,0,0
57389,2023-01-20 11:11:35.081711,329696074,0,7.560842E-11,5.340117E-08,7.628201E-08,2.702035E-09,7.63911E-06,3.984061E-06,0.0002461771,9.236693E-06,4.796433E-06,0.0002431635,0,0
57555,2023-01-20 11:11:35.581674,330196085,0,7.561209E-11,5.340202E-08,7.627352E-08,2.69931E-09,7.635319E-06,3.977279E-06,0.0002461648,9.233533E-06,4.794921E-06,0.0002431467,0,0
57718,2023-01-20 11:11:36.081717,330696082,0,7.558906E-11,5.340151E-08,7.626242E-08,2.695047E-09,7.633916E-06,3.970546E-06,0.0002461098,9.226499E-06,4.793367E-06,0.000243102,0,0
57881,2023-01-20 11:11:36.581660,331196071,0,7.559389E-11,5.34029E-08,7.62541E-08,2.692681E-09,7.632428E-06,3.963886E-06,0.0002459623,9.217054E-06,4.791418E-06,0.0002429704,0,0
58045,2023-01-20 11:11:37.081709,331696075,0,7.556224E-11,5.340435E-08,7.62434E-08,2.68891E-09,7.628357E-06,3.957222E-06,0.0002457195,9.205471E-06,4.789036E-06,0.0002427426,0,0
58208,2023-01-20 11:11:37.581670,332196088,0,7.55522E-11,5.34066E-08,7.623523E-08,2.686598E-09,7.6279E-06,3.95066E-06,0.0002455626,9.195282E-06,4.786946E-06,0.0002426055,0,0
58371,2023-01-20 11:11:38.081707,332696077,0,7.550589E-11,5.340917E-08,7.622481E-08,2.682922E-09,7.624215E-06,3.944051E-06,0.000245453,9.188144E-06,4.784572E-06,0.0002425035,0,0
58534,2023-01-20 11:11:38.581644,333196080,0,7.550421E-11,5.341278E-08,7.621598E-08,2.680742E-09,7.615E-06,3.937454E-06,0.000245338,9.184241E-06,4.783107E-06,0.0002423729,0,0
58697,2023-01-20 11:11:39.081714,333696088,0,7.548499E-11,5.341549E-08,7.620444E-08,2.677134E-09,7.610694E-06,3.930994E-06,0.0002453038,9.180659E-06,4.781646E-06,0.000242334,0,0
58861,2023-01-20 11:11:39.581647,334196068,0,7.549926E-11,5.341845E-08,7.6195E-08,2.67492E-09,7.610229E-06,3.924665E-06,0.0002452817,9.176137E-06,4.780088E-06,0.000242318,0,0
59025,2023-01-20 11:11:40.081680,334696075,0,7.548543E-11,5.342151E-08,7.618315E-08,2.671295E-09,7.605072E-06,3.918265E-06,0.0002452652,9.174825E-06,4.77859E-06,0.0002422888,0,0
