LineNo,UTC_Approx,TimeUS,C,YC,YCS,Y0,Y1,Y2,Y3,Y4,W0,W1,W2,W3,W4
676,2023-01-20 11:08:47.421095,161675791,0,128.4099,14.41587,216,287.9999,359.9999,71.99995,143.9999,0.2,0.2,0.2,0.2,0.2
1029,2023-01-20 11:08:47.516079,161775775,0,204.2233,14.35259,216.0007,288.0007,0.0006794992,72.00068,144.0007,0.2,0.2,0.2,0.2,0.2
1145,2023-01-20 11:08:47.630187,161892750,0,137.101,14.29482,215.9931,287.9979,0.009203265,72.0114,144.0015,0.2000165,0.1999253,0.1999374,0.200036,0.2000849
1408,2023-01-20 11:08:47.738571,161995567,0,137.1127,14.29475,215.9942,287.999,0.01027014,72.01247,144.0025,0.2000165,0.1999253,0.1999374,0.200036,0.2000849
1827,2023-01-20 11:08:47.842134,162096077,0,38.06747,14.95336,216.0011,288.0107,0.007544027,71.99604,143.9921,0.1999135,0.1999703,0.2000682,0.2000718,0.1999762
1872,2023-01-20 11:08:47.941896,162196081,0,38.07002,14.95332,216.0022,288.0117,0.008558824,71.99706,143.9931,0.1999135,0.1999703,0.2000682,0.2000718,0.1999762
1919,2023-01-20 11:08:48.041756,162296080,0,200.6004,14.40912,215.9992,287.9889,359.998,72.01384,144.0146,0.2001193,0.2000056,0.1998842,0.1999228,0.2000681
1965,2023-01-20 11:08:48.141750,162396070,0,200.5983,14.40918,215.9993,287.9891,359.9981,72.01398,144.0148,0.2001193,0.2000056,0.1998842,0.1999228,0.2000681
2018,2023-01-20 11:08:48.241764,162496067,0,196.0719,14.50243,215.9933,287.9753,359.9951,72.02541,144.0243,0.200228,0.1999918,0.199767,0.1998641,0.200149
2059,2023-01-20 11:08:48.341793,162596063,0,196.0726,14.50244,215.9935,287.9755,359.9953,72.02561,144.0245,0.200228,0.1999918,0.199767,0.1998641,0.200149
2115,2023-01-20 11:08:48.438031,162696062,0,302.2009,14.38795,216.0163,288.007,359.9933,71.99429,144.0085,0.2000073,0.200107,0.2000588,0.1999293,0.1998975
2176,2023-01-20 11:08:48.528998,162796071,0,302.1969,14.38792,216.0152,288.0058,359.9922,71.99318,144.0074,0.2000073,0.200107,0.2000588,0.1999293,0.1998975
2236,2023-01-20 11:08:48.621935,162896062,0,294.7848,14.29,216.0283,288.0054,359.9781,71.98422,144.0152,0.2000456,0.200233,0.2000984,0.1998278,0.1997952
2290,2023-01-20 11:08:48.721952,162996059,0,294.7856,14.29002,216.0297,288.0068,359.9796,71.98563,144.0166,0.2000456,0.200233,0.2000984,0.1998278,0.1997952
2345,2023-01-20 11:08:48.821971,163096063,0,311.5218,14.58617,216.0709,288.0308,359.9535,71.94585,144.0185,0.1999424,0.200546,0.2003945,0.1996979,0.1994191
2399,2023-01-20 11:08:48.921974,163196065,0,311.5209,14.58617,216.0709,288.0307,359.9535,71.94583,144.0184,0.1999424,0.200546,0.2003945,0.1996979,0.1994191
2441,2023-01-20 11:08:49.021967,163296061,0,313.0319,14.63387,216.0564,288.0274,359.9687,71.96138,144.0156,0.1999447,0.2004078,0.2003071,0.199782,0.1995585
2485,2023-01-20 11:08:49.121952,163396062,0,313.0316,14.63391,216.0556,288.0266,359.9679,71.96056,144.0148,0.1999447,0.2004078,0.2003071,0.199782,0.1995585
2527,2023-01-20 11:08:49.224360,163496062,0,287.3857,14.25932,216.0431,288.006,359.9695,71.98407,144.0295,0.200109,0.2003419,0.2001021,0.1997214,0.1997257
2567,2023-01-20 11:08:49.335395,163596061,0,287.387,14.25935,216.0446,288.0076,359.9711,71.9856,144.0311,0.200109,0.2003419,0.2001021,0.1997214,0.1997257
2608,2023-01-20 11:08:49.441806,163696078,0,285.0773,14.26225,216.0543,288.0075,359.9641,71.98402,144.0398,0.2001498,0.2004196,0.2001091,0.1996482,0.1996733
2648,2023-01-20 11:08:49.541748,163796085,0,285.0781,14.26227,216.0537,288.0069,359.9635,71.98345,144.0393,0.2001498,0.2004196,0.2001091,0.1996482,0.1996733
2688,2023-01-20 11:08:49.637949,163896065,0,257.577,14.80976,216.0341,287.9691,359.9429,71.9918,144.0482,0.2003676,0.200424,0.1998942,0.199511,0.1998032
2726,2023-01-20 11:08:49.728987,163996078,0,257.5765,14.80985,216.0351,287.9701,359.944,71.99289,144.0493,0.2003676,0.200424,0.1998942,0.199511,0.1998032
2769,2023-01-20 11:08:49.821975,164096071,0,247.3234,14.84968,216.0198,287.9896,359.9826,72.00856,144.0316,0.2001951,0.2001733,0.199912,0.1997724,0.1999472
2807,2023-01-20 11:08:49.921949,164196069,0,247.3331,14.84987,216.025,287.9948,359.9877,72.01373,144.0368,0.2001951,0.2001733,0.199912,0.1997724,0.1999472
2849,2023-01-20 11:08:50.021935,164296065,0,300.1866,14.34278,216.078,288.0261,359.9548,71.96268,144.0389,0.2000591,0.2005734,0.2002946,0.1996091,0.1994638
2888,2023-01-20 11:08:50.121980,164396072,0,300.1755,14.34279,216.0679,288.0159,359.9446,71.95255,144.0288,0.2000591,0.2005734,0.2002946,0.1996091,0.1994638
2931,2023-01-20 11:08:50.221993,164496065,0,328.4297,14.84469,216.0679,288.0452,359.9486,71.91161,143.9854,0.1997214,0.2005547,0.2006212,0.1998288,0.1992738
2969,2023-01-20 11:08:50.321958,164596070,0,328.4397,14.84471,216.0778,288.0551,359.9585,71.92155,143.9953,0.1997214,0.2005547,0.2006212,0.1998288,0.1992738
3009,2023-01-20 11:08:50.421912,164696066,0,323.5306,14.9949,216.1105,288.0731,359.955,71.91951,144.0157,0.1997321,0.200723,0.2007142,0.1997181,0.1991125
3051,2023-01-20 11:08:50.521868,164796070,0,323.5344,14.99492,216.1146,288.0771,359.9591,71.92355,144.0197,0.1997321,0.200723,0.2007142,0.1997181,0.1991125
3091,2023-01-20 11:08:50.621843,164896069,0,320.8956,14.89617,216.0757,288.0428,359.9519,71.92846,144.005,0.1998234,0.2005757,0.200532,0.199753,0.1993158
3129,2023-01-20 11:08:50.721915,164996083,0,320.8584,14.89619,216.0383,288.0055,359.9145,71.89113,143.9677,0.1998234,0.2005757,0.200532,0.199753,0.1993158
3170,2023-01-20 11:08:50.821937,165096074,0,300.5237,14.34801,216.0739,288.0229,359.9522,71.95963,144.0349,0.200055,0.2005658,0.2002941,0.1996163,0.1994687
3208,2023-01-20 11:08:50.921874,165196076,0,300.494,14.34804,216.0439,287.9929,359.9222,71.92963,144.0049,0.200055,0.2005658,0.2002941,0.1996163,0.1994687
3250,2023-01-20 11:08:51.021836,165296085,0,249.8636,14.94372,216.0225,287.9779,359.9657,72.00282,144.0379,0.2002789,0.2002643,0.1998844,0.1996645,0.199908
3288,2023-01-20 11:08:51.121840,165396074,0,249.8552,14.94377,216.0136,287.9691,359.9568,71.99396,144.0291,0.2002789,0.2002643,0.1998844,0.1996645,0.199908
3331,2023-01-20 11:08:51.221846,165496079,0,213.4953,14.25217,216.0085,287.9321,359.9663,72.06412,144.0902,0.2007352,0.2001961,0.1993867,0.1994246,0.2002574
3369,2023-01-20 11:08:51.321810,165596086,0,213.5046,14.2522,216.017,287.9406,359.9747,72.07256,144.0986,0.2007352,0.2001961,0.1993867,0.1994246,0.2002574
3409,2023-01-20 11:08:51.421759,165696074,0,229.77,14.34383,216.0316,287.8517,359.8659,72.05493,144.1574,0.2014222,0.2007698,0.1990551,0.198647,0.200106
3449,2023-01-20 11:08:51.521744,165796075,0,229.7765,14.34386,216.0377,287.8578,359.8719,72.06096,144.1634,0.2014222,0.2007698,0.1990551,0.198647,0.200106
3490,2023-01-20 11:08:51.621735,165896078,0,284.6109,14.25231,216.0873,287.9932,359.907,71.94768,144.0592,0.2003058,0.2008391,0.2002115,0.1992928,0.1993508
3527,2023-01-20 11:08:51.721737,165996073,0,284.6263,14.25234,216.1029,288.0088,359.9226,71.96328,144.0748,0.2003058,0.2008391,0.2002115,0.1992928,0.1993508
3570,2023-01-20 11:08:51.821756,166096087,0,279.7618,14.28726,216.0899,287.9933,359.9151,71.96336,144.0715,0.2003628,0.2008134,0.2001388,0.1992735,0.1994114
3608,2023-01-20 11:08:51.921747,166196081,0,279.7447,14.2873,216.0735,287.9768,359.8987,71.94697,144.0551,0.2003628,0.2008134,0.2001388,0.1992735,0.1994114
3650,2023-01-20 11:08:52.021742,166296076,0,276.2079,14.33596,216.0574,287.9825,359.9275,71.96822,144.0485,0.2003063,0.2006043,0.2000666,0.1994375,0.1995852
3686,2023-01-20 11:08:52.121747,166396074,0,276.2162,14.33598,216.065,287.9902,359.9352,71.97592,144.0562,0.2003063,0.2006043,0.2000666,0.1994375,0.1995852
3721,2023-01-20 11:08:52.221760,166496082,0,329.0391,14.81752,216.1149,288.0873,359.9655,71.91753,144.0099,0.1996391,0.2006953,0.2007903,0.1997926,0.1990827
3751,2023-01-20 11:08:52.321747,166596072,0,329.0202,14.81756,216.0966,288.069,359.9472,71.89924,143.9917,0.1996391,0.2006953,0.2007903,0.1997926,0.1990827
3784,2023-01-20 11:08:52.421755,166696087,0,340.1315,14.46863,216.1301,288.1238,359.9446,71.83961,143.9544,0.1992104,0.2008627,0.2013235,0.1999529,0.1986506
3816,2023-01-20 11:08:52.521746,166796104,0,340.1196,14.46864,216.1176,288.1113,359.9322,71.82718,143.9419,0.1992104,0.2008627,0.2013235,0.1999529,0.1986506
3849,2023-01-20 11:08:52.621713,166896084,0,347.1649,14.31565,216.1816,288.2043,359.9681,71.79867,143.9307,0.1987253,0.2009917,0.2018905,0.2001711,0.1982214
3879,2023-01-20 11:08:52.721736,166996074,0,347.1553,14.31567,216.172,288.1948,359.9586,71.78909,143.9211,0.1987253,0.2009917,0.2018905,0.2001711,0.1982214
3914,2023-01-20 11:08:52.821776,167096088,0,347.7816,14.31091,216.1476,288.1708,359.9576,71.80198,143.9194,0.1988292,0.200883,0.2017191,0.2001748,0.1983941
3944,2023-01-20 11:08:52.921760,167196070,0,347.7873,14.31092,216.1528,288.1761,359.9629,71.80721,143.9247,0.1988292,0.200883,0.2017191,0.2001748,0.1983941
3979,2023-01-20 11:08:53.021775,167296091,0,344.7223,14.37954,216.0808,288.0876,359.952,71.86116,143.9408,0.199316,0.2005989,0.2010549,0.2000514,0.1989789
4009,2023-01-20 11:08:53.121735,167396082,0,344.7569,14.37955,216.1146,288.1214,359.9858,71.89497,143.9746,0.199316,0.2005989,0.2010549,0.2000514,0.1989789
4044,2023-01-20 11:08:53.221700,167496069,0,354.1258,14.22665,216.1665,288.23,359.9677,71.74127,143.8642,0.1982971,0.2009228,0.2022791,0.2004771,0.1980239
4074,2023-01-20 11:08:53.321721,167596080,0,354.15,14.22668,216.191,288.2545,359.9922,71.76576,143.8887,0.1982971,0.2009228,0.2022791,0.2004771,0.1980239
4107,2023-01-20 11:08:53.421714,167696074,0,359.5045,14.19083,216.2024,288.3153,0.008630385,71.70519,143.8249,0.1977183,0.2008968,0.2028468,0.2008489,0.1976891
4139,2023-01-20 11:08:53.521678,167796078,0,359.5114,14.19086,216.2091,288.322,0.01535224,71.71191,143.8316,0.1977183,0.2008968,0.2028468,0.2008489,0.1976891
4172,2023-01-20 11:08:53.621652,167896077,0,2.212665,14.19462,216.176,288.3042,0.01193556,71.7021,143.8034,0.1976703,0.2007582,0.2028096,0.2009649,0.197797
4202,2023-01-20 11:08:53.721680,167996073,0,2.214972,14.19465,216.1778,288.306,0.01375355,71.7039,143.8052,0.1976703,0.2007582,0.2028096,0.2009649,0.197797
4237,2023-01-20 11:08:53.821712,168096084,0,31.50733,14.79699,215.8876,288.1409,0.01408355,71.68372,143.6049,0.1975122,0.1994065,0.2021304,0.2019054,0.1990456
4267,2023-01-20 11:08:53.921691,168196079,0,30.91783,14.797,215.2985,287.5518,359.425,71.09464,143.0158,0.1975122,0.1994065,0.2021304,0.2019054,0.1990456
4303,2023-01-20 11:08:54.021678,168296082,0,335.8106,14.54347,215.5772,287.5491,359.2733,71.1291,143.3173,0.1989172,0.2014151,0.2019584,0.1997899,0.1979195
4334,2023-01-20 11:08:54.121670,168396087,0,336.055,14.54298,215.8038,287.7759,359.5,71.35532,143.5435,0.1989172,0.2014151,0.2019584,0.1997899,0.1979195
4369,2023-01-20 11:08:54.221652,168496074,0,234.3718,14.25971,216.2492,287.2811,359.2759,72.23569,144.8432,0.2073174,0.204539,0.195517,0.1927226,0.199904
4399,2023-01-20 11:08:54.321685,168596082,0,234.712,14.25972,216.5903,287.6224,359.6172,72.5769,145.1843,0.2073174,0.204539,0.195517,0.1927226,0.199904
4432,2023-01-20 11:08:54.421693,168696079,0,248.4643,14.6225,216.6782,287.4297,359.1231,72.17285,145.1438,0.2080346,0.2073089,0.1964534,0.1906108,0.1975922
4464,2023-01-20 11:08:54.521650,168796074,0,247.6366,14.62249,215.8513,286.6022,358.2957,71.34576,144.317,0.2080346,0.2073089,0.1964534,0.1906108,0.1975922
4497,2023-01-20 11:08:54.621624,168896073,0,186.9081,14.43551,213.8692,285.2881,358.1987,71.34789,143.1327,0.2087305,0.1983078,0.1903775,0.195589,0.2069951
4527,2023-01-20 11:08:54.721641,168996074,0,186.7784,14.43559,213.7408,285.1599,358.0706,71.21976,143.0045,0.2087305,0.1983078,0.1903775,0.195589,0.2069951
4562,2023-01-20 11:08:54.821676,169096094,0,169.4261,13.85454,212.5104,283.9214,359.2411,73.89874,144.1688,0.2203741,0.1862617,0.1719721,0.1950388,0.2263533
4592,2023-01-20 11:08:54.921667,169196074,0,169.9945,13.85445,213.0809,284.4927,359.8128,74.47035,144.7396,0.2203741,0.1862617,0.1719721,0.1950388,0.2263533
4627,2023-01-20 11:08:55.021681,169296077,0,164.5688,13.22847,212.5676,284.2799,1.600091,77.19125,145.9645,0.2273609,0.1744407,0.1581745,0.1967245,0.2432994
4657,2023-01-20 11:08:55.121703,169396089,0,165.3887,13.2285,213.3881,285.1005,2.420614,78.01158,146.7847,0.2273609,0.1744407,0.1581745,0.1967245,0.2432994
4692,2023-01-20 11:08:55.221693,169496072,0,172.7821,13.63987,215.1713,286.4644,2.451227,77.67164,147.5913,0.225368,0.1830147,0.165465,0.1934835,0.2326688
4722,2023-01-20 11:08:55.321687,169596072,0,173.2928,13.63987,215.683,286.9762,2.963041,78.1832,148.1026,0.225368,0.1830147,0.165465,0.1934835,0.2326688
4755,2023-01-20 11:08:55.421686,169696081,0,182.841,13.85576,216.5725,287.1315,3.001823,79.02106,149.4212,0.2318757,0.1868866,0.1622052,0.1870628,0.2319697
4789,2023-01-20 11:08:55.521647,169796070,0,182.2858,13.85516,216.0295,286.5934,2.464998,78.48177,148.8769,0.2318757,0.1868866,0.1622052,0.1870628,0.2319697
4822,2023-01-20 11:08:55.621640,169896078,0,180.5437,13.55071,214.2198,284.4272,1.300867,78.25008,148.1356,0.2393442,0.183104,0.1535314,0.1840522,0.2399682
4852,2023-01-20 11:08:55.721683,169996092,0,178.7058,13.55076,212.3816,282.5889,359.4624,76.4117,146.2974,0.2393442,0.183104,0.1535314,0.1840522,0.2399682
4887,2023-01-20 11:08:55.821690,170096077,0,184.3757,12.85991,210.8833,279.5451,357.4724,76.69447,146.6411,0.2582237,0.183751,0.1386986,0.1710736,0.248253
4917,2023-01-20 11:08:55.921693,170196083,0,183.2532,12.85998,209.7614,278.4236,356.3509,75.5727,145.519,0.2582237,0.183751,0.1386986,0.1710736,0.248253
4952,2023-01-20 11:08:56.021701,170296092,0,183.4835,12.54989,208.4426,276.4855,355.0654,75.32787,145.1342,0.267287,0.1827003,0.1311783,0.1654947,0.2533397
4982,2023-01-20 11:08:56.121684,170396068,0,182.4733,12.54992,207.4325,275.4756,354.0555,74.31796,144.1242,0.267287,0.1827003,0.1311783,0.1654947,0.2533397
5017,2023-01-20 11:08:56.221691,170496070,0,172.8929,12.17951,204.446,272.8388,354.2113,75.51099,143.2132,0.275367,0.1646497,0.1148394,0.1675847,0.2775592
5047,2023-01-20 11:08:56.321708,170596089,0,172.8147,12.17953,204.368,272.7609,354.1334,75.43301,143.1351,0.275367,0.1646497,0.1148394,0.1675847,0.2775592
5080,2023-01-20 11:08:56.421682,170696072,0,185.6207,11.8764,207.0106,273.5689,353.3196,75.96818,145.6714,0.2885401,0.181758,0.1154318,0.1517221,0.2625478
5112,2023-01-20 11:08:56.521656,170796078,0,187.0942,11.87644,208.4843,275.043,354.7938,77.44231,147.1452,0.2885401,0.181758,0.1154318,0.1517221,0.2625478
5145,2023-01-20 11:08:56.621642,170896082,0,186.9516,11.23358,208.7811,274.227,356.1084,81.11369,149.8414,0.3092944,0.1720922,0.09694806,0.1414428,0.2802224
5175,2023-01-20 11:08:56.721666,170996072,0,187.9789,11.23361,209.8082,275.2542,357.1357,82.14105,150.8688,0.3092944,0.1720922,0.09694806,0.1414428,0.2802224
5210,2023-01-20 11:08:56.821700,171096081,0,183.26,10.85131,208.4774,274.0127,358.2487,84.2483,151.2801,0.317418,0.1562577,0.08398042,0.1409121,0.3014318
5240,2023-01-20 11:08:56.921704,171196093,0,183.05,10.85136,208.2676,273.8031,358.0391,84.03866,151.0701,0.317418,0.1562577,0.08398042,0.1409121,0.3014318
5275,2023-01-20 11:08:57.021684,171296077,0,188.8766,10.91957,209.3246,274.1489,356.3911,82.31337,151.0788,0.3196873,0.1718588,0.09068369,0.1346025,0.2831677
5306,2023-01-20 11:08:57.121683,171396068,0,188.4359,10.91959,208.8838,273.7083,355.9506,81.8729,150.6383,0.3196873,0.1718588,0.09068369,0.1346025,0.2831677
5341,2023-01-20 11:08:57.221694,171496072,0,202.8905,10.4403,211.358,273.241,352.7465,81.08241,153.0308,0.3440904,0.2027246,0.0901471,0.1092569,0.253781
5371,2023-01-20 11:08:57.321696,171596072,0,202.9633,10.44033,211.4309,273.314,352.8194,81.15536,153.1036,0.3440904,0.2027246,0.0901471,0.1092569,0.253781
5404,2023-01-20 11:08:57.421693,171696076,0,210.1086,9.996927,212.8462,272.6669,350.9419,81.30135,154.9895,0.3638593,0.22064,0.08531319,0.09229876,0.2378888
5436,2023-01-20 11:08:57.521654,171796073,0,210.0845,9.996964,212.8221,272.6431,350.9182,81.2776,154.9657,0.3638593,0.22064,0.08531319,0.09229876,0.2378888
5469,2023-01-20 11:08:57.621639,171896079,0,208.9553,9.825106,212.6879,272.33,351.2518,82.18236,155.4391,0.3704448,0.2167056,0.08041068,0.08999564,0.2424433
5499,2023-01-20 11:08:57.721665,171996072,0,209.5631,9.82514,213.2957,272.9374,351.8592,82.78973,156.0466,0.3704448,0.2167056,0.08041068,0.08999564,0.2424433
5534,2023-01-20 11:08:57.821714,172096096,0,209.7347,9.933294,213.7961,273.9254,352.8654,83.14845,156.1803,0.3650849,0.2159513,0.08303848,0.09318093,0.2427443
5564,2023-01-20 11:08:57.921687,172196074,0,210.5219,9.933334,214.5834,274.7124,353.6523,83.93531,156.9671,0.3650849,0.2159513,0.08303848,0.09318093,0.2427443
5601,2023-01-20 11:08:58.021684,172296074,0,212.9032,9.501273,215.7959,274.5206,353.6022,85.86897,159.3699,0.383874,0.2192003,0.07408111,0.08212789,0.2407167
5631,2023-01-20 11:08:58.121681,172396068,0,213.2269,9.501309,216.1194,274.8447,353.9264,86.19317,159.694,0.383874,0.2192003,0.07408111,0.08212789,0.2407167
5666,2023-01-20 11:08:58.221691,172496076,0,213.9467,9.261975,215.9346,273.8335,352.8118,86.26646,160.208,0.3944167,0.2222905,0.06963695,0.07578403,0.2378717
5696,2023-01-20 11:08:58.321694,172596080,0,213.2879,9.262034,215.2758,273.1756,352.1535,85.60837,159.5491,0.3944167,0.2222905,0.06963695,0.07578403,0.2378717
5729,2023-01-20 11:08:58.421675,172696069,0,215.2252,9.093489,215.3149,272.4118,350.6256,85.05266,159.8446,0.4013599,0.2306182,0.06838543,0.06998964,0.2296468
5761,2023-01-20 11:08:58.521661,172796090,0,214.5652,9.093286,214.6545,271.7475,349.9642,84.39221,159.1895,0.4013599,0.2306182,0.06838543,0.06998964,0.2296468
5794,2023-01-20 11:08:58.621648,172896096,0,212.2489,8.249945,212.9929,267.5896,346.4978,85.5006,160.1407,0.4374381,0.2248515,0.05083966,0.05437586,0.2324949
5824,2023-01-20 11:08:58.721670,172996082,0,210.7916,8.249992,211.5356,266.1325,345.0407,84.0435,158.6835,0.4374381,0.2248515,0.05083966,0.05437586,0.2324949
5859,2023-01-20 11:08:58.821701,173096087,0,208.5291,6.708724,210.1406,259.932,340.2318,88.29823,162.3919,0.5074946,0.2059264,0.02426428,0.02937934,0.2329354
5889,2023-01-20 11:08:58.921696,173196099,0,208.3062,6.708777,209.9177,259.7091,340.0089,88.07538,162.169,0.5074946,0.2059264,0.02426428,0.02937934,0.2329354
5924,2023-01-20 11:08:59.019695,173296082,0,216.996,5.103564,213.8634,255.687,331.7482,92.46892,170.9224,0.5892613,0.2331572,0.009221748,0.006426834,0.1619328
5956,2023-01-20 11:08:59.110593,173396083,0,217.4188,5.103636,214.2865,256.1092,332.1711,92.89079,171.3444,0.5892613,0.2331572,0.009221748,0.006426834,0.1619328
5991,2023-01-20 11:08:59.201665,173496109,0,218.0139,5.10372,214.8819,256.7036,332.7669,93.48398,171.9383,0.5892613,0.2331572,0.009221748,0.006426834,0.1619328
6021,2023-01-20 11:08:59.301649,173596090,0,223.741,4.232223,218.4311,255.4078,327.8206,96.77145,178.2681,0.6319264,0.2540661,0.003858555,0.001332803,0.1088162
6054,2023-01-20 11:08:59.401838,173696092,0,224.3904,4.232348,219.0803,256.0579,328.4713,97.41979,178.9171,0.6319264,0.2540661,0.003858555,0.001332803,0.1088162
6085,2023-01-20 11:08:59.512945,173796083,0,226.3247,3.698964,220.5761,254.1164,324.5426,100.0438,182.9019,0.6625689,0.2564324,0.001497755,0.0002901156,0.07921092
6118,2023-01-20 11:08:59.619687,173896085,0,224.7129,3.354108,219.828,251.378,321.6831,102.6144,184.4807,0.6967645,0.2323546,0.0005231235,8.950487E-05,0.07026822
6148,2023-01-20 11:08:59.710580,173996073,0,224.0685,3.35418,219.1842,250.7319,321.0386,101.9688,183.8344,0.6967645,0.2323546,0.0005231235,8.950487E-05,0.07026822
6184,2023-01-20 11:08:59.801677,174096118,0,223.2157,3.354289,218.3315,249.879,320.1859,101.1153,182.981,0.6967645,0.2323546,0.0005231235,8.950487E-05,0.07026822
6214,2023-01-20 11:08:59.901607,174196077,0,217.6921,2.942832,215.2684,243.6667,314.7765,106.7595,184.4461,0.7571035,0.1674041,7.388712E-05,7.388712E-05,0.07534465
6249,2023-01-20 11:09:00.001602,174296103,0,216.7206,2.94293,214.2971,242.6943,313.8046,105.7882,183.4745,0.7571035,0.1674041,7.388712E-05,7.388712E-05,0.07534465
6279,2023-01-20 11:09:00.101506,174396081,0,216.4329,2.60677,214.1223,240.1099,308.6371,108.2864,185.3083,0.7866912,0.1544836,7.944342E-05,7.944342E-05,0.05866642
6314,2023-01-20 11:09:00.201455,174496101,0,216.0291,2.60689,213.7188,239.7049,308.2334,107.8822,184.9032,0.7866912,0.1544836,7.944342E-05,7.944342E-05,0.05866642
6344,2023-01-20 11:09:00.301482,174596077,0,214.0023,2.278025,212.6094,236.0167,302.8648,112.2985,186.4861,0.8277782,0.1190386,7.579236E-05,7.579236E-05,0.05303166
6377,2023-01-20 11:09:00.401565,174696110,0,213.7236,2.278184,212.3309,235.7376,302.5862,112.0197,186.2065,0.8277782,0.1190386,7.579236E-05,7.579236E-05,0.05303166
6411,2023-01-20 11:09:00.501498,174796097,0,214.0279,2.003743,212.7688,232.9262,295.7549,116.7015,189.4825,0.8537857,0.1074606,6.610405E-05,6.610405E-05,0.03862146
6444,2023-01-20 11:09:00.601453,174896106,0,213.542,2.003919,212.2829,232.44,295.269,116.2156,188.9964,0.8537857,0.1074606,6.610405E-05,6.610405E-05,0.03862146
6474,2023-01-20 11:09:00.701460,174996080,0,211.7746,1.806214,211.008,229.0059,289.853,119.7375,189.8602,0.8796268,0.08461539,6.534099E-05,6.534099E-05,0.03562716
6510,2023-01-20 11:09:00.801516,175096104,0,211.2369,1.806412,210.4704,228.4682,289.3151,119.1997,189.3221,0.8796268,0.08461539,6.534099E-05,6.534099E-05,0.03562716
6540,2023-01-20 11:09:00.901477,175196089,0,209.4186,1.658205,209.0328,225.1556,284.2697,122.5597,189.804,0.8992445,0.06563935,6.337489E-05,6.337489E-05,0.03498949
6575,2023-01-20 11:09:01.001495,175296130,0,208.8167,1.658428,208.4309,224.5539,283.6674,121.9577,189.2017,0.8992445,0.06563935,6.337489E-05,6.337489E-05,0.03498949
6605,2023-01-20 11:09:01.101535,175396094,0,208.7336,1.559847,208.4335,223.4098,280.7779,124.2006,190.1689,0.9094518,0.0586902,6.285003E-05,6.285003E-05,0.03173231
6640,2023-01-20 11:09:01.201645,175496131,0,208.1993,1.560051,207.8992,222.8733,280.2446,123.6656,189.6356,0.9094518,0.0586902,6.285003E-05,6.285003E-05,0.03173231
6670,2023-01-20 11:09:01.301523,175596077,0,206.591,1.488314,206.5008,220.7204,277.5748,124.8491,188.982,0.9193234,0.04723301,6.011305E-05,6.011305E-05,0.03332342
6703,2023-01-20 11:09:01.401499,175696120,0,205.8484,1.488547,205.7583,219.9775,276.8325,124.1065,188.2398,0.9193234,0.04723301,6.011305E-05,6.011305E-05,0.03332342
6735,2023-01-20 11:09:01.501437,175796085,0,204.1703,1.45079,204.2059,217.9941,274.822,124.2266,187.1744,0.9245691,0.04036574,5.63971E-05,5.63971E-05,0.03495238
6768,2023-01-20 11:09:01.601440,175896115,0,203.1284,1.451037,203.164,216.9522,273.7802,123.185,186.1328,0.9245691,0.04036574,5.63971E-05,5.63971E-05,0.03495238
6799,2023-01-20 11:09:01.701401,175996071,0,202.1184,1.432604,202.1546,215.605,272.2667,122.6316,185.433,0.9263591,0.03945861,5.251644E-05,5.251644E-05,0.03407726
6834,2023-01-20 11:09:01.801424,176096088,0,201.1128,1.432857,201.1489,214.5995,271.2608,121.6262,184.4272,0.9263591,0.03945861,5.251644E-05,5.251644E-05,0.03407726
6864,2023-01-20 11:09:01.901423,176196083,0,200.4373,1.430025,200.4889,213.99,270.9134,121.0229,183.7504,0.9273087,0.0383703,5.240179E-05,5.240179E-05,0.0342163
6899,2023-01-20 11:09:02.001454,176296110,0,199.907,1.430275,199.9586,213.4596,270.3827,120.4927,183.2198,0.9273087,0.0383703,5.240179E-05,5.240179E-05,0.0342163
6929,2023-01-20 11:09:02.101428,176396072,0,199.4427,1.430853,199.4997,213.0726,269.9904,119.9981,182.6815,0.9277509,0.03794538,5.446691E-05,5.446691E-05,0.03419477
6964,2023-01-20 11:09:02.201466,176496098,0,199.1683,1.431103,199.2252,212.7979,269.7159,119.7236,182.4071,0.9277509,0.03794538,5.446691E-05,5.446691E-05,0.03419477
6994,2023-01-20 11:09:02.301454,176596082,0,199.0979,1.428769,199.1523,212.7604,269.4178,119.9812,182.3546,0.9284853,0.03756028,5.143911E-05,5.124172E-05,0.03385177
7027,2023-01-20 11:09:02.401486,176696112,0,198.8035,1.429021,198.858,212.4661,269.1234,119.687,182.0603,0.9284853,0.03756028,5.143911E-05,5.124172E-05,0.03385177
7059,2023-01-20 11:09:02.501407,176796082,0,198.0119,1.425272,198.0859,211.6065,267.7859,119.3764,181.3411,0.9288896,0.03673477,5.178933E-05,5.178933E-05,0.03427208
7092,2023-01-20 11:09:02.601376,176896098,0,197.4007,1.425522,197.4747,210.9954,267.1745,118.7654,180.7297,0.9288896,0.03673477,5.178933E-05,5.178933E-05,0.03427208
7122,2023-01-20 11:09:02.701395,176996072,0,196.8533,1.41673,196.938,210.38,265.2667,119.4191,180.3033,0.9314721,0.03491363,6.016076E-05,6.016076E-05,0.033494
7157,2023-01-20 11:09:02.801462,177096095,0,196.3677,1.416982,196.4524,209.8942,264.7813,118.9334,179.8179,0.9314721,0.03491363,6.016076E-05,6.016076E-05,0.033494
7187,2023-01-20 11:09:02.901450,177196088,0,195.5705,1.405046,195.671,208.8805,262.342,119.4067,179.2345,0.9335582,0.03327445,6.055396E-05,6.055396E-05,0.03304627
7222,2023-01-20 11:09:03.001489,177296131,0,194.8718,1.405306,194.9723,208.1823,261.6434,118.7087,178.5357,0.9335582,0.03327445,6.055396E-05,6.055396E-05,0.03304627
7252,2023-01-20 11:09:03.101441,177396095,0,194.8909,1.393618,194.948,208.0581,260.0376,119.6041,178.6171,0.9360791,0.03336302,5.821007E-05,5.821007E-05,0.03044144
7287,2023-01-20 11:09:03.201441,177496106,0,194.9695,1.393875,195.0267,208.1365,260.1148,119.6825,178.6949,0.9360791,0.03336302,5.821007E-05,5.821007E-05,0.03044144
7317,2023-01-20 11:09:03.301418,177596087,0,195.5494,1.386959,195.5724,208.6362,259.6312,120.7319,179.3192,0.937649,0.0336445,6.014246E-05,6.014246E-05,0.02858619
7350,2023-01-20 11:09:03.401444,177696118,0,195.7978,1.387218,195.8208,208.8844,259.8798,120.9801,179.5678,0.937649,0.0336445,6.014246E-05,6.014246E-05,0.02858619
7382,2023-01-20 11:09:03.501422,177796095,0,196.8759,1.379917,196.8255,209.8484,259.507,122.234,180.5539,0.9391965,0.03537073,7.07552E-05,7.07552E-05,0.02529128
7415,2023-01-20 11:09:03.601435,177896107,0,197.5152,1.380183,197.4648,210.488,260.1459,122.8735,181.1928,0.9391965,0.03537073,7.07552E-05,7.07552E-05,0.02529128
7446,2023-01-20 11:09:03.701428,177996087,0,198.1634,1.370918,198.081,211.044,260.085,123.7042,181.8573,0.9399426,0.03607684,6.812671E-05,5.357534E-05,0.02385885
7481,2023-01-20 11:09:03.801439,178096086,0,198.3311,1.371178,198.2487,211.2119,260.2525,123.8721,182.0247,0.9399426,0.03607684,6.812671E-05,5.357534E-05,0.02385885
7511,2023-01-20 11:09:03.901412,178196072,0,198.9993,1.360279,198.8924,211.7354,260.0857,124.8306,182.7313,0.9407051,0.03661519,6.147784E-05,5.200152E-05,0.02256629
7546,2023-01-20 11:09:04.001448,178296120,0,199.1524,1.36054,199.0455,211.8882,260.2391,124.9833,182.8848,0.9407051,0.03661519,6.147784E-05,5.200152E-05,0.02256629
7576,2023-01-20 11:09:04.101391,178396072,0,199.8933,1.352255,199.7313,212.5566,260.2156,125.6543,183.5577,0.9409788,0.0384067,6.659561E-05,5.445606E-05,0.02049339
7612,2023-01-20 11:09:04.201395,178496084,0,199.8578,1.352523,199.6958,212.5212,260.1801,125.619,183.5221,0.9409788,0.0384067,6.659561E-05,5.445606E-05,0.02049339
7642,2023-01-20 11:09:04.301415,178596080,0,199.6889,1.344367,199.4875,212.2557,259.3275,125.4642,183.3356,0.9411012,0.03976769,6.774903E-05,5.142991E-05,0.01901193
7675,2023-01-20 11:09:04.401466,178696108,0,198.9271,1.34463,198.7256,211.4939,258.5658,124.7022,182.5738,0.9411012,0.03976769,6.774903E-05,5.142991E-05,0.01901193
7707,2023-01-20 11:09:04.501419,178796077,0,198.6231,1.339509,198.3501,211.2549,257.96,123.8722,182.0457,0.9402605,0.04259314,8.953572E-05,6.665508E-05,0.01699028
7740,2023-01-20 11:09:04.601443,178896117,0,197.5868,1.339778,197.3138,210.2185,256.9238,122.8356,181.0094,0.9402605,0.04259314,8.953572E-05,6.665508E-05,0.01699028
7770,2023-01-20 11:09:04.701423,178996072,0,196.6992,1.331092,196.4043,209.2561,255.5735,122.0229,180.1338,0.9403181,0.04336402,8.697297E-05,5.209249E-05,0.0161788
7805,2023-01-20 11:09:04.801461,179096086,0,195.7587,1.331363,195.4638,208.3156,254.6332,121.0821,179.1933,0.9403181,0.04336402,8.697297E-05,5.209249E-05,0.0161788
7835,2023-01-20 11:09:04.901417,179196079,0,195.2414,1.323324,194.9282,207.706,253.6132,120.6907,178.7109,0.940347,0.0440755,8.291005E-05,5.117833E-05,0.01544351
7870,2023-01-20 11:09:05.001420,179296118,0,194.9766,1.323583,194.6635,207.4403,253.3475,120.4246,178.4463,0.940347,0.0440755,8.291005E-05,5.117833E-05,0.01544351
7900,2023-01-20 11:09:05.101397,179396072,0,195.3728,1.316962,195.0523,207.7807,253.4385,120.9709,178.9119,0.9405463,0.0442635,7.769191E-05,4.970266E-05,0.01506278
7935,2023-01-20 11:09:05.201442,179496094,0,195.6092,1.317237,195.2887,208.0173,253.6753,121.2076,179.1484,0.9405463,0.0442635,7.769191E-05,4.970266E-05,0.01506278
7965,2023-01-20 11:09:05.301434,179596072,0,195.7228,1.313265,195.3899,208.0931,253.5562,121.2876,179.2192,0.9403986,0.04483762,7.831419E-05,5.253691E-05,0.014633
7999,2023-01-20 11:09:05.401499,179696124,0,196.187,1.313538,195.8542,208.5565,254.0167,121.7507,179.6821,0.9403986,0.04483762,7.831419E-05,5.253691E-05,0.014633
8033,2023-01-20 11:09:05.501438,179796119,0,196.8989,1.306953,196.5661,209.1456,254.2336,122.7767,180.5034,0.9407457,0.04479571,6.847151E-05,4.898421E-05,0.01434116
8066,2023-01-20 11:09:05.601379,179896114,0,197.586,1.307224,197.2532,209.8326,254.9207,123.4638,181.1906,0.9407457,0.04479571,6.847151E-05,4.898421E-05,0.01434116
8096,2023-01-20 11:09:05.701420,179996095,0,197.8996,1.299902,197.5571,210.1459,255.1194,123.7333,181.4763,0.9406814,0.04517965,6.928414E-05,5.978716E-05,0.01400982
8131,2023-01-20 11:09:05.801478,180096094,0,197.2537,1.300183,196.9112,209.5002,254.473,123.0875,180.8299,0.9406814,0.04517965,6.928414E-05,5.978716E-05,0.01400982
8161,2023-01-20 11:09:05.901415,180196071,0,195.4231,1.288405,195.0751,207.5479,252.0659,121.5779,179.0972,0.9409953,0.04534501,6.105257E-05,5.405416E-05,0.01354449
8196,2023-01-20 11:09:06.001418,180296113,0,191.904,1.288692,191.5559,204.0293,248.5461,118.0587,175.5772,0.9409953,0.04534501,6.105257E-05,5.405416E-05,0.01354449
8226,2023-01-20 11:09:06.101398,180396084,0,187.4646,1.27767,187.1269,199.5947,244.0842,113.7206,171.1537,0.9415408,0.04467705,7.109264E-05,7.109264E-05,0.0136399
8261,2023-01-20 11:09:06.201419,180496096,0,182.9711,1.277954,182.6334,195.1021,239.5906,109.2275,166.6599,0.9415408,0.04467705,7.109264E-05,7.109264E-05,0.0136399
8291,2023-01-20 11:09:06.301393,180596072,0,179.2294,1.263743,178.8179,191.1154,234.5264,105.6571,162.979,0.939696,0.04854268,7.622226E-05,5.961907E-05,0.01162549
8324,2023-01-20 11:09:06.401425,180696107,0,174.8705,1.264038,174.4588,186.7576,230.1671,101.2991,158.62,0.939696,0.04854268,7.622226E-05,5.961907E-05,0.01162549
8356,2023-01-20 11:09:06.501396,180796070,0,170.6927,1.252173,170.3157,182.5429,225.8967,97.5183,154.5571,0.9412081,0.04656031,7.335276E-05,7.335276E-05,0.01208484
8389,2023-01-20 11:09:06.601442,180896108,0,167.1461,1.252464,166.769,178.9971,222.3511,93.97259,151.0115,0.9412081,0.04656031,7.335276E-05,7.335276E-05,0.01208484
8419,2023-01-20 11:09:06.701402,180996072,0,163.4837,1.242613,163.1435,175.2979,218.6152,90.7264,147.4705,0.942726,0.04445811,7.663192E-05,7.784949E-05,0.0126614
8454,2023-01-20 11:09:06.801415,181096089,0,160.2184,1.242899,159.8781,172.0333,215.3517,87.46233,144.2067,0.942726,0.04445811,7.663192E-05,7.784949E-05,0.0126614
8484,2023-01-20 11:09:06.901413,181196074,0,156.6713,1.233418,156.358,168.41,211.5399,84.37763,140.7978,0.9439242,0.04291038,7.86676E-05,7.86676E-05,0.01300809
8519,2023-01-20 11:09:07.001460,181296109,0,153.2219,1.233712,152.9085,164.9615,208.0929,80.9299,137.3504,0.9439242,0.04291038,7.86676E-05,7.86676E-05,0.01300809
8549,2023-01-20 11:09:07.101421,181396067,0,149.5095,1.220806,149.211,161.0963,203.7541,77.83791,133.8265,0.9449335,0.04197833,6.944367E-05,6.944367E-05,0.01294916
8584,2023-01-20 11:09:07.201456,181496100,0,145.933,1.221093,145.6345,157.5205,200.1807,74.26302,130.2527,0.9449335,0.04197833,6.944367E-05,6.944367E-05,0.01294916
8614,2023-01-20 11:09:07.301445,181596087,0,142.3714,1.20749,142.117,153.7759,195.9562,71.68134,126.9802,0.9469302,0.03943537,6.497102E-05,6.497102E-05,0.01350441
8648,2023-01-20 11:09:07.401486,181696127,0,139.8385,1.207786,139.5841,151.2435,193.4257,69.14982,124.4493,0.9469302,0.03943537,6.497102E-05,6.497102E-05,0.01350441
8680,2023-01-20 11:09:07.501444,181796097,0,137.2764,1.194372,137.0786,148.5135,190.3104,67.64297,122.19,0.9490916,0.03625711,6.362338E-05,6.362338E-05,0.01452412
8713,2023-01-20 11:09:07.601455,181896120,0,135.3655,1.194673,135.1677,146.603,188.3998,65.73283,120.2799,0.9490916,0.03625711,6.362338E-05,6.362338E-05,0.01452412
8743,2023-01-20 11:09:07.701441,181996085,0,133.229,1.18317,133.09,144.3018,185.7411,64.6972,118.4514,0.951031,0.03304698,6.043457E-05,6.144399E-05,0.01580019
8778,2023-01-20 11:09:07.801466,182096090,0,132.1981,1.183467,132.059,143.271,184.712,63.66702,117.4215,0.951031,0.03304698,6.043457E-05,6.144399E-05,0.01580019
8808,2023-01-20 11:09:07.901447,182196083,0,131.3489,1.175618,131.2703,142.2867,183.4826,63.85361,116.8546,0.9525203,0.02992858,6.291971E-05,6.618234E-05,0.01742205
8843,2023-01-20 11:09:08.001463,182296111,0,131.9078,1.17592,131.8293,142.8449,184.0415,64.41135,117.414,0.9525203,0.02992858,6.291971E-05,6.618234E-05,0.01742205
8873,2023-01-20 11:09:08.101411,182396077,0,132.1637,1.171053,132.1128,143.0206,184.074,65.154,117.7953,0.9530988,0.02858229,5.098802E-05,6.703972E-05,0.01820082
8908,2023-01-20 11:09:08.201428,182496112,0,132.3963,1.171368,132.3454,143.254,184.3063,65.38783,118.0271,0.9530988,0.02858229,5.098802E-05,6.703972E-05,0.01820082
8938,2023-01-20 11:09:08.301411,182596072,0,131.7055,1.166516,131.687,142.4689,183.3352,65.34531,117.5118,0.9537075,0.02697919,4.913576E-05,6.751736E-05,0.01919658
8971,2023-01-20 11:09:08.401476,182696114,0,131.0726,1.166824,131.0541,141.8363,182.7019,64.71284,116.878,0.9537075,0.02697919,4.913576E-05,6.751736E-05,0.01919658
9003,2023-01-20 11:09:08.501407,182796077,0,129.8371,1.162822,129.8609,140.538,181.3569,64.07446,115.8053,0.9540269,0.02511655,4.909535E-05,7.873151E-05,0.02072866
9036,2023-01-20 11:09:08.601410,182896111,0,129.1085,1.163077,129.1317,139.8158,180.6479,63.35603,115.0953,0.9540269,0.02511655,4.909535E-05,7.873151E-05,0.02072866
9066,2023-01-20 11:09:08.701413,182996081,0,127.6489,1.15978,127.714,138.3078,179.1389,62.42584,113.7834,0.9540337,0.02341543,5.227014E-05,9.491753E-05,0.02240365
9101,2023-01-20 11:09:08.801449,183096085,0,126.6221,1.160087,126.6872,137.2809,178.1125,61.39909,112.7574,0.9540337,0.02341543,5.227014E-05,9.491753E-05,0.02240365
9133,2023-01-20 11:09:08.901434,183196083,0,125.1218,1.158811,125.2219,135.7599,176.6497,60.26895,111.3601,0.9537814,0.02212206,5.753155E-05,0.0001152104,0.02392377
9168,2023-01-20 11:09:09.001328,183296120,0,124.0859,1.159112,124.186,134.7237,175.6134,59.23242,110.3248,0.9537814,0.02212206,5.753155E-05,0.0001152104,0.02392377
9198,2023-01-20 11:09:09.092374,183396067,0,122.7136,1.159331,122.8403,133.3689,174.3925,58.01145,108.9946,0.9533706,0.021271,6.535489E-05,0.000140829,0.02515231
9230,2023-01-20 11:09:09.183498,183496100,0,121.2515,1.159783,121.379,131.9037,172.9098,56.54302,107.5036,0.9533706,0.021271,6.535489E-05,0.000140829,0.02515231
9264,2023-01-20 11:09:09.281855,183596081,0,119.7755,1.157575,119.9432,130.3732,171.3384,55.59118,106.1753,0.9528656,0.01991712,5.766762E-05,0.0001646684,0.0269949
9295,2023-01-20 11:09:09.381877,183696116,0,118.953,1.15789,119.1206,129.5507,170.5158,54.76866,105.3523,0.9528656,0.01991712,5.766762E-05,0.0001646684,0.0269949
9329,2023-01-20 11:09:09.481846,183796083,0,117.913,1.154361,118.1215,128.4495,169.3416,54.27777,104.4683,0.9521581,0.0186168,5.238385E-05,0.0001898428,0.02898286
9360,2023-01-20 11:09:09.581874,183896107,0,117.4562,1.154669,117.6646,127.9927,168.8848,53.82096,104.0112,0.9521581,0.0186168,5.238385E-05,0.0001898428,0.02898286
9393,2023-01-20 11:09:09.681851,183996067,0,116.5617,1.149427,116.8113,127.0074,167.7298,53.59407,103.3053,0.9513003,0.01731847,4.76985E-05,0.0002078358,0.03112575
9427,2023-01-20 11:09:09.781874,184096071,0,116.3554,1.14953,116.604,126.8024,167.5412,53.39109,103.1326,0.9513003,0.01731847,4.76985E-05,0.0002078358,0.03112575
9459,2023-01-20 11:09:09.881870,184196082,0,115.682,1.141774,115.9607,126.0047,166.434,53.43871,102.6597,0.9506598,0.016272,4.270993E-05,0.0002005554,0.03282493
9492,2023-01-20 11:09:09.981883,184296119,0,115.3384,1.14209,115.6172,125.661,166.0898,53.09467,102.3162,0.9506598,0.016272,4.270993E-05,0.0002005554,0.03282493
9524,2023-01-20 11:09:10.081833,184396077,0,114.5834,1.137158,114.8963,124.799,164.9903,53.02291,101.7528,0.9496503,0.01524326,4.170113E-05,0.0002059268,0.03485875
9556,2023-01-20 11:09:10.181868,184496116,0,113.9328,1.137468,114.2457,124.1483,164.3395,52.37218,101.1024,0.9496503,0.01524326,4.170113E-05,0.0002059268,0.03485875
9589,2023-01-20 11:09:10.281826,184596075,0,112.856,1.134363,113.1964,123.0188,163.1122,51.7105,100.1441,0.9486592,0.01453723,4.318994E-05,0.000221151,0.03653922
9620,2023-01-20 11:09:10.381842,184696092,0,111.9213,1.134679,112.2617,122.084,162.177,50.77547,99.20963,0.9486592,0.01453723,4.318994E-05,0.000221151,0.03653922
9654,2023-01-20 11:09:10.481742,184796083,0,110.6005,1.133982,110.9603,120.757,160.8718,49.6234,97.93922,0.9478715,0.01413294,4.48586E-05,0.0002432588,0.03770748
9687,2023-01-20 11:09:10.581646,184896098,0,109.4724,1.134299,109.8322,119.6289,159.7432,48.49506,96.81127,0.9478715,0.01413294,4.48586E-05,0.0002432588,0.03770748
9719,2023-01-20 11:09:10.681649,184996067,0,108.4527,1.134912,108.8274,118.6268,158.8254,47.51728,95.80653,0.9472086,0.01388094,5.025562E-05,0.0002708426,0.03858937
9752,2023-01-20 11:09:10.781770,185096121,0,107.577,1.135224,107.9517,117.7511,157.9493,46.64149,94.93082,0.9472086,0.01388094,5.025562E-05,0.0002708426,0.03858937
9784,2023-01-20 11:09:10.881716,185196074,0,106.6632,1.134228,107.0381,116.832,157.0088,45.75235,94.02344,0.9472158,0.01385791,4.94571E-05,0.0002677144,0.0386091
9817,2023-01-20 11:09:10.981713,185296093,0,105.9479,1.134546,106.3228,116.1167,156.2931,45.03687,93.30813,0.9472158,0.01385791,4.94571E-05,0.0002677144,0.0386091
9850,2023-01-20 11:09:11.081682,185396072,0,105.283,1.134483,105.6635,115.4569,155.6592,44.39307,92.65047,0.9469766,0.01376464,4.81469E-05,0.0002776592,0.03893298
9882,2023-01-20 11:09:11.181698,185496096,0,104.836,1.134801,105.2165,115.0098,155.2118,43.94585,92.20348,0.9469766,0.01376464,4.81469E-05,0.0002776592,0.03893298
9915,2023-01-20 11:09:11.281667,185596077,0,104.4426,1.134581,104.8293,114.6117,154.8133,43.61251,91.82874,0.9467114,0.01364261,4.594869E-05,0.0002854381,0.03931456
9946,2023-01-20 11:09:11.381681,185696105,0,104.1759,1.134894,104.5627,114.3452,154.5462,43.34583,91.5619,0.9467114,0.01364261,4.594869E-05,0.0002854381,0.03931456
9979,2023-01-20 11:09:11.481650,185796074,0,103.6583,1.135625,104.0504,113.846,154.1153,42.79604,91.03665,0.9464684,0.01358841,4.655758E-05,0.000301559,0.0395951
10010,2023-01-20 11:09:11.581676,185896096,0,102.9831,1.135943,103.3752,113.1708,153.4395,42.1207,90.36136,0.9464684,0.01358841,4.655758E-05,0.000301559,0.0395951
10042,2023-01-20 11:09:11.681665,185996068,0,102.45,1.136074,102.8402,112.6452,152.9342,41.55088,89.81669,0.9465454,0.01363296,4.764256E-05,0.0003014841,0.03947254
10075,2023-01-20 11:09:11.781723,186096106,0,102.4367,1.136392,102.827,112.632,152.9206,41.53745,89.80341,0.9465454,0.01363296,4.764256E-05,0.0003014841,0.03947254
10107,2023-01-20 11:09:11.881695,186196078,0,102.621,1.136308,103.0078,112.8178,153.1022,41.69822,89.97895,0.9466978,0.01369152,4.86274E-05,0.0002958533,0.03926624
10140,2023-01-20 11:09:11.981697,186296086,0,102.6032,1.13662,102.99,112.7999,153.0843,41.68024,89.96114,0.9466978,0.01369152,4.86274E-05,0.0002958533,0.03926624
10172,2023-01-20 11:09:12.081661,186396076,0,102.6716,1.136638,103.0555,112.8704,153.1551,41.72622,90.02147,0.9468252,0.01374329,4.955703E-05,0.0002915696,0.0390903
10204,2023-01-20 11:09:12.181666,186496110,0,102.6704,1.136956,103.0543,112.8692,153.1536,41.72488,90.02016,0.9468252,0.01374329,4.955703E-05,0.0002915696,0.0390903
10237,2023-01-20 11:09:12.281644,186596067,0,102.7895,1.136428,103.1675,112.9844,153.2426,41.82627,90.1313,0.9470889,0.01383382,5.078947E-05,0.0002797515,0.03874672
10269,2023-01-20 11:09:12.381693,186696083,0,102.7673,1.136746,103.1453,112.9621,153.22,41.80382,90.10896,0.9470889,0.01383382,5.078947E-05,0.0002797515,0.03874672
10303,2023-01-20 11:09:12.481684,186796087,0,102.885,1.13588,103.2544,113.0716,153.283,41.90507,90.21754,0.9474696,0.01396145,5.238796E-05,0.0002623081,0.03825418
10334,2023-01-20 11:09:12.581661,186896088,0,102.9184,1.136192,103.2878,113.105,153.3162,41.93828,90.25089,0.9474696,0.01396145,5.238796E-05,0.0002623081,0.03825418
10366,2023-01-20 11:09:12.681662,186996068,0,102.9679,1.135798,103.3332,113.1481,153.3288,41.99035,90.29874,0.9476546,0.01401783,5.292396E-05,0.0002532593,0.03802142
10399,2023-01-20 11:09:12.781733,187096108,0,102.9017,1.136115,103.267,113.0818,153.2622,41.92376,90.23248,0.9476546,0.01401783,5.292396E-05,0.0002532593,0.03802142
10431,2023-01-20 11:09:12.881701,187196075,0,102.7317,1.135535,103.0898,112.9067,153.0551,41.73171,90.05276,0.9479682,0.01413375,5.457722E-05,0.0002405137,0.03760302
10464,2023-01-20 11:09:12.981693,187296074,0,102.4682,1.135853,102.8263,112.6433,152.7912,41.46803,89.78918,0.9479682,0.01413375,5.457722E-05,0.0002405137,0.03760302
10496,2023-01-20 11:09:13.081693,187396081,0,102.3816,1.135674,102.7373,112.5532,152.6848,41.38081,89.70104,0.9480771,0.01417034,5.499658E-05,0.0002356955,0.0374619
10528,2023-01-20 11:09:13.181680,187496075,0,102.3866,1.135985,102.7422,112.5581,152.6897,41.38575,89.70599,0.9480771,0.01417034,5.499658E-05,0.0002356955,0.0374619
10561,2023-01-20 11:09:13.281682,187596068,0,102.4859,1.136115,102.8395,112.6595,152.7953,41.46456,89.79894,0.9481571,0.01421195,5.588747E-05,0.0002338113,0.03734113
10592,2023-01-20 11:09:13.381709,187696083,0,102.5056,1.136434,102.8593,112.6793,152.8149,41.48435,89.81859,0.9481571,0.01421195,5.588747E-05,0.0002338113,0.03734113
10626,2023-01-20 11:09:13.481678,187796074,0,102.5654,1.136273,102.9135,112.7423,152.8771,41.49768,89.86318,0.9483818,0.01432021,5.805977E-05,0.0002273481,0.03701249
10657,2023-01-20 11:09:13.581642,187896067,0,102.6665,1.136591,103.0146,112.8435,152.9781,41.59874,89.96425,0.9483818,0.01432021,5.805977E-05,0.0002273481,0.03701249
10689,2023-01-20 11:09:13.681668,187996078,0,102.7763,1.135976,103.1168,112.9497,153.0557,41.67549,90.06174,0.9487,0.01445316,6.027011E-05,0.0002157845,0.03657073
10722,2023-01-20 11:09:13.781690,188096076,0,102.7504,1.136288,103.091,112.9238,153.0299,41.64963,90.03587,0.9487,0.01445316,6.027011E-05,0.0002157845,0.03657073
10754,2023-01-20 11:09:13.881692,188196070,0,102.7258,1.134897,103.0579,112.8881,152.94,41.61667,90.00526,0.9490604,0.01458762,6.203029E-05,0.0002012186,0.0360886
10787,2023-01-20 11:09:13.981708,188296082,0,102.6566,1.135458,102.99,112.8198,152.8782,41.55689,89.90261,0.9490604,0.01458762,6.203029E-05,0.0002012186,0.0360886
10819,2023-01-20 11:09:14.081689,188396071,0,102.8857,1.131289,103.1993,113.0122,152.9061,41.80656,90.12878,0.9499137,0.01489094,6.514973E-05,0.0001670874,0.03496315
10851,2023-01-20 11:09:14.181683,188496075,0,103.1528,1.131609,103.4664,113.2794,153.1731,42.07386,90.39581,0.9499137,0.01489094,6.514973E-05,0.0001670874,0.03496315
10884,2023-01-20 11:09:14.281693,188596080,0,103.7727,1.125903,104.0579,113.8323,153.4357,42.78454,91.02757,0.9511445,0.01532529,6.827666E-05,0.0001232041,0.03333873
10917,2023-01-20 11:09:14.381693,188696071,0,103.9178,1.126216,104.2029,113.9772,153.581,42.92955,91.17287,0.9511445,0.01532529,6.827666E-05,0.0001232041,0.03333873
10951,2023-01-20 11:09:14.481674,188796074,0,104.3065,1.12095,104.5616,114.3404,153.7853,43.2186,91.52436,0.9522825,0.01593546,7.890751E-05,9.578116E-05,0.03160728
10982,2023-01-20 11:09:14.581648,188896077,0,104.2166,1.121061,104.4706,114.2511,153.6924,43.12355,91.46767,0.9522825,0.01593546,7.890751E-05,9.578116E-05,0.03160728
11014,2023-01-20 11:09:14.681663,188996072,0,103.9597,1.114826,104.206,113.9066,153.0306,43.18483,91.29015,0.9527949,0.0159143,7.023942E-05,7.649967E-05,0.03114401
11047,2023-01-20 11:09:14.781691,189096070,0,103.8301,1.115151,104.0764,113.777,152.9008,43.05515,91.16043,0.9527949,0.0159143,7.023942E-05,7.649967E-05,0.03114401
11079,2023-01-20 11:09:14.881700,189196090,0,103.98,1.109163,104.2097,113.849,152.6639,43.41788,91.35991,0.9535848,0.01614195,6.782783E-05,6.182949E-05,0.03014355
11112,2023-01-20 11:09:14.981671,189296081,0,104.1863,1.109481,104.416,114.0552,152.8703,43.62402,91.5663,0.9535848,0.01614195,6.782783E-05,6.182949E-05,0.03014355
11144,2023-01-20 11:09:15.081665,189396070,0,104.4369,1.104532,104.6516,114.2342,152.7604,44.06907,91.86301,0.9543004,0.01637326,6.596056E-05,6.169059E-05,0.0291987
11176,2023-01-20 11:09:15.181688,189496083,0,104.4243,1.10486,104.6389,114.2217,152.7475,44.05643,91.85016,0.9543004,0.01637326,6.596056E-05,6.169059E-05,0.0291987
11209,2023-01-20 11:09:15.281694,189596072,0,104.7022,1.100495,104.8999,114.4442,152.7286,44.44734,92.15216,0.9550098,0.01670334,6.713137E-05,6.279482E-05,0.02815704
11243,2023-01-20 11:09:15.381713,189696072,0,104.8864,1.100824,105.0842,114.6284,152.9127,44.63151,92.33627,0.9550098,0.01670334,6.713137E-05,6.279482E-05,0.02815704
11277,2023-01-20 11:09:15.481697,189796091,0,105.292,1.097035,105.4776,114.9852,153.0668,45.1561,92.76934,0.9555305,0.01692684,6.689931E-05,5.826261E-05,0.02741744
11310,2023-01-20 11:09:15.581637,189896078,0,105.618,1.097355,105.8036,115.311,153.3931,45.48194,93.09554,0.9555305,0.01692684,6.689931E-05,5.826261E-05,0.02741744
11342,2023-01-20 11:09:15.681658,189996072,0,105.9722,1.094489,106.1572,115.6138,153.5198,46.05049,93.50538,0.9557103,0.01682851,6.104392E-05,5.283629E-05,0.02734735
11375,2023-01-20 11:09:15.781712,190096081,0,106.445,1.094819,106.63,116.0865,153.9924,46.52301,93.97815,0.9557103,0.01682851,6.104392E-05,5.283629E-05,0.02734735
11407,2023-01-20 11:09:15.881710,190196071,0,106.9949,1.09318,107.1679,116.6237,154.4472,47.03646,94.51566,0.956107,0.01714762,6.522845E-05,5.860946E-05,0.02662159
11440,2023-01-20 11:09:15.981721,190296082,0,107.329,1.09351,107.502,116.9576,154.7812,47.37029,94.84978,0.956107,0.01714762,6.522845E-05,5.860946E-05,0.02662159
11472,2023-01-20 11:09:16.081723,190396087,0,107.7161,1.092076,107.8796,117.3318,155.0822,47.74183,95.23029,0.9564124,0.01738867,6.82317E-05,5.303721E-05,0.02607757
11504,2023-01-20 11:09:16.181708,190496075,0,107.9601,1.0924,108.1236,117.5757,155.3258,47.98544,95.47423,0.9564124,0.01738867,6.82317E-05,5.303721E-05,0.02607757
11537,2023-01-20 11:09:16.281705,190596072,0,108.2489,1.091016,108.3993,117.8432,155.4753,48.2678,95.75758,0.9568302,0.01773574,7.240503E-05,5.318397E-05,0.0253084
11568,2023-01-20 11:09:16.381706,190696071,0,108.4032,1.091348,108.5536,117.9976,155.6293,48.42193,95.91169,0.9568302,0.01773574,7.240503E-05,5.318397E-05,0.0253084
11602,2023-01-20 11:09:16.481691,190796070,0,108.6529,1.089817,108.792,118.2191,155.7144,48.71009,96.16766,0.9572042,0.01801639,7.480574E-05,4.783663E-05,0.02465678
11633,2023-01-20 11:09:16.581676,190896073,0,108.4591,1.090148,108.5982,118.0253,155.5201,48.51603,95.9738,0.9572042,0.01801639,7.480574E-05,4.783663E-05,0.02465678
11665,2023-01-20 11:09:16.681684,190996072,0,107.1097,1.088842,107.2456,116.6369,153.9784,47.31394,94.66127,0.9574149,0.01803465,7.138216E-05,5.03199E-05,0.02442878
11698,2023-01-20 11:09:16.781713,191096087,0,103.7682,1.08917,103.9042,113.2959,150.6365,43.97364,91.31955,0.9574149,0.01803465,7.138216E-05,5.03199E-05,0.02442878
11730,2023-01-20 11:09:16.881707,191196074,0,98.69614,1.086303,98.82586,108.1391,145.1498,39.23128,86.32887,0.9578567,0.0180628,6.433551E-05,5.407957E-05,0.02396224
11763,2023-01-20 11:09:16.981712,191296074,0,92.40937,1.086646,92.53912,101.8532,138.8622,32.94664,80.04044,0.9578567,0.0180628,6.433551E-05,5.407957E-05,0.02396224
11795,2023-01-20 11:09:17.081707,191396071,0,85.46912,1.081565,85.60317,94.77261,131.293,26.66545,73.2661,0.9582108,0.01762756,5.455315E-05,5.455315E-05,0.02405263
11827,2023-01-20 11:09:17.181705,191496072,0,78.39105,1.081919,78.52518,87.69586,124.2159,19.59144,66.18431,0.9582108,0.01762756,5.455315E-05,5.455315E-05,0.02405263
11860,2023-01-20 11:09:17.281708,191596071,0,69.46762,1.076695,69.60426,78.61506,114.6475,11.3198,57.42304,0.9585823,0.01724401,6.118835E-05,6.118835E-05,0.02405135
11891,2023-01-20 11:09:17.381722,191696078,0,61.79408,1.077003,61.93064,70.94027,106.9665,3.638335,49.75336,0.9585823,0.01724401,6.118835E-05,6.118835E-05,0.02405135
11925,2023-01-20 11:09:17.481702,191796084,0,54.40539,1.067356,54.54234,63.34091,98.62347,357.1926,42.60767,0.9591873,0.01677991,5.512366E-05,5.512366E-05,0.02392257
11956,2023-01-20 11:09:17.581656,191896072,0,47.31073,1.067689,47.44762,56.24743,91.52406,350.0956,35.51474,0.9591873,0.01677991,5.512366E-05,5.512366E-05,0.02392257
11988,2023-01-20 11:09:17.681676,191996071,0,41.12613,1.053449,41.2574,49.85448,84.36734,344.82,29.55921,0.9599599,0.01651264,4.914E-05,4.914E-05,0.02342923
12021,2023-01-20 11:09:17.781714,192096075,0,35.40758,1.053792,35.53881,44.1373,78.6455,339.1009,23.84123,0.9599599,0.01651264,4.914E-05,4.914E-05,0.02342923
12053,2023-01-20 11:09:17.881715,192196073,0,29.9086,1.035694,30.04112,38.29589,71.59255,335.2019,18.74261,0.9608448,0.01575085,5.286035E-05,5.286035E-05,0.02329868
12086,2023-01-20 11:09:17.981717,192296079,0,25.25967,1.036051,25.39217,33.64912,66.94362,330.5557,14.09277,0.9608448,0.01575085,5.286035E-05,5.286035E-05,0.02329868
12119,2023-01-20 11:09:18.081701,192396080,0,21.81125,1.013057,21.94451,29.70586,61.2581,329.4567,11.22551,0.9620075,0.01472969,6.128488E-05,6.128488E-05,0.02314023
12151,2023-01-20 11:09:18.181679,192496077,0,20.04223,1.013417,20.17549,27.93775,59.49011,327.6896,9.456065,0.9620075,0.01472969,6.128488E-05,6.128488E-05,0.02314023
12184,2023-01-20 11:09:18.274343,192596070,0,20.18625,0.9835674,20.31167,27.37517,56.40714,331.188,10.42035,0.9637222,0.01366994,8.292604E-05,8.292604E-05,0.02244198
12215,2023-01-20 11:09:18.365381,192696079,0,21.76026,0.9839265,21.88568,28.9485,57.9793,332.7596,11.99439,0.9637222,0.01366994,8.292604E-05,8.292604E-05,0.02244198
12249,2023-01-20 11:09:18.461918,192796071,0,23.63299,0.9472838,23.75319,30.1115,56.6083,338.163,14.71532,0.9651701,0.01256235,6.701614E-05,6.701614E-05,0.02213356
12280,2023-01-20 11:09:18.561848,192896071,0,26.22828,0.9476625,26.34849,32.70576,59.20293,340.7575,17.31086,0.9651701,0.01256235,6.701614E-05,6.701614E-05,0.02213356
12313,2023-01-20 11:09:18.661821,192996071,0,28.95164,0.9111483,29.0673,34.7845,58.95626,346.797,20.82004,0.9662371,0.0115951,6.028599E-05,6.028599E-05,0.02204732
12346,2023-01-20 11:09:18.761825,193096074,0,32.62414,0.9115428,32.73982,38.45562,62.62785,350.4692,24.49251,0.9662371,0.0115951,6.028599E-05,6.028599E-05,0.02204732
12378,2023-01-20 11:09:18.861809,193196092,0,34.91386,0.8753019,35.03229,40.09027,61.9241,356.3207,27.61181,0.9664427,0.01040663,6.846155E-05,6.846155E-05,0.02301383
12411,2023-01-20 11:09:18.961737,193296076,0,37.30565,0.8757057,37.4241,42.48112,64.31545,358.7137,30.00357,0.9664427,0.01040663,6.846155E-05,6.846155E-05,0.02301383
12443,2023-01-20 11:09:19.061722,193396068,0,37.16186,0.8427199,37.31268,41.65321,61.26817,2.723886,30.8097,0.9627709,0.008343169,0.0001297202,0.0001297202,0.02862659
12475,2023-01-20 11:09:19.161751,193496074,0,38.71318,0.8431479,38.86401,43.20395,62.81928,4.276417,32.36094,0.9627709,0.008343169,0.0001297202,0.0001297202,0.02862659
12508,2023-01-20 11:09:19.261823,193596077,0,38.53455,0.8089926,38.70063,42.48646,60.28923,7.495637,32.93031,0.9593293,0.007137751,8.327992E-05,8.867618E-05,0.03336098
12540,2023-01-20 11:09:19.361931,193696087,0,39.37088,0.8094379,39.53697,43.32236,61.12497,8.333176,33.76676,0.9593293,0.007137751,8.327992E-05,8.867618E-05,0.03336098
12575,2023-01-20 11:09:19.461859,193796072,0,39.32492,0.7740862,39.47818,42.81041,58.84425,11.19028,34.32853,0.9590472,0.006756926,5.807009E-05,5.807009E-05,0.03407971
12606,2023-01-20 11:09:19.561710,193896076,0,39.0328,0.7745432,39.18605,42.51837,58.55196,10.89749,34.03641,0.9590472,0.006756926,5.807009E-05,5.807009E-05,0.03407971
12639,2023-01-20 11:09:19.661668,193996072,0,36.82689,0.7412499,36.98862,39.8223,54.14122,12.06305,32.52878,0.9540343,0.005888545,0.0001004067,0.0001004067,0.03987636
12673,2023-01-20 11:09:19.761703,194096072,0,36.05488,0.7417368,36.21661,39.05054,53.36901,11.28971,31.75683,0.9540343,0.005888545,0.0001004067,0.0001004067,0.03987636
12705,2023-01-20 11:09:19.861708,194196071,0,36.02609,0.7094892,36.1511,38.61316,51.17451,13.88035,32.22895,0.9578791,0.006227179,0.00010186,8.746411E-05,0.03570447
12738,2023-01-20 11:09:19.961701,194296074,0,35.96757,0.7099984,36.09258,38.55473,51.1164,13.82129,32.1703,0.9578791,0.006227179,0.00010186,8.746411E-05,0.03570447
12771,2023-01-20 11:09:20.061706,194396076,0,36.28174,0.6857325,36.3869,38.59082,49.97211,16.05521,32.84633,0.9596972,0.00640164,0.0001002917,6.156889E-05,0.03373928
12803,2023-01-20 11:09:20.161720,194496077,0,36.55344,0.6862484,36.6586,38.86241,50.24357,16.32694,33.118,0.9596972,0.00640164,0.0001002917,6.156889E-05,0.03373928
12835,2023-01-20 11:09:20.261712,194596071,0,36.05947,0.6692162,36.1608,38.12557,48.60221,17.59625,32.96685,0.9582049,0.006215903,9.046595E-05,9.046595E-05,0.03539831
12867,2023-01-20 11:09:20.361708,194696077,0,36.48148,0.6697553,36.58281,38.5474,49.02396,18.01888,33.38886,0.9582049,0.006215903,9.046595E-05,9.046595E-05,0.03539831
12901,2023-01-20 11:09:20.461686,194796073,0,35.9219,0.6598197,36.02714,37.81736,47.77497,18.74359,33.08318,0.9547779,0.005889631,0.0001352968,0.0001424091,0.0390547
12934,2023-01-20 11:09:20.561663,194896072,0,36.89221,0.660367,36.99746,38.78736,48.74533,19.71495,34.05333,0.9547779,0.005889631,0.0001352968,0.0001424091,0.0390547
12967,2023-01-20 11:09:20.661683,194996088,0,36.42901,0.6546641,36.54167,38.1955,47.8429,20.23461,33.78934,0.9501965,0.005558147,0.0002692079,0.0002904157,0.04368572
13000,2023-01-20 11:09:20.761687,195096070,0,37.06961,0.6552044,37.18228,38.83589,48.48342,20.87607,34.42987,0.9501965,0.005558147,0.0002692079,0.0002904157,0.04368572
13032,2023-01-20 11:09:20.861702,195196079,0,35.97649,0.6514407,36.09801,37.63591,47.0373,20.56506,33.50531,0.9457049,0.005324634,0.0003406753,0.0005772664,0.04805256
13065,2023-01-20 11:09:20.961705,195296084,0,35.75754,0.6519951,35.87906,37.41709,46.8187,20.34541,33.2863,0.9457049,0.005324634,0.0003406753,0.0005772664,0.04805256
13098,2023-01-20 11:09:21.061692,195396071,0,35.21439,0.6496157,35.34277,36.81064,46.06196,20.25353,32.84642,0.9429824,0.005223248,0.0003009506,0.0008641937,0.05062919
13129,2023-01-20 11:09:21.161697,195496074,0,35.63061,0.6501714,35.75898,37.22672,46.47825,20.67023,33.26254,0.9429824,0.005223248,0.0003009506,0.0008641937,0.05062919
13163,2023-01-20 11:09:21.261705,195596081,0,34.92411,0.6492096,35.06461,36.47123,45.64783,20.3175,32.64835,0.9395778,0.00512431,0.0002651211,0.00144179,0.05359109
13195,2023-01-20 11:09:21.361696,195696072,0,35.32904,0.6497541,35.46954,36.87603,46.05265,20.72295,33.05325,0.9395778,0.00512431,0.0002651211,0.00144179,0.05359109
13229,2023-01-20 11:09:21.461698,195796102,0,35.22717,0.6489128,35.38222,36.7537,45.95283,20.81952,33.0109,0.9366359,0.00506853,0.000244481,0.002237522,0.05581356
13260,2023-01-20 11:09:21.561641,195896091,0,35.77989,0.6494681,35.93494,37.3062,46.50526,21.3732,33.5636,0.9366359,0.00506853,0.000244481,0.002237522,0.05581356
13293,2023-01-20 11:09:21.661631,195996068,0,36.01957,0.6483577,36.18293,37.53865,46.81863,21.69418,33.8305,0.9347219,0.005091294,0.0005682249,0.003007733,0.05661072
13326,2023-01-20 11:09:21.761686,196096072,0,36.37651,0.6489135,36.53987,37.89547,47.17544,22.05169,34.18742,0.9347219,0.005091294,0.0005682249,0.003007733,0.05661072
13358,2023-01-20 11:09:21.861711,196196080,0,36.62305,0.6455245,36.78889,38.13567,47.4754,22.35354,34.44816,0.9346821,0.005185121,0.0006409656,0.003382239,0.05610954
13391,2023-01-20 11:09:21.961700,196296073,0,36.91883,0.6460727,37.08467,38.43135,47.77105,22.64973,34.74392,0.9346821,0.005185121,0.0006409656,0.003382239,0.05610954
13424,2023-01-20 11:09:22.061693,196396080,0,36.67942,0.644217,36.86878,38.19304,47.53809,22.51446,34.55428,0.9314214,0.005120125,0.0005867037,0.004780475,0.05809132
13455,2023-01-20 11:09:22.161677,196496085,0,36.87477,0.6447768,37.06413,38.38832,47.73344,22.71001,34.74959,0.9314214,0.005120125,0.0005867037,0.004780475,0.05809132
13489,2023-01-20 11:09:22.261667,196596071,0,36.66456,0.6405281,36.86442,38.16933,47.45968,22.66011,34.57871,0.9298287,0.005091913,0.0005562392,0.005510494,0.05901254
13521,2023-01-20 11:09:22.361688,196696072,0,36.49461,0.6410919,36.69448,37.99946,47.28997,22.49002,34.40878,0.9298287,0.005091913,0.0005562392,0.005510494,0.05901254
13555,2023-01-20 11:09:22.461691,196796083,0,36.10606,0.637177,36.3145,37.60846,46.89668,22.1727,34.04365,0.9288758,0.005115076,0.0005710403,0.006177597,0.05926041
13586,2023-01-20 11:09:22.561657,196896074,0,36.06299,0.6377334,36.27143,37.56543,46.85378,22.12948,34.00056,0.9288758,0.005115076,0.0005710403,0.006177597,0.05926041
13619,2023-01-20 11:09:22.661656,196996067,0,35.93537,0.6347921,36.15925,37.44027,46.71145,22.09158,33.90565,0.9270088,0.005093989,0.0005503923,0.00722868,0.06011815
13652,2023-01-20 11:09:22.761694,197096081,0,36.07509,0.6353604,36.29897,37.57995,46.85121,22.23141,34.04533,0.9270088,0.005093989,0.0005503923,0.00722868,0.06011815
13684,2023-01-20 11:09:22.861695,197196071,0,36.1195,0.6309968,36.34763,37.61742,46.8598,22.3589,34.10999,0.9265096,0.005118541,0.000564226,0.007644749,0.06016292
13717,2023-01-20 11:09:22.961698,197296071,0,36.34679,0.6315681,36.57493,37.84463,47.08703,22.58642,34.33724,0.9265096,0.005118541,0.000564226,0.007644749,0.06016292
13750,2023-01-20 11:09:23.061711,197396081,0,37.02597,0.6227113,37.22536,38.48946,47.69724,23.30642,34.99784,0.9300874,0.005302166,0.0007188525,0.006165673,0.05772591
13781,2023-01-20 11:09:23.161708,197496075,0,37.41304,0.6232793,37.61243,38.87642,48.08439,23.69392,35.38485,0.9300874,0.005302166,0.0007188525,0.006165673,0.05772591
13815,2023-01-20 11:09:23.261696,197596067,0,38.56592,0.6144397,38.73077,39.99051,49.15319,24.88873,36.51252,0.9344907,0.005541306,0.000979018,0.004449911,0.05453909
13847,2023-01-20 11:09:23.361701,197696081,0,39.09113,0.6150257,39.25597,40.51554,49.67829,25.41475,37.03767,0.9344907,0.005541306,0.000979018,0.004449911,0.05453909
13881,2023-01-20 11:09:23.461685,197796077,0,39.73194,0.6097184,39.87943,41.13427,50.26354,26.09388,37.66945,0.9367251,0.005691044,0.001181702,0.003687367,0.05271476
13912,2023-01-20 11:09:23.561682,197896087,0,39.92759,0.61031,40.07509,41.32986,50.45918,26.28972,37.86507,0.9367251,0.005691044,0.001181702,0.003687367,0.05271476
13945,2023-01-20 11:09:23.661678,197996074,0,40.24087,0.6064671,40.3792,41.63062,50.74572,26.61801,38.174,0.9378937,0.00579054,0.001339602,0.003339967,0.05163619
13978,2023-01-20 11:09:23.761700,198096073,0,40.29745,0.6070507,40.43578,41.68721,50.80247,26.67439,38.23054,0.9378937,0.00579054,0.001339602,0.003339967,0.05163619
14010,2023-01-20 11:09:23.861703,198196071,0,40.64945,0.6037828,40.77323,42.02476,51.13386,27.01367,38.56813,0.9397477,0.005941265,0.00162398,0.002782078,0.04990506
14043,2023-01-20 11:09:23.961705,198296080,0,40.77814,0.6043805,40.90193,42.15343,51.26267,27.14246,38.69678,0.9397477,0.005941265,0.00162398,0.002782078,0.04990506
14076,2023-01-20 11:09:24.061682,198396071,0,41.18807,0.6032969,41.3114,42.56007,51.6589,27.57307,39.11015,0.9397646,0.005950705,0.001638052,0.002783708,0.04986289
14107,2023-01-20 11:09:24.161675,198496084,0,41.42295,0.6038947,41.54629,42.79486,51.89365,27.80832,39.34501,0.9397646,0.005950705,0.001638052,0.002783708,0.04986289
14141,2023-01-20 11:09:24.261675,198596075,0,41.63593,0.6025305,41.75316,43.00186,52.09889,28.01592,39.55185,0.9405099,0.006018206,0.00178301,0.002570159,0.04911876
14173,2023-01-20 11:09:24.361698,198696071,0,41.69101,0.6031175,41.80823,43.05692,52.15396,28.071,39.6069,0.9405099,0.006018206,0.00178301,0.002570159,0.04911876
