LineNo,UTC_Approx,TimeUS,C,IVN0,IVN1,IVN2,IVN3,IVN4,IVE0,IVE1,IVE2,IVE3,IVE4
677,2023-01-20 11:08:47.421095,161675791,0,0,0,0,0,0,0,0,0,0,0
1030,2023-01-20 11:08:47.516079,161775775,0,0,0,0,0,0,0,0,0,0,0
1146,2023-01-20 11:08:47.630187,161892750,0,0.03460242,0.03613999,0.03886607,0.0390133,0.03637823,-0.2598748,-0.2622415,-0.2615106,-0.2586921,-0.2576811
1409,2023-01-20 11:08:47.738571,161995567,0,0.03460242,0.03613999,0.03886607,0.0390133,0.03637823,-0.2598748,-0.2622415,-0.2615106,-0.2586921,-0.2576811
1828,2023-01-20 11:08:47.842134,162096077,0,-0.2679892,-0.2650421,-0.2625598,-0.2639734,-0.2673284,0.06197095,0.06031837,0.06261104,0.06567988,0.06528398
1873,2023-01-20 11:08:47.941896,162196081,0,-0.2679892,-0.2650421,-0.2625598,-0.2639734,-0.2673284,0.06197095,0.06031837,0.06261104,0.06567988,0.06528398
1920,2023-01-20 11:08:48.041756,162296080,0,0.3564602,0.3597488,0.3636037,0.3626983,0.3582838,0.02151671,0.01853134,0.0207364,0.02508365,0.02556664
1966,2023-01-20 11:08:48.141750,162396070,0,0.3564602,0.3597488,0.3636037,0.3626983,0.3582838,0.02151671,0.01853134,0.0207364,0.02508365,0.02556664
2019,2023-01-20 11:08:48.241764,162496067,0,0.160313,0.1640416,0.168296,0.1671948,0.1622609,-0.03521209,-0.03847287,-0.03593387,-0.0311029,-0.03065822
2060,2023-01-20 11:08:48.341793,162596063,0,0.160313,0.1640416,0.168296,0.1671948,0.1622609,-0.03521209,-0.03847287,-0.03593387,-0.0311029,-0.03065822
2116,2023-01-20 11:08:48.438031,162696062,0,-0.218309,-0.2142472,-0.2079224,-0.2080802,-0.2145004,0.1770606,0.1717331,0.173951,0.1806524,0.1825707
2177,2023-01-20 11:08:48.528998,162796071,0,-0.218309,-0.2142472,-0.2079224,-0.2080802,-0.2145004,0.1770606,0.1717331,0.173951,0.1806524,0.1825707
2237,2023-01-20 11:08:48.621935,162896062,0,0.007973835,0.01397926,0.02162275,0.02034362,0.01190628,0.0936193,0.08753411,0.0913634,0.09981781,0.1012128
2291,2023-01-20 11:08:48.721952,162996059,0,0.007973835,0.01397926,0.02162275,0.02034362,0.01190628,0.0936193,0.08753411,0.0913634,0.09981781,0.1012128
2346,2023-01-20 11:08:48.821971,163096063,0,-0.1082593,-0.1013437,-0.09276995,-0.09438206,-0.1039598,0.2089183,0.2021518,0.2066339,0.2161773,0.2175904
2400,2023-01-20 11:08:48.921974,163196065,0,-0.1082593,-0.1013437,-0.09276995,-0.09438206,-0.1039598,0.2089183,0.2021518,0.2066339,0.2161773,0.2175904
2442,2023-01-20 11:08:49.021967,163296061,0,0.01405474,0.02276658,0.03165191,0.02844721,0.01755863,-0.07302517,-0.07953458,-0.07327268,-0.06287593,-0.06271724
2486,2023-01-20 11:08:49.121952,163396062,0,0.01405474,0.02276658,0.03165191,0.02844721,0.01755863,-0.07302517,-0.07953458,-0.07327268,-0.06287593,-0.06271724
2528,2023-01-20 11:08:49.224360,163496062,0,0.1009065,0.108672,0.117544,0.1152743,0.1049831,-0.05072865,-0.05753325,-0.05225942,-0.04218423,-0.04123315
2568,2023-01-20 11:08:49.335395,163596061,0,0.1009065,0.108672,0.117544,0.1152743,0.1049831,-0.05072865,-0.05753325,-0.05225942,-0.04218423,-0.04123315
2609,2023-01-20 11:08:49.441806,163696078,0,0.002046801,0.01160018,0.02270582,0.0200225,0.007245012,0.0350487,0.02647995,0.03291065,0.04546832,0.04679042
2649,2023-01-20 11:08:49.541748,163796085,0,0.002046801,0.01160018,0.02270582,0.0200225,0.007245012,0.0350487,0.02647995,0.03291065,0.04546832,0.04679042
2689,2023-01-20 11:08:49.637949,163896065,0,0.08845954,0.09899079,0.1113203,0.1084171,0.09427533,-0.01134227,-0.02087823,-0.01381875,0.000100214,0.001631286
2727,2023-01-20 11:08:49.728987,163996078,0,0.08845954,0.09899079,0.1113203,0.1084171,0.09427533,-0.01134227,-0.02087823,-0.01381875,0.000100214,0.001631286
2770,2023-01-20 11:08:49.821975,164096071,0,-0.0640469,-0.05331901,-0.04043818,-0.04320738,-0.05781285,-0.09624901,-0.1062949,-0.09920353,-0.08474909,-0.08292966
2808,2023-01-20 11:08:49.921949,164196069,0,-0.0640469,-0.05331901,-0.04043818,-0.04320738,-0.05781285,-0.09624901,-0.1062949,-0.09920353,-0.08474909,-0.08292966
2850,2023-01-20 11:08:50.021935,164296065,0,-0.1421199,-0.1322896,-0.1230378,-0.1271539,-0.1389514,0.174592,0.1680632,0.1753936,0.1864618,0.185962
2889,2023-01-20 11:08:50.121980,164396072,0,-0.1421199,-0.1322896,-0.1230378,-0.1271539,-0.1389514,0.174592,0.1680632,0.1753936,0.1864618,0.185962
2932,2023-01-20 11:08:50.221993,164496065,0,-0.1235455,-0.1112284,-0.0978802,-0.101929,-0.1178107,-0.003154367,-0.01318114,-0.004581921,0.01078739,0.01167481
2970,2023-01-20 11:08:50.321958,164596070,0,-0.1235455,-0.1112284,-0.0978802,-0.101929,-0.1178107,-0.003154367,-0.01318114,-0.004581921,0.01078739,0.01167481
3010,2023-01-20 11:08:50.421912,164696066,0,-0.01180595,-0.001700558,0.0143364,0.01418545,-0.001985613,0.04911319,0.03552509,0.04091518,0.05784547,0.06293486
3052,2023-01-20 11:08:50.521868,164796070,0,-0.01180595,-0.001700558,0.0143364,0.01418545,-0.001985613,0.04911319,0.03552509,0.04091518,0.05784547,0.06293486
3092,2023-01-20 11:08:50.621843,164896069,0,0.03710226,0.0496056,0.06163767,0.0566089,0.04142086,-0.05235887,-0.06094691,-0.05173494,-0.03742385,-0.03779312
3130,2023-01-20 11:08:50.721915,164996083,0,0.03710226,0.0496056,0.06163767,0.0566089,0.04142086,-0.05235887,-0.06094691,-0.05173494,-0.03742385,-0.03779312
3171,2023-01-20 11:08:50.821937,165096074,0,0.08026058,0.09244959,0.1032837,0.0978163,0.08356855,-0.001067955,-0.008496903,0.0007813424,0.01396887,0.01283584
3209,2023-01-20 11:08:50.921874,165196076,0,0.08026058,0.09244959,0.1032837,0.0978163,0.08356855,-0.001067955,-0.008496903,0.0007813424,0.01396887,0.01283584
3251,2023-01-20 11:08:51.021836,165296085,0,0.1579533,0.1704762,0.1773019,0.1690019,0.1570279,-0.06786595,-0.07096373,-0.06002113,-0.05013385,-0.05498532
3289,2023-01-20 11:08:51.121840,165396074,0,0.1579533,0.1704762,0.1773019,0.1690019,0.1570279,-0.06786595,-0.07096373,-0.06002113,-0.05013385,-0.05498532
3332,2023-01-20 11:08:51.221846,165496079,0,0.0739055,0.09214441,0.1148889,0.1107013,0.08535602,-0.03144107,-0.04941482,-0.0376298,-0.01234225,-0.008527167
3370,2023-01-20 11:08:51.321810,165596086,0,0.0739055,0.09214441,0.1148889,0.1107013,0.08535602,-0.03144107,-0.04941482,-0.0376298,-0.01234225,-0.008527167
3410,2023-01-20 11:08:51.421759,165696074,0,0.06845253,0.08953533,0.1051138,0.09360307,0.07094324,0.1315285,0.1220265,0.1391579,0.1592703,0.1545171
3450,2023-01-20 11:08:51.521744,165796075,0,0.06845253,0.08953533,0.1051138,0.09360307,0.07094324,0.1315285,0.1220265,0.1391579,0.1592703,0.1545171
3491,2023-01-20 11:08:51.621735,165896078,0,-0.2657443,-0.2509703,-0.2312523,-0.2338948,-0.2552592,0.06061865,0.04474819,0.05388753,0.07550563,0.07961374
3528,2023-01-20 11:08:51.721737,165996073,0,-0.2657443,-0.2509703,-0.2312523,-0.2338948,-0.2552592,0.06061865,0.04474819,0.05388753,0.07550563,0.07961374
3571,2023-01-20 11:08:51.821756,166096087,0,0.0134,0.02058495,0.0316979,0.03139992,0.02007043,-0.01798009,-0.02732318,-0.02339447,-0.01159288,-0.00824203
3609,2023-01-20 11:08:51.921747,166196081,0,0.0134,0.02058495,0.0316979,0.03139992,0.02007043,-0.01798009,-0.02732318,-0.02339447,-0.01159288,-0.00824203
3651,2023-01-20 11:08:52.021742,166296076,0,-0.0325388,-0.02334301,-0.007164963,-0.006336696,-0.02204773,-0.05398217,-0.06799442,-0.0636027,-0.04683372,-0.04088169
3687,2023-01-20 11:08:52.121747,166396074,0,-0.0325388,-0.02334301,-0.007164963,-0.006336696,-0.02204773,-0.05398217,-0.06799442,-0.0636027,-0.04683372,-0.04088169
3722,2023-01-20 11:08:52.221760,166496082,0,-0.1495579,-0.1411387,-0.1216575,-0.1180114,-0.1352798,0.09887145,0.08113079,0.08363396,0.1029574,0.112382
3752,2023-01-20 11:08:52.321747,166596072,0,-0.1495579,-0.1411387,-0.1216575,-0.1180114,-0.1352798,0.09887145,0.08113079,0.08363396,0.1029574,0.112382
3785,2023-01-20 11:08:52.421755,166696087,0,-0.1569372,-0.1414856,-0.129091,-0.1368377,-0.1540769,0.01834763,0.01033733,0.02252714,0.03810771,0.03554328
3817,2023-01-20 11:08:52.521746,166796104,0,-0.1569372,-0.1414856,-0.129091,-0.1368377,-0.1540769,0.01834763,0.01033733,0.02252714,0.03810771,0.03554328
3850,2023-01-20 11:08:52.621713,166896084,0,-0.1137308,-0.09356921,-0.07077545,-0.07672004,-0.1033121,0.02503579,0.007593054,0.02131199,0.04726792,0.0496385
3880,2023-01-20 11:08:52.721736,166996074,0,-0.1137308,-0.09356921,-0.07077545,-0.07672004,-0.1033121,0.02503579,0.007593054,0.02131199,0.04726792,0.0496385
3915,2023-01-20 11:08:52.821776,167096088,0,0.04330666,0.06013506,0.06864002,0.05716312,0.04144674,-0.02219155,-0.02566537,-0.01079647,0.001938254,-0.005062517
3945,2023-01-20 11:08:52.921760,167196070,0,0.04330666,0.06013506,0.06864002,0.05716312,0.04144674,-0.02219155,-0.02566537,-0.01079647,0.001938254,-0.005062517
3980,2023-01-20 11:08:53.021775,167296091,0,0.1061107,0.1257652,0.1452825,0.1378389,0.1135828,-0.06554922,-0.07971862,-0.0654778,-0.04247476,-0.04243812
4010,2023-01-20 11:08:53.121735,167396082,0,0.1061107,0.1257652,0.1452825,0.1378389,0.1135828,-0.06554922,-0.07971862,-0.0654778,-0.04247476,-0.04243812
4045,2023-01-20 11:08:53.221700,167496069,0,-0.2896957,-0.2754782,-0.257383,-0.260338,-0.2803273,0.1245936,0.1101644,0.1191913,0.1392073,0.1425904
4075,2023-01-20 11:08:53.321721,167596080,0,-0.2896957,-0.2754782,-0.257383,-0.260338,-0.2803273,0.1245936,0.1101644,0.1191913,0.1392073,0.1425904
4108,2023-01-20 11:08:53.421714,167696074,0,-0.1688794,-0.1562372,-0.1395977,-0.1418058,-0.1599229,0.02150973,0.008066812,0.01587638,0.03413264,0.03770463
4140,2023-01-20 11:08:53.521678,167796078,0,-0.1688794,-0.1562372,-0.1395977,-0.1418058,-0.1599229,0.02150973,0.008066812,0.01587638,0.03413264,0.03770463
4173,2023-01-20 11:08:53.621652,167896077,0,-0.01482127,-0.006420919,0.002608492,-0.0001016385,-0.01089077,-0.06154909,-0.0683518,-0.06250972,-0.05210158,-0.05144291
4203,2023-01-20 11:08:53.721680,167996073,0,-0.01482127,-0.006420919,0.002608492,-0.0001016385,-0.01089077,-0.06154909,-0.0683518,-0.06250972,-0.05210158,-0.05144291
4238,2023-01-20 11:08:53.821712,168096084,0,0.3035522,0.3205121,0.3074363,0.2824297,0.2798735,0.009336536,0.02869849,0.05071865,0.04522024,0.01961611
4268,2023-01-20 11:08:53.921691,168196079,0,0.3035522,0.3205121,0.3074363,0.2824297,0.2798735,0.009336536,0.02869849,0.05071865,0.04522024,0.01961611
4304,2023-01-20 11:08:54.021678,168296082,0,-0.2505766,-0.2378543,-0.2760996,-0.3123754,-0.296853,-0.01822216,0.02627855,0.05196976,0.02374989,-0.01965831
4335,2023-01-20 11:08:54.121670,168396087,0,-0.2505766,-0.2378543,-0.2760996,-0.3123754,-0.296853,-0.01822216,0.02627855,0.05196976,0.02374989,-0.01965831
4370,2023-01-20 11:08:54.221652,168496074,0,-0.3535397,-0.357538,-0.4478847,-0.5003514,-0.4421221,0.1962922,0.2903434,0.315768,0.2377685,0.1634917
4400,2023-01-20 11:08:54.321685,168596082,0,-0.3535397,-0.357538,-0.4478847,-0.5003514,-0.4421221,0.1962922,0.2903434,0.315768,0.2377685,0.1634917
4433,2023-01-20 11:08:54.421693,168696079,0,-0.09797521,-0.05769933,-0.1282972,-0.213998,-0.1937712,-0.1064783,-0.01944374,0.04711215,-0.0007124338,-0.09633762
4465,2023-01-20 11:08:54.521650,168796074,0,-0.09797521,-0.05769933,-0.1282972,-0.213998,-0.1937712,-0.1064783,-0.01944374,0.04711215,-0.0007124338,-0.09633762
4498,2023-01-20 11:08:54.621624,168896073,0,0.2881752,0.4062591,0.3293009,0.1580879,0.1345232,-0.07935238,0.04114546,0.1934667,0.1658065,-0.005869098
4528,2023-01-20 11:08:54.721641,168996074,0,0.2881752,0.4062591,0.3293009,0.1580879,0.1345232,-0.07935238,0.04114546,0.1934667,0.1658065,-0.005869098
4563,2023-01-20 11:08:54.821676,169096094,0,0.2679295,0.4301372,0.2803487,0.02389805,0.02182479,0.05248256,0.2592475,0.4808877,0.4021037,0.1381606
4593,2023-01-20 11:08:54.921667,169196074,0,0.2679295,0.4301372,0.2803487,0.02389805,0.02182479,0.05248256,0.2592475,0.4808877,0.4021037,0.1381606
4628,2023-01-20 11:08:55.021681,169296077,0,0.2522193,0.4920584,0.4714946,0.2091022,0.08968352,-0.1351889,-0.04302597,0.2250051,0.2744238,0.05110261
4658,2023-01-20 11:08:55.121703,169396089,0,0.2522193,0.4920584,0.4714946,0.2091022,0.08968352,-0.1351889,-0.04302597,0.2250051,0.2744238,0.05110261
4693,2023-01-20 11:08:55.221693,169496072,0,-0.2952429,-0.04985614,-0.0008746237,-0.2357352,-0.3945723,-0.1377204,-0.1173515,0.1403549,0.2467861,0.07070017
4723,2023-01-20 11:08:55.321687,169596072,0,-0.2952429,-0.04985614,-0.0008746237,-0.2357352,-0.3945723,-0.1377204,-0.1173515,0.1403549,0.2467861,0.07070017
4756,2023-01-20 11:08:55.421686,169696081,0,0.0184723,0.1420223,0.2643754,0.1984527,0.05272018,0.09145276,0.006972626,0.1068474,0.249267,0.2302403
4790,2023-01-20 11:08:55.521647,169796070,0,0.0184723,0.1420223,0.2643754,0.1984527,0.05272018,0.09145276,0.006972626,0.1068474,0.249267,0.2302403
4823,2023-01-20 11:08:55.621640,169896078,0,-0.0786984,-0.03964806,0.192363,0.2747379,0.1008758,-0.09341045,-0.3094431,-0.3363127,-0.1170313,0.01604498
4853,2023-01-20 11:08:55.721683,169996092,0,-0.0786984,-0.03964806,0.192363,0.2747379,0.1008758,-0.09341045,-0.3094431,-0.3363127,-0.1170313,0.01604498
4888,2023-01-20 11:08:55.821690,170096077,0,0.03641433,-0.004227787,0.2494012,0.4247591,0.2769146,-0.1015603,-0.3584012,-0.479498,-0.2591911,-0.04667963
4918,2023-01-20 11:08:55.921693,170196083,0,0.03641433,-0.004227787,0.2494012,0.4247591,0.2769146,-0.1015603,-0.3584012,-0.479498,-0.2591911,-0.04667963
4953,2023-01-20 11:08:56.021701,170296092,0,-0.07175436,-0.2355638,-0.05359332,0.2269125,0.179943,0.08332941,-0.136521,-0.3820759,-0.2499282,0.02460894
4983,2023-01-20 11:08:56.121684,170396068,0,-0.07175436,-0.2355638,-0.05359332,0.2269125,0.179943,0.08332941,-0.136521,-0.3820759,-0.2499282,0.02460894
5018,2023-01-20 11:08:56.221691,170496070,0,-0.3475466,-0.5514226,-0.4380143,-0.1416731,-0.1270024,0.02173151,-0.1442423,-0.4192209,-0.3565783,-0.08824005
5048,2023-01-20 11:08:56.321708,170596089,0,-0.3475466,-0.5514226,-0.4380143,-0.1416731,-0.1270024,0.02173151,-0.1442423,-0.4192209,-0.3565783,-0.08824005
5081,2023-01-20 11:08:56.421682,170696072,0,0.2959611,0.0425953,0.08348031,0.4013684,0.4796057,0.03636461,-0.06872125,-0.3838456,-0.3906375,-0.1306746
5113,2023-01-20 11:08:56.521656,170796078,0,0.2959611,0.0425953,0.08348031,0.4013684,0.4796057,0.03636461,-0.06872125,-0.3838456,-0.3906375,-0.1306746
5146,2023-01-20 11:08:56.621642,170896082,0,-0.1947139,-0.4235283,-0.3533038,-0.03637067,0.008890554,-0.0912753,-0.2233879,-0.5236678,-0.4991887,-0.2279634
5176,2023-01-20 11:08:56.721666,170996072,0,-0.1947139,-0.4235283,-0.3533038,-0.03637067,0.008890554,-0.0912753,-0.2233879,-0.5236678,-0.4991887,-0.2279634
5211,2023-01-20 11:08:56.821700,171096081,0,-0.2497858,-0.5139151,-0.4410627,-0.06929028,-0.02541803,0.1188476,-0.02069135,-0.3747404,-0.3421103,-0.03360862
5241,2023-01-20 11:08:56.921704,171196093,0,-0.2497858,-0.5139151,-0.4410627,-0.06929028,-0.02541803,0.1188476,-0.02069135,-0.3747404,-0.3421103,-0.03360862
5276,2023-01-20 11:08:57.021684,171296077,0,0.3379152,0.06114557,0.07020386,0.4327924,0.5181941,0.2209892,0.1395274,-0.2167193,-0.239406,0.04161905
5307,2023-01-20 11:08:57.121683,171396068,0,0.3379152,0.06114557,0.07020386,0.4327924,0.5181941,0.2209892,0.1395274,-0.2167193,-0.239406,0.04161905
5342,2023-01-20 11:08:57.221694,171496072,0,0.4084286,0.1066912,0.07285875,0.4563522,0.5867306,-0.1042937,-0.1641318,-0.5392215,-0.6145959,-0.3183087
5372,2023-01-20 11:08:57.321696,171596072,0,0.4084286,0.1066912,0.07285875,0.4563522,0.5867306,-0.1042937,-0.1641318,-0.5392215,-0.6145959,-0.3183087
5405,2023-01-20 11:08:57.421693,171696076,0,0.2161885,-0.06182821,-0.1517224,0.2003736,0.3646512,-0.07225922,-0.09290746,-0.4271371,-0.5625706,-0.28978
5437,2023-01-20 11:08:57.521654,171796073,0,0.2161885,-0.06182821,-0.1517224,0.2003736,0.3646512,-0.07225922,-0.09290746,-0.4271371,-0.5625706,-0.28978
5470,2023-01-20 11:08:57.621639,171896079,0,0.08139925,-0.195119,-0.3866958,-0.07102387,0.1741178,0.1799895,0.2359139,-0.0650876,-0.3115098,-0.07645477
5500,2023-01-20 11:08:57.721665,171996072,0,0.08139925,-0.195119,-0.3866958,-0.07102387,0.1741178,0.1799895,0.2359139,-0.0650876,-0.3115098,-0.07645477
5535,2023-01-20 11:08:57.821714,172096096,0,0.2889544,0.07631728,-0.1771366,0.01498508,0.2885686,0.1729991,0.3046654,0.1105077,-0.1909725,-0.06665595
5565,2023-01-20 11:08:57.921687,172196074,0,0.2889544,0.07631728,-0.1771366,0.01498508,0.2885686,0.1729991,0.3046654,0.1105077,-0.1909725,-0.06665595
5602,2023-01-20 11:08:58.021684,172296074,0,-0.1416197,-0.3078649,-0.5191309,-0.3790236,-0.1539035,-0.1317611,-0.016056,-0.1619152,-0.4109814,-0.325147
5632,2023-01-20 11:08:58.121681,172396068,0,-0.1416197,-0.3078649,-0.5191309,-0.3790236,-0.1539035,-0.1317611,-0.016056,-0.1619152,-0.4109814,-0.325147
5667,2023-01-20 11:08:58.221691,172496076,0,-0.2914016,-0.3231764,-0.4787295,-0.5100501,-0.3689464,-0.04132433,0.07499875,0.0912243,-0.08223917,-0.1260927
5697,2023-01-20 11:08:58.321694,172596080,0,-0.2914016,-0.3231764,-0.4787295,-0.5100501,-0.3689464,-0.04132433,0.07499875,0.0912243,-0.08223917,-0.1260927
5730,2023-01-20 11:08:58.421675,172696069,0,-0.1737666,0.0003042072,-0.03751342,-0.3384929,-0.3455818,-0.05754833,0.04233738,0.3035452,0.2809221,0.03150642
5762,2023-01-20 11:08:58.521661,172796090,0,-0.1737666,0.0003042072,-0.03751342,-0.3384929,-0.3455818,-0.05754833,0.04233738,0.3035452,0.2809221,0.03150642
5795,2023-01-20 11:08:58.621648,172896096,0,0.02020805,0.4335236,0.5360381,-0.09213556,-0.2718178,-0.05706134,0.0288303,0.5767482,0.7377161,0.2323276
5825,2023-01-20 11:08:58.721670,172996082,0,0.02020805,0.4335236,0.5360381,-0.09213556,-0.2718178,-0.05706134,0.0288303,0.5767482,0.7377161,0.2323276
5860,2023-01-20 11:08:58.821701,173096087,0,0.009621322,0.6135,0.972454,0.0754205,-0.3182261,-0.09949258,-0.1222014,0.6344222,1.08157,0.3867862
5890,2023-01-20 11:08:58.921696,173196099,0,0.009621322,0.6135,0.972454,0.0754205,-0.3182261,-0.09949258,-0.1222014,0.6344222,1.08157,0.3867862
5925,2023-01-20 11:08:59.019695,173296082,0,-0.3063086,0.379307,1.028727,-0.1021596,-0.6326286,0.109154,-0.04327685,0.8140104,1.552035,0.6985848
5957,2023-01-20 11:08:59.110593,173396083,0,-0.3063086,0.379307,1.028727,-0.1021596,-0.6326286,0.109154,-0.04327685,0.8140104,1.552035,0.6985848
5992,2023-01-20 11:08:59.201665,173496109,0,-0.3063086,0.379307,1.028727,-0.1021596,-0.6326286,0.109154,-0.04327685,0.8140104,1.552035,0.6985848
6022,2023-01-20 11:08:59.301649,173596090,0,-0.4113822,0.2389406,1.127896,-0.1516147,-0.7741797,-0.1043862,-0.3163214,0.468128,1.540205,0.4952187
6055,2023-01-20 11:08:59.401838,173696092,0,-0.4113822,0.2389406,1.127896,-0.1516147,-0.7741797,-0.1043862,-0.3163214,0.468128,1.540205,0.4952187
6086,2023-01-20 11:08:59.512945,173796083,0,-0.299775,0.2283526,1.171699,0.06317189,-0.6112827,-0.0813216,-0.3236735,0.2311144,1.466007,0.4665363
6119,2023-01-20 11:08:59.619687,173896085,0,-0.2433222,0.2138249,1.297796,0.3694156,-0.4848186,-0.2261289,-0.5502062,-0.2143359,1.325458,0.3491763
6149,2023-01-20 11:08:59.710580,173996073,0,-0.2433222,0.2138249,1.297796,0.3694156,-0.4848186,-0.2261289,-0.5502062,-0.2143359,1.325458,0.3491763
6185,2023-01-20 11:08:59.801677,174096118,0,-0.2433222,0.2138249,1.297796,0.3694156,-0.4848186,-0.2261289,-0.5502062,-0.2143359,1.325458,0.3491763
6215,2023-01-20 11:08:59.901607,174196077,0,0.08962035,0.530292,1.949851,1.186561,-0.05541849,-0.3435172,-0.8447351,-0.7642865,1.404357,0.3719882
6250,2023-01-20 11:09:00.001602,174296103,0,0.08962035,0.530292,1.949851,1.186561,-0.05541849,-0.3435172,-0.8447351,-0.7642865,1.404357,0.3719882
6280,2023-01-20 11:09:00.101506,174396081,0,-0.6195644,-0.2827219,1.449603,0.9411473,-0.6355211,-0.06591016,-0.7410762,-1.097469,1.78535,0.7109388
6315,2023-01-20 11:09:00.201455,174496101,0,-0.6195644,-0.2827219,1.449603,0.9411473,-0.6355211,-0.06591016,-0.7410762,-1.097469,1.78535,0.7109388
6345,2023-01-20 11:09:00.301482,174596077,0,-0.4925839,-0.2472177,1.5049,1.363241,-0.435932,-0.1910045,-0.9133053,-1.613419,1.650078,0.600898
6378,2023-01-20 11:09:00.401565,174696110,0,-0.4925839,-0.2472177,1.5049,1.363241,-0.435932,-0.1910045,-0.9133053,-1.613419,1.650078,0.600898
6412,2023-01-20 11:09:00.501498,174796097,0,-0.1656688,-0.0490514,1.565632,1.828132,-0.0344094,0.1376846,-0.5759483,-1.612224,1.814362,0.8631414
6445,2023-01-20 11:09:00.601453,174896106,0,-0.1656688,-0.0490514,1.565632,1.828132,-0.0344094,0.1376846,-0.5759483,-1.612224,1.814362,0.8631414
6475,2023-01-20 11:09:00.701460,174996080,0,-0.2554393,-0.237524,1.09849,1.75987,-0.1101148,-0.1154298,-0.7490392,-2.012129,1.406315,0.5165742
6511,2023-01-20 11:09:00.801516,175096104,0,-0.2554393,-0.237524,1.09849,1.75987,-0.1101148,-0.1154298,-0.7490392,-2.012129,1.406315,0.5165742
6541,2023-01-20 11:09:00.901477,175196089,0,-0.1463165,-0.2341456,0.7665586,1.886677,0.05224419,-0.1841265,-0.7444719,-2.186432,1.028133,0.3421068
6576,2023-01-20 11:09:01.001495,175296130,0,-0.1463165,-0.2341456,0.7665586,1.886677,0.05224419,-0.1841265,-0.7444719,-2.186432,1.028133,0.3421068
6606,2023-01-20 11:09:01.101535,175396094,0,-0.3010011,-0.4586563,0.2225971,1.65634,-0.07815313,0.1108536,-0.3669578,-1.869583,1.050837,0.534343
6641,2023-01-20 11:09:01.201645,175496131,0,-0.3010011,-0.4586563,0.2225971,1.65634,-0.07815313,0.1108536,-0.3669578,-1.869583,1.050837,0.534343
6671,2023-01-20 11:09:01.301523,175596077,0,-0.3936038,-0.5604122,-0.09985828,1.339702,-0.1906586,-0.1107462,-0.5018892,-1.866284,0.6307287,0.2291141
6704,2023-01-20 11:09:01.401499,175696120,0,-0.3936038,-0.5604122,-0.09985828,1.339702,-0.1906586,-0.1107462,-0.5018892,-1.866284,0.6307287,0.2291141
6736,2023-01-20 11:09:01.501437,175796085,0,-0.2489101,-0.4033639,-0.1310719,1.055659,-0.09226644,-0.173731,-0.4601579,-1.531384,0.3298761,0.05604064
6769,2023-01-20 11:09:01.601440,175896115,0,-0.2489101,-0.4033639,-0.1310719,1.055659,-0.09226644,-0.173731,-0.4601579,-1.531384,0.3298761,0.05604064
6800,2023-01-20 11:09:01.701401,175996071,0,0.07595611,-0.04776132,0.1323459,0.9680029,0.1758567,-0.02200404,-0.224838,-0.9928672,0.3306102,0.1247901
6835,2023-01-20 11:09:01.801424,176096088,0,0.07595611,-0.04776132,0.1323459,0.9680029,0.1758567,-0.02200404,-0.224838,-0.9928672,0.3306102,0.1247901
6865,2023-01-20 11:09:01.901423,176196083,0,-0.1403515,-0.2310234,-0.1774596,0.2933298,-0.1016338,-0.02391768,-0.1298452,-0.5324112,0.1022558,0.02519408
6900,2023-01-20 11:09:02.001454,176296110,0,-0.1403515,-0.2310234,-0.1774596,0.2933298,-0.1016338,-0.02391768,-0.1298452,-0.5324112,0.1022558,0.02519408
6930,2023-01-20 11:09:02.101428,176396072,0,-0.1733606,-0.2353415,-0.245778,-0.06293893,-0.1776664,0.09166314,0.04906693,-0.09277079,0.08385365,0.07927449
6965,2023-01-20 11:09:02.201466,176496098,0,-0.1733606,-0.2353415,-0.245778,-0.06293893,-0.1776664,0.09166314,0.04906693,-0.09277079,0.08385365,0.07927449
6995,2023-01-20 11:09:02.301454,176596082,0,-0.1042755,-0.1668504,-0.3174323,-0.176609,-0.1152248,-0.0497849,-0.03735593,-0.01483506,-0.2734537,-0.1236356
7028,2023-01-20 11:09:02.401486,176696112,0,-0.1042755,-0.1668504,-0.3174323,-0.176609,-0.1152248,-0.0497849,-0.03735593,-0.01483506,-0.2734537,-0.1236356
7060,2023-01-20 11:09:02.501407,176796082,0,-0.1203839,-0.1790969,-0.3962401,-0.2952013,-0.1364585,0.1701182,0.2132793,0.3290764,-0.1569851,0.06566527
7093,2023-01-20 11:09:02.601376,176896098,0,-0.1203839,-0.1790969,-0.3962401,-0.2952013,-0.1364585,0.1701182,0.2132793,0.3290764,-0.1569851,0.06566527
7123,2023-01-20 11:09:02.701395,176996072,0,-0.5881469,-0.650198,-0.9419504,-0.8244562,-0.600494,-0.02168196,0.04679057,0.2261776,-0.4622983,-0.1542241
7158,2023-01-20 11:09:02.801462,177096095,0,-0.5881469,-0.650198,-0.9419504,-0.8244562,-0.600494,-0.02168196,0.04679057,0.2261776,-0.4622983,-0.1542241
7188,2023-01-20 11:09:02.901450,177196088,0,-0.4975406,-0.5352916,-0.8186503,-0.9188119,-0.5418556,0.143225,0.2441104,0.5682552,-0.3267438,-0.01664653
7223,2023-01-20 11:09:03.001489,177296131,0,-0.4975406,-0.5352916,-0.8186503,-0.9188119,-0.5418556,0.143225,0.2441104,0.5682552,-0.3267438,-0.01664653
7253,2023-01-20 11:09:03.101441,177396095,0,-0.4913068,-0.5064692,-0.706656,-0.9652967,-0.5559776,-0.1502899,-0.05245811,0.3012333,-0.5313227,-0.29748
7288,2023-01-20 11:09:03.201441,177496106,0,-0.4913068,-0.5064692,-0.706656,-0.9652967,-0.5559776,-0.1502899,-0.05245811,0.3012333,-0.5313227,-0.29748
7318,2023-01-20 11:09:03.301418,177596087,0,-0.4922555,-0.4716796,-0.4909616,-0.9633945,-0.5843036,0.001762141,0.06919183,0.382008,-0.1342596,-0.09427315
7351,2023-01-20 11:09:03.401444,177696118,0,-0.4922555,-0.4716796,-0.4909616,-0.9633945,-0.5843036,0.001762141,0.06919183,0.382008,-0.1342596,-0.09427315
7383,2023-01-20 11:09:03.501422,177796095,0,-0.6959971,-0.6211004,-0.4004359,-1.231552,-0.8377792,0.2102856,0.2438644,0.5439368,0.4007604,0.1746333
7416,2023-01-20 11:09:03.601435,177896107,0,-0.6959971,-0.6211004,-0.4004359,-1.231552,-0.8377792,0.2102856,0.2438644,0.5439368,0.4007604,0.1746333
7447,2023-01-20 11:09:03.701428,177996087,0,-0.220309,-0.1099548,0.2851962,-0.7425376,-0.3894491,-0.0632208,-0.06553599,0.1707258,0.3922088,-0.04169169
7482,2023-01-20 11:09:03.801439,178096086,0,-0.220309,-0.1099548,0.2851962,-0.7425376,-0.3894491,-0.0632208,-0.06553599,0.1707258,0.3922088,-0.04169169
7512,2023-01-20 11:09:03.901412,178196072,0,-0.1816045,-0.05526131,0.4251975,-0.6751228,-0.359663,-0.03835106,-0.0622443,0.127123,0.5560746,0.01630586
7547,2023-01-20 11:09:04.001448,178296120,0,-0.1816045,-0.05526131,0.4251975,-0.6751228,-0.359663,-0.03835106,-0.0622443,0.127123,0.5560746,0.01630586
7577,2023-01-20 11:09:04.101391,178396072,0,-0.4041323,-0.2934848,0.1821888,-0.7323229,-0.552055,0.02773672,-0.02250779,0.04623288,0.6652559,0.111186
7613,2023-01-20 11:09:04.201395,178496084,0,-0.4041323,-0.2934848,0.1821888,-0.7323229,-0.552055,0.02773672,-0.02250779,0.04623288,0.6652559,0.111186
7643,2023-01-20 11:09:04.301415,178596080,0,-0.3004359,-0.2046381,0.2608683,-0.4656221,-0.419196,0.08793706,0.01249576,-0.03300148,0.7667985,0.1994315
7676,2023-01-20 11:09:04.401466,178696108,0,-0.3004359,-0.2046381,0.2608683,-0.4656221,-0.419196,0.08793706,0.01249576,-0.03300148,0.7667985,0.1994315
7708,2023-01-20 11:09:04.501419,178796077,0,-0.7097718,-0.6168125,-0.1375938,-0.7937304,-0.8172563,-0.04411685,-0.1361322,-0.2438833,0.68888,0.08854049
7741,2023-01-20 11:09:04.601443,178896117,0,-0.7097718,-0.6168125,-0.1375938,-0.7937304,-0.8172563,-0.04411685,-0.1361322,-0.2438833,0.68888,0.08854049
7771,2023-01-20 11:09:04.701423,178996072,0,-0.3006967,-0.2205978,0.2310419,-0.2683936,-0.384594,-0.00273186,-0.10877,-0.2843147,0.7303715,0.1444789
7806,2023-01-20 11:09:04.801461,179096086,0,-0.3006967,-0.2205978,0.2310419,-0.2683936,-0.384594,-0.00273186,-0.10877,-0.2843147,0.7303715,0.1444789
7836,2023-01-20 11:09:04.901417,179196079,0,-0.2491496,-0.1770865,0.2505874,-0.1684436,-0.3202882,0.0382694,-0.07084274,-0.272431,0.7533766,0.1879291
7871,2023-01-20 11:09:05.001420,179296118,0,-0.2491496,-0.1770865,0.2505874,-0.1684436,-0.3202882,0.0382694,-0.07084274,-0.272431,0.7533766,0.1879291
7901,2023-01-20 11:09:05.101397,179396072,0,-0.2259642,-0.1680425,0.1997764,-0.1126657,-0.2804868,-0.02458051,-0.1263259,-0.3323027,0.60983,0.1127243
7936,2023-01-20 11:09:05.201442,179496094,0,-0.2259642,-0.1680425,0.1997764,-0.1126657,-0.2804868,-0.02458051,-0.1263259,-0.3323027,0.60983,0.1127243
7966,2023-01-20 11:09:05.301434,179596072,0,-0.2823786,-0.2551272,0.013161,-0.05087888,-0.2982674,0.08356613,-0.01636696,-0.2708616,0.5962703,0.2098347
8000,2023-01-20 11:09:05.401499,179696124,0,-0.2823786,-0.2551272,0.013161,-0.05087888,-0.2982674,0.08356613,-0.01636696,-0.2708616,0.5962703,0.2098347
8034,2023-01-20 11:09:05.501438,179796119,0,0.03692114,0.05651057,0.3114257,0.331231,0.0343585,0.05629361,-0.05116877,-0.3421988,0.5690736,0.1901806
8067,2023-01-20 11:09:05.601379,179896114,0,0.03692114,0.05651057,0.3114257,0.331231,0.0343585,0.05629361,-0.05116877,-0.3421988,0.5690736,0.1901806
8097,2023-01-20 11:09:05.701420,179996095,0,-0.5536566,-0.5359319,-0.2323154,-0.1235244,-0.5423707,0.0538933,-0.08697724,-0.4857762,0.6960835,0.2294236
8132,2023-01-20 11:09:05.801478,180096094,0,-0.5536566,-0.5359319,-0.2323154,-0.1235244,-0.5423707,0.0538933,-0.08697724,-0.4857762,0.6960835,0.2294236
8162,2023-01-20 11:09:05.901415,180196071,0,-0.3094295,-0.2934747,0.0355556,0.2058047,-0.2883513,0.07272887,-0.08807671,-0.5502646,0.7860571,0.2728995
8197,2023-01-20 11:09:06.001418,180296113,0,-0.3094295,-0.2934747,0.0355556,0.2058047,-0.2883513,0.07272887,-0.08807671,-0.5502646,0.7860571,0.2728995
8227,2023-01-20 11:09:06.101398,180396084,0,-0.7302455,-0.717256,-0.3761774,-0.1450453,-0.7001913,-0.03033262,-0.2058794,-0.7201684,0.7361803,0.1882335
8262,2023-01-20 11:09:06.201419,180496096,0,-0.7302455,-0.717256,-0.3761774,-0.1450453,-0.7001913,-0.03033262,-0.2058794,-0.7201684,0.7361803,0.1882335
8292,2023-01-20 11:09:06.301393,180596072,0,-0.1629351,-0.1585099,0.1802859,0.5143465,-0.1166308,0.4656245,0.2750207,-0.2998574,1.259708,0.7005404
8325,2023-01-20 11:09:06.401425,180696107,0,-0.1629351,-0.1585099,0.1802859,0.5143465,-0.1166308,0.4656245,0.2750207,-0.2998574,1.259708,0.7005404
8357,2023-01-20 11:09:06.501396,180796070,0,-0.6541851,-0.6616428,-0.3847296,0.04422879,-0.595542,-0.09431051,-0.2756187,-0.8406004,0.6274095,0.1271889
8390,2023-01-20 11:09:06.601442,180896108,0,-0.6541851,-0.6616428,-0.3847296,0.04422879,-0.595542,-0.09431051,-0.2756187,-0.8406004,0.6274095,0.1271889
8420,2023-01-20 11:09:06.701402,180996072,0,-0.6140226,-0.6476124,-0.4732369,0.1388655,-0.5267522,-0.07096215,-0.2383867,-0.8059573,0.498466,0.1255273
8455,2023-01-20 11:09:06.801415,181096089,0,-0.6140226,-0.6476124,-0.4732369,0.1388655,-0.5267522,-0.07096215,-0.2383867,-0.8059573,0.498466,0.1255273
8485,2023-01-20 11:09:06.901413,181196074,0,-0.458045,-0.5321816,-0.4967932,0.4300495,-0.3225198,0.05286262,-0.1060826,-0.7163942,0.4383855,0.2266354
8520,2023-01-20 11:09:07.001460,181296109,0,-0.458045,-0.5321816,-0.4967932,0.4300495,-0.3225198,0.05286262,-0.1060826,-0.7163942,0.4383855,0.2266354
8550,2023-01-20 11:09:07.101421,181396067,0,-0.2342225,-0.3602865,-0.5117399,0.8166821,-0.03801942,0.1686599,0.02438524,-0.6274614,0.3036298,0.3087448
8585,2023-01-20 11:09:07.201456,181496100,0,-0.2342225,-0.3602865,-0.5117399,0.8166821,-0.03801942,0.1686599,0.02438524,-0.6274614,0.3036298,0.3087448
8615,2023-01-20 11:09:07.301445,181596087,0,-0.2974329,-0.4518607,-0.7720726,0.70487,-0.07930565,-0.008133471,-0.1056101,-0.6586317,-0.1688362,0.06562173
8649,2023-01-20 11:09:07.401486,181696127,0,-0.2974329,-0.4518607,-0.7720726,0.70487,-0.07930565,-0.008133471,-0.1056101,-0.6586317,-0.1688362,0.06562173
8681,2023-01-20 11:09:07.501444,181796097,0,-0.4073185,-0.5763902,-1.021179,0.5011835,-0.1833503,0.1056505,0.052867,-0.3853318,-0.2921148,0.1198581
8714,2023-01-20 11:09:07.601455,181896120,0,-0.4073185,-0.5763902,-1.021179,0.5011835,-0.1833503,0.1056505,0.052867,-0.3853318,-0.2921148,0.1198581
8744,2023-01-20 11:09:07.701441,181996085,0,-0.442783,-0.5990489,-1.084187,0.2503344,-0.2476456,0.09071589,0.08402359,-0.1885181,-0.4529412,0.05139196
8779,2023-01-20 11:09:07.801466,182096090,0,-0.442783,-0.5990489,-1.084187,0.2503344,-0.2476456,0.09071589,0.08402359,-0.1885181,-0.4529412,0.05139196
8809,2023-01-20 11:09:07.901447,182196083,0,-0.5573959,-0.6830763,-1.134163,-0.1211245,-0.410533,0.1426289,0.1720514,0.06501651,-0.4434314,0.0671345
8844,2023-01-20 11:09:08.001463,182296111,0,-0.5573959,-0.6830763,-1.134163,-0.1211245,-0.410533,0.1426289,0.1720514,0.06501651,-0.4434314,0.0671345
8874,2023-01-20 11:09:08.101411,182396077,0,-0.2504081,-0.3457309,-0.7067134,0.05004609,-0.14196,0.1991157,0.2309709,0.1811616,-0.2846846,0.1298323
8909,2023-01-20 11:09:08.201428,182496112,0,-0.2504081,-0.3457309,-0.7067134,0.05004609,-0.14196,0.1991157,0.2309709,0.1811616,-0.2846846,0.1298323
8939,2023-01-20 11:09:08.301411,182596072,0,-0.3829758,-0.4784252,-0.8014006,0.01470906,-0.2664628,-0.0007761121,0.00574106,-0.1278118,-0.370718,-0.03737539
8972,2023-01-20 11:09:08.401476,182696114,0,-0.3829758,-0.4784252,-0.8014006,0.01470906,-0.2664628,-0.0007761121,0.00574106,-0.1278118,-0.370718,-0.03737539
9004,2023-01-20 11:09:08.501407,182796077,0,-0.4810928,-0.5710607,-0.8278977,0.01074126,-0.3620337,0.02887768,0.003922403,-0.2261395,-0.1768074,0.03460449
9037,2023-01-20 11:09:08.601410,182896111,0,-0.4810928,-0.5710607,-0.8278977,0.01074126,-0.3620337,0.02887768,0.003922403,-0.2261395,-0.1768074,0.03460449
9067,2023-01-20 11:09:08.701413,182996081,0,-0.5142449,-0.6019912,-0.8395846,0.003045708,-0.3950268,0.05048746,0.01657736,-0.2418214,-0.104107,0.06873077
9102,2023-01-20 11:09:08.801449,183096085,0,-0.5142449,-0.6019912,-0.8395846,0.003045708,-0.3950268,0.05048746,0.01657736,-0.2418214,-0.104107,0.06873077
9134,2023-01-20 11:09:08.901434,183196083,0,-0.55094,-0.6243302,-0.8215168,-0.1106089,-0.4507898,0.05188996,0.02168137,-0.2026223,-0.06615335,0.06971765
9169,2023-01-20 11:09:09.001328,183296120,0,-0.55094,-0.6243302,-0.8215168,-0.1106089,-0.4507898,0.05188996,0.02168137,-0.2026223,-0.06615335,0.06971765
9199,2023-01-20 11:09:09.092374,183396067,0,-0.5666085,-0.6303155,-0.8024515,-0.1842299,-0.479742,0.2619466,0.2357825,0.03982282,0.1609111,0.2774535
9231,2023-01-20 11:09:09.183498,183496100,0,-0.5666085,-0.6303155,-0.8024515,-0.1842299,-0.479742,0.2619466,0.2357825,0.03982282,0.1609111,0.2774535
9265,2023-01-20 11:09:09.281855,183596081,0,-0.5154986,-0.5948455,-0.7942748,-0.002185524,-0.4038368,-0.1146683,-0.1571728,-0.436215,-0.1959571,-0.08241946
9296,2023-01-20 11:09:09.381877,183696116,0,-0.5154986,-0.5948455,-0.7942748,-0.002185524,-0.4038368,-0.1146683,-0.1571728,-0.436215,-0.1959571,-0.08241946
9330,2023-01-20 11:09:09.481846,183796083,0,-0.4723187,-0.5632857,-0.7918222,0.1254914,-0.343265,0.01989913,-0.03056133,-0.3586853,-0.06346864,0.05950689
9361,2023-01-20 11:09:09.581874,183896107,0,-0.4723187,-0.5632857,-0.7918222,0.1254914,-0.343265,0.01989913,-0.03056133,-0.3586853,-0.06346864,0.05950689
9394,2023-01-20 11:09:09.681851,183996067,0,-0.4224823,-0.5185657,-0.7534236,0.2316342,-0.2842582,-0.003633559,-0.0624944,-0.4309725,-0.06297845,0.04579836
9428,2023-01-20 11:09:09.781874,184096071,0,-0.4224823,-0.5185657,-0.7534236,0.2316342,-0.2842582,-0.003633559,-0.0624944,-0.4309725,-0.06297845,0.04579836
9460,2023-01-20 11:09:09.881870,184196082,0,-0.3147181,-0.4131697,-0.6482724,0.377877,-0.1712959,-0.00708437,-0.07268476,-0.4716998,-0.03888786,0.05095112
9493,2023-01-20 11:09:09.981883,184296119,0,-0.3147181,-0.4131697,-0.6482724,0.377877,-0.1712959,-0.00708437,-0.07268476,-0.4716998,-0.03888786,0.05095112
9525,2023-01-20 11:09:10.081833,184396077,0,-0.3123649,-0.389681,-0.5591503,0.2709423,-0.1969492,-0.151998,-0.2139664,-0.5667107,-0.1220601,-0.09236097
9557,2023-01-20 11:09:10.181868,184496116,0,-0.3123649,-0.389681,-0.5591503,0.2709423,-0.1969492,-0.151998,-0.2139664,-0.5667107,-0.1220601,-0.09236097
9590,2023-01-20 11:09:10.281826,184596075,0,-0.3475513,-0.4099325,-0.524278,0.1750542,-0.250664,-0.04572308,-0.110095,-0.4488154,0.05209363,0.02152479
9621,2023-01-20 11:09:10.381842,184696092,0,-0.3475513,-0.4099325,-0.524278,0.1750542,-0.250664,-0.04572308,-0.110095,-0.4488154,0.05209363,0.02152479
9655,2023-01-20 11:09:10.481742,184796083,0,-0.3698756,-0.4115872,-0.472999,0.01092727,-0.3029715,0.005461752,-0.04663038,-0.307593,0.1177326,0.06241107
9688,2023-01-20 11:09:10.581646,184896098,0,-0.3698756,-0.4115872,-0.472999,0.01092727,-0.3029715,0.005461752,-0.04663038,-0.307593,0.1177326,0.06241107
9720,2023-01-20 11:09:10.681649,184996067,0,-0.4510318,-0.4717169,-0.4636753,-0.1859165,-0.4124264,-0.02229321,-0.07041132,-0.2819699,0.1438825,0.03507072
9753,2023-01-20 11:09:10.781770,185096121,0,-0.4510318,-0.4717169,-0.4636753,-0.1859165,-0.4124264,-0.02229321,-0.07041132,-0.2819699,0.1438825,0.03507072
9785,2023-01-20 11:09:10.881716,185196074,0,-0.1917719,-0.1997969,-0.1491682,0.004570782,-0.1700951,0.03437138,-0.01163292,-0.1941944,0.2336937,0.09229827
9818,2023-01-20 11:09:10.981713,185296093,0,-0.1917719,-0.1997969,-0.1491682,0.004570782,-0.1700951,0.03437138,-0.01163292,-0.1941944,0.2336937,0.09229827
9851,2023-01-20 11:09:11.081682,185396072,0,-0.264279,-0.2639043,-0.1928754,-0.1288909,-0.2549833,-0.08644122,-0.1265674,-0.2733015,0.1131377,-0.03396386
9883,2023-01-20 11:09:11.181698,185496096,0,-0.264279,-0.2639043,-0.1928754,-0.1288909,-0.2549833,-0.08644122,-0.1265674,-0.2733015,0.1131377,-0.03396386
9916,2023-01-20 11:09:11.281667,185596077,0,-0.1599059,-0.1549146,-0.06683055,-0.04614246,-0.1564812,-0.1382837,-0.1785851,-0.3180699,0.07774103,-0.08436489
9947,2023-01-20 11:09:11.381681,185696105,0,-0.1599059,-0.1549146,-0.06683055,-0.04614246,-0.1564812,-0.1382837,-0.1785851,-0.3180699,0.07774103,-0.08436489
9980,2023-01-20 11:09:11.481650,185796074,0,-0.3913553,-0.385239,-0.3143943,-0.3263022,-0.3926061,-0.1561289,-0.1839274,-0.275869,0.002809107,-0.1182242
10011,2023-01-20 11:09:11.581676,185896096,0,-0.3913553,-0.385239,-0.3143943,-0.3263022,-0.3926061,-0.1561289,-0.1839274,-0.275869,0.002809107,-0.1182242
10043,2023-01-20 11:09:11.681665,185996068,0,-0.285426,-0.2726868,-0.2038437,-0.3054812,-0.2992334,-0.1064009,-0.1188724,-0.1433784,0.0005606413,-0.08676642
10076,2023-01-20 11:09:11.781723,186096106,0,-0.285426,-0.2726868,-0.2038437,-0.3054812,-0.2992334,-0.1064009,-0.1188724,-0.1433784,0.0005606413,-0.08676642
10108,2023-01-20 11:09:11.881695,186196078,0,-0.2379472,-0.2247313,-0.1649646,-0.2817712,-0.2539476,-0.009547472,-0.0157693,-0.01651698,0.06840795,0.002055824
10141,2023-01-20 11:09:11.981697,186296086,0,-0.2379472,-0.2247313,-0.1649646,-0.2817712,-0.2539476,-0.009547472,-0.0157693,-0.01651698,0.06840795,0.002055824
10173,2023-01-20 11:09:12.081661,186396076,0,-0.2409862,-0.2293929,-0.1812477,-0.2880755,-0.255679,-0.06898063,-0.07194275,-0.06348628,-0.01270151,-0.06205785
10205,2023-01-20 11:09:12.181666,186496110,0,-0.2409862,-0.2293929,-0.1812477,-0.2880755,-0.255679,-0.06898063,-0.07194275,-0.06348628,-0.01270151,-0.06205785
10238,2023-01-20 11:09:12.281644,186596067,0,-0.2328207,-0.2119986,-0.1343594,-0.3326992,-0.2600851,-0.008510053,-0.009111226,0.02375537,0.06809604,-0.002231121
10270,2023-01-20 11:09:12.381693,186696083,0,-0.2328207,-0.2119986,-0.1343594,-0.3326992,-0.2600851,-0.008510053,-0.009111226,0.02375537,0.06809604,-0.002231121
10304,2023-01-20 11:09:12.481684,186796087,0,-0.3098826,-0.2871681,-0.2069328,-0.4272764,-0.3402087,0.04761493,0.0494529,0.09444654,0.118787,0.05121249
10335,2023-01-20 11:09:12.581661,186896088,0,-0.3098826,-0.2871681,-0.2069328,-0.4272764,-0.3402087,0.04761493,0.0494529,0.09444654,0.118787,0.05121249
10367,2023-01-20 11:09:12.681662,186996068,0,-0.1543569,-0.1343569,-0.07210411,-0.2747413,-0.1823505,-0.003733099,0.002786577,0.06018519,0.03518909,-0.006956875
10400,2023-01-20 11:09:12.781733,187096108,0,-0.1543569,-0.1343569,-0.07210411,-0.2747413,-0.1823505,-0.003733099,0.002786577,0.06018519,0.03518909,-0.006956875
10432,2023-01-20 11:09:12.881701,187196075,0,-0.3030449,-0.2839882,-0.2224341,-0.4130333,-0.3293472,-0.04946303,-0.04460102,0.005155921,-0.00591135,-0.05077547
10465,2023-01-20 11:09:12.981693,187296074,0,-0.3030449,-0.2839882,-0.2224341,-0.4130333,-0.3293472,-0.04946303,-0.04460102,0.005155921,-0.00591135,-0.05077547
10497,2023-01-20 11:09:13.081693,187396081,0,-0.06934504,-0.04972544,0.007697714,-0.1944111,-0.0972923,-0.07888037,-0.07043672,-0.006720483,-0.05085313,-0.08471346
10529,2023-01-20 11:09:13.181680,187496075,0,-0.06934504,-0.04972544,0.007697714,-0.1944111,-0.0972923,-0.07888037,-0.07043672,-0.006720483,-0.05085313,-0.08471346
10562,2023-01-20 11:09:13.281682,187596068,0,-0.1084902,-0.09614013,-0.05658567,-0.1805921,-0.1256235,-0.1956879,-0.1923265,-0.1594044,-0.1683372,-0.1968125
10593,2023-01-20 11:09:13.381709,187696083,0,-0.1084902,-0.09614013,-0.05658567,-0.1805921,-0.1256235,-0.1956879,-0.1923265,-0.1594044,-0.1683372,-0.1968125
10627,2023-01-20 11:09:13.481678,187796074,0,-0.3252273,-0.3103136,-0.2542717,-0.3948303,-0.3445445,-0.1589699,-0.1598846,-0.1381454,-0.1020956,-0.1538411
10658,2023-01-20 11:09:13.581642,187896067,0,-0.3252273,-0.3103136,-0.2542717,-0.3948303,-0.3445445,-0.1589699,-0.1598846,-0.1381454,-0.1020956,-0.1538411
10690,2023-01-20 11:09:13.681668,187996078,0,-0.2584404,-0.2372672,-0.1559057,-0.3527209,-0.2854488,-0.02367365,-0.02618623,0.0003572702,0.06256843,-0.01480722
10723,2023-01-20 11:09:13.781690,188096076,0,-0.2584404,-0.2372672,-0.1559057,-0.3527209,-0.2854488,-0.02367365,-0.02618623,0.0003572702,0.06256843,-0.01480722
10755,2023-01-20 11:09:13.881692,188196070,0,-0.1468391,-0.1107571,0.01705769,-0.3286358,-0.1943704,-0.1034994,-0.1015894,-0.03382313,0.01298887,-0.09645796
10788,2023-01-20 11:09:13.981708,188296082,0,-0.1468391,-0.1107571,0.01705769,-0.3286358,-0.1943704,-0.1034994,-0.1015894,-0.03382313,0.01298887,-0.09645796
10820,2023-01-20 11:09:14.081689,188396071,0,-0.2078596,-0.1492052,0.06597643,-0.4872156,-0.2838268,-0.1081588,-0.1096517,-0.01627582,0.1031215,-0.09071991
10852,2023-01-20 11:09:14.181683,188496075,0,-0.2078596,-0.1492052,0.06597643,-0.4872156,-0.2838268,-0.1081588,-0.1096517,-0.01627582,0.1031215,-0.09071991
10885,2023-01-20 11:09:14.281693,188596080,0,-0.2892528,-0.214193,0.08072722,-0.6054951,-0.3833177,0.06444515,0.05056079,0.1260502,0.392854,0.1023621
10918,2023-01-20 11:09:14.381693,188696071,0,-0.2892528,-0.214193,0.08072722,-0.6054951,-0.3833177,0.06444515,0.05056079,0.1260502,0.392854,0.1023621
10952,2023-01-20 11:09:14.481674,188796074,0,-0.4882798,-0.3931601,-0.01593572,-0.8811064,-0.6068853,-0.2881991,-0.3084599,-0.223764,0.141186,-0.2367067
10983,2023-01-20 11:09:14.581648,188896077,0,-0.4882798,-0.3931601,-0.01593572,-0.8811064,-0.6068853,-0.2881991,-0.3084599,-0.223764,0.141186,-0.2367067
11015,2023-01-20 11:09:14.681663,188996072,0,-0.0620214,0.04807075,0.4853151,-0.5113873,-0.1988937,-0.07263479,-0.09756363,-0.005839169,0.4320224,-0.01108579
11048,2023-01-20 11:09:14.781691,189096070,0,-0.0620214,0.04807075,0.4853151,-0.5113873,-0.1988937,-0.07263479,-0.09756363,-0.005839169,0.4320224,-0.01108579
11080,2023-01-20 11:09:14.881700,189196090,0,-0.2006455,-0.09615566,0.3318041,-0.6038082,-0.3288445,-0.05407251,-0.08535012,-0.02721063,0.4623449,0.01420842
11113,2023-01-20 11:09:14.981671,189296081,0,-0.2006455,-0.09615566,0.3318041,-0.6038082,-0.3288445,-0.05407251,-0.08535012,-0.02721063,0.4623449,0.01420842
11145,2023-01-20 11:09:15.081665,189396070,0,-0.1963424,-0.09885536,0.3047895,-0.5647222,-0.315412,-0.015535,-0.04762003,-0.005252796,0.4810272,0.05191967
11177,2023-01-20 11:09:15.181688,189496083,0,-0.1963424,-0.09885536,0.3047895,-0.5647222,-0.315412,-0.015535,-0.04762003,-0.005252796,0.4810272,0.05191967
11210,2023-01-20 11:09:15.281694,189596072,0,-0.2747056,-0.1843078,0.2000681,-0.5957538,-0.3836257,-0.03545295,-0.07170054,-0.05707988,0.4575818,0.03557565
11244,2023-01-20 11:09:15.381713,189696072,0,-0.2747056,-0.1843078,0.2000681,-0.5957538,-0.3836257,-0.03545295,-0.07170054,-0.05707988,0.4575818,0.03557565
11278,2023-01-20 11:09:15.481697,189796091,0,-0.210921,-0.1313904,0.21495,-0.4754464,-0.3054492,-0.02943142,-0.06684048,-0.07476687,0.4322179,0.04029156
11311,2023-01-20 11:09:15.581637,189896078,0,-0.210921,-0.1313904,0.21495,-0.4754464,-0.3054492,-0.02943142,-0.06684048,-0.07476687,0.4322179,0.04029156
11343,2023-01-20 11:09:15.681658,189996072,0,0.02640934,0.09382468,0.3895944,-0.1932174,-0.05340791,-0.007776693,-0.04110533,-0.05430453,0.3920382,0.05344442
11376,2023-01-20 11:09:15.781712,190096081,0,0.02640934,0.09382468,0.3895944,-0.1932174,-0.05340791,-0.007776693,-0.04110533,-0.05430453,0.3920382,0.05344442
11408,2023-01-20 11:09:15.881710,190196071,0,-0.345611,-0.2870719,-0.03831346,-0.5557363,-0.4163803,-0.09288388,-0.116586,-0.1096999,0.2284525,-0.04663232
11441,2023-01-20 11:09:15.981721,190296082,0,-0.345611,-0.2870719,-0.03831346,-0.5557363,-0.4163803,-0.09288388,-0.116586,-0.1096999,0.2284525,-0.04663232
11473,2023-01-20 11:09:16.081723,190396087,0,-0.260349,-0.2088284,-0.006301865,-0.4804198,-0.3252371,-0.08845209,-0.0991917,-0.05682401,0.1440183,-0.06105564
11505,2023-01-20 11:09:16.181708,190496075,0,-0.260349,-0.2088284,-0.006301865,-0.4804198,-0.3252371,-0.08845209,-0.0991917,-0.05682401,0.1440183,-0.06105564
11538,2023-01-20 11:09:16.281705,190596072,0,-0.3204847,-0.2715445,-0.1139758,-0.6058985,-0.3877634,-0.0801686,-0.06839858,0.0507759,0.0310367,-0.08305597
11569,2023-01-20 11:09:16.381706,190696071,0,-0.3204847,-0.2715445,-0.1139758,-0.6058985,-0.3877634,-0.0801686,-0.06839858,0.0507759,0.0310367,-0.08305597
11603,2023-01-20 11:09:16.481691,190796070,0,-0.2527714,-0.2167012,-0.1354429,-0.5404124,-0.3080647,-0.1028324,-0.07196632,0.09528995,-0.1316788,-0.1341731
11634,2023-01-20 11:09:16.581676,190896073,0,-0.2527714,-0.2167012,-0.1354429,-0.5404124,-0.3080647,-0.1028324,-0.07196632,0.09528995,-0.1316788,-0.1341731
11666,2023-01-20 11:09:16.681684,190996072,0,-0.2129337,-0.2014169,-0.23564,-0.4393226,-0.240517,0.01027595,0.05880405,0.2508483,-0.1923673,-0.05065615
11699,2023-01-20 11:09:16.781713,191096087,0,-0.2129337,-0.2014169,-0.23564,-0.4393226,-0.240517,0.01027595,0.05880405,0.2508483,-0.1923673,-0.05065615
11731,2023-01-20 11:09:16.881707,191196074,0,-0.4184233,-0.4216033,-0.5355629,-0.6322443,-0.4311669,-0.06841993,-0.002277255,0.2302814,-0.411102,-0.1563897
11764,2023-01-20 11:09:16.981712,191296074,0,-0.4184233,-0.4216033,-0.5355629,-0.6322443,-0.4311669,-0.06841993,-0.002277255,0.2302814,-0.411102,-0.1563897
11796,2023-01-20 11:09:17.081707,191396071,0,-0.4372329,-0.4602175,-0.6782484,-0.6266261,-0.4293639,0.05268309,0.1407695,0.4221894,-0.4712245,-0.06944388
11828,2023-01-20 11:09:17.181705,191496072,0,-0.4372329,-0.4602175,-0.6782484,-0.6266261,-0.4293639,0.05268309,0.1407695,0.4221894,-0.4712245,-0.06944388
11861,2023-01-20 11:09:17.281708,191596071,0,-0.4043218,-0.4277204,-0.6654658,-0.6324819,-0.3987107,0.04839817,0.1490823,0.4774738,-0.545555,-0.09081192
11892,2023-01-20 11:09:17.381722,191696078,0,-0.4043218,-0.4277204,-0.6654658,-0.6324819,-0.3987107,0.04839817,0.1490823,0.4774738,-0.545555,-0.09081192
11926,2023-01-20 11:09:17.481702,191796084,0,-0.308454,-0.3539494,-0.7019454,-0.4911575,-0.2783176,0.003164053,0.1246259,0.4976599,-0.7788619,-0.1694897
11957,2023-01-20 11:09:17.581656,191896072,0,-0.308454,-0.3539494,-0.7019454,-0.4911575,-0.2783176,0.003164053,0.1246259,0.4976599,-0.7788619,-0.1694897
11989,2023-01-20 11:09:17.681676,191996071,0,0.1125349,0.04579353,-0.407315,-0.02006769,0.1669279,0.05354762,0.194833,0.61347,-0.9132969,-0.1512773
12022,2023-01-20 11:09:17.781714,192096075,0,0.1125349,0.04579353,-0.407315,-0.02006769,0.1669279,0.05354762,0.194833,0.61347,-0.9132969,-0.1512773
12054,2023-01-20 11:09:17.881715,192196073,0,-0.201823,-0.2987036,-0.8760033,-0.2029872,-0.1087668,0.02186912,0.1741753,0.5947583,-1.115149,-0.2054864
12087,2023-01-20 11:09:17.981717,192296079,0,-0.201823,-0.2987036,-0.8760033,-0.2029872,-0.1087668,0.02186912,0.1741753,0.5947583,-1.115149,-0.2054864
12120,2023-01-20 11:09:18.081701,192396080,0,-0.4845691,-0.6001825,-1.2615,-0.4025002,-0.366828,-0.1104827,0.05364645,0.5033019,-1.391322,-0.3589438
12152,2023-01-20 11:09:18.181679,192496077,0,-0.4845691,-0.6001825,-1.2615,-0.4025002,-0.366828,-0.1104827,0.05364645,0.5033019,-1.391322,-0.3589438
12185,2023-01-20 11:09:18.274343,192596070,0,-0.7885215,-0.9203677,-1.656531,-0.6167593,-0.6475611,-0.3517944,-0.1755599,0.3176458,-1.780417,-0.6214571
12216,2023-01-20 11:09:18.365381,192696079,0,-0.7885215,-0.9203677,-1.656531,-0.6167593,-0.6475611,-0.3517944,-0.1755599,0.3176458,-1.780417,-0.6214571
12250,2023-01-20 11:09:18.461918,192796071,0,-0.580905,-0.7325776,-1.542145,-0.23048,-0.4064775,-0.2271307,-0.04899049,0.4590727,-1.771201,-0.505022
12281,2023-01-20 11:09:18.561848,192896071,0,-0.580905,-0.7325776,-1.542145,-0.23048,-0.4064775,-0.2271307,-0.04899049,0.4590727,-1.771201,-0.505022
12314,2023-01-20 11:09:18.661821,192996071,0,-0.4592443,-0.6222188,-1.441836,0.1295297,-0.2561805,-0.2036865,-0.05232358,0.374609,-1.654948,-0.446975
12347,2023-01-20 11:09:18.761825,193096074,0,-0.4592443,-0.6222188,-1.441836,0.1295297,-0.2561805,-0.2036865,-0.05232358,0.374609,-1.654948,-0.446975
12379,2023-01-20 11:09:18.861809,193196092,0,-0.6165345,-0.7893584,-1.619434,0.2077174,-0.3871551,-0.2896338,-0.1661432,0.1732981,-1.613743,-0.4947133
12412,2023-01-20 11:09:18.961737,193296076,0,-0.6165345,-0.7893584,-1.619434,0.2077174,-0.3871551,-0.2896338,-0.1661432,0.1732981,-1.613743,-0.4947133
12444,2023-01-20 11:09:19.061722,193396068,0,-1.200156,-1.367884,-2.160359,-0.2355509,-0.9660349,-0.2900305,-0.1924906,0.08229804,-1.43392,-0.4553497
12476,2023-01-20 11:09:19.161751,193496074,0,-1.200156,-1.367884,-2.160359,-0.2355509,-0.9660349,-0.2900305,-0.1924906,0.08229804,-1.43392,-0.4553497
12509,2023-01-20 11:09:19.261823,193596077,0,-0.8798769,-1.03195,-1.772189,0.1472831,-0.6569085,-0.2591259,-0.1823456,0.0559597,-1.20092,-0.3885937
12541,2023-01-20 11:09:19.361931,193696087,0,-0.8798769,-1.03195,-1.772189,0.1472831,-0.6569085,-0.2591259,-0.1823456,0.0559597,-1.20092,-0.3885937
12576,2023-01-20 11:09:19.461859,193796072,0,-0.392772,-0.5337582,-1.236715,0.6899602,-0.1776242,-0.4358704,-0.3788011,-0.1939359,-1.179186,-0.5313563
12607,2023-01-20 11:09:19.561710,193896076,0,-0.392772,-0.5337582,-1.236715,0.6899602,-0.1776242,-0.4358704,-0.3788011,-0.1939359,-1.179186,-0.5313563
12640,2023-01-20 11:09:19.661668,193996072,0,-0.8963745,-1.026459,-1.679288,0.207798,-0.6916027,-0.6042037,-0.5649157,-0.4334116,-1.159907,-0.6690063
12674,2023-01-20 11:09:19.761703,194096072,0,-0.8963745,-1.026459,-1.679288,0.207798,-0.6916027,-0.6042037,-0.5649157,-0.4334116,-1.159907,-0.6690063
12706,2023-01-20 11:09:19.861708,194196071,0,0.1081941,0.001078606,-0.5686584,1.112375,0.2828467,-0.9711728,-0.9407363,-0.8198891,-1.364907,-1.016572
12739,2023-01-20 11:09:19.961701,194296074,0,0.1081941,0.001078606,-0.5686584,1.112375,0.2828467,-0.9711728,-0.9407363,-0.8198891,-1.364907,-1.016572
12772,2023-01-20 11:09:20.061706,194396076,0,0.07150698,-0.01212192,-0.4587324,0.9333715,0.2121871,-0.754952,-0.7365284,-0.6429844,-0.982265,-0.7783012
12804,2023-01-20 11:09:20.161720,194496077,0,0.07150698,-0.01212192,-0.4587324,0.9333715,0.2121871,-0.754952,-0.7365284,-0.6429844,-0.982265,-0.7783012
12836,2023-01-20 11:09:20.261712,194596071,0,-0.3770854,-0.4421666,-0.7921157,0.3495672,-0.2646894,-0.947927,-0.9394522,-0.8796282,-1.044056,-0.9538183
12868,2023-01-20 11:09:20.361708,194696077,0,-0.3770854,-0.4421666,-0.7921157,0.3495672,-0.2646894,-0.947927,-0.9394522,-0.8796282,-1.044056,-0.9538183
12902,2023-01-20 11:09:20.461686,194796073,0,-0.8037577,-0.8493199,-1.107144,-0.2422199,-0.7220745,-0.9421835,-0.9371662,-0.8863201,-0.9620147,-0.9407558
12935,2023-01-20 11:09:20.561663,194896072,0,-0.8037577,-0.8493199,-1.107144,-0.2422199,-0.7220745,-0.9421835,-0.9371662,-0.8863201,-0.9620147,-0.9407558
12968,2023-01-20 11:09:20.661683,194996088,0,-1.152898,-1.185259,-1.381642,-0.7117062,-1.09248,-1.032006,-1.029901,-0.9955068,-0.9958434,-1.024849
13001,2023-01-20 11:09:20.761687,195096070,0,-1.152898,-1.185259,-1.381642,-0.7117062,-1.09248,-1.032006,-1.029901,-0.9955068,-0.9958434,-1.024849
13033,2023-01-20 11:09:20.861702,195196079,0,-1.036759,-1.057839,-1.197555,-0.7022681,-0.9948075,-1.235576,-1.237696,-1.231817,-1.136492,-1.220689
13066,2023-01-20 11:09:20.961705,195296084,0,-1.036759,-1.057839,-1.197555,-0.7022681,-0.9948075,-1.235576,-1.237696,-1.231817,-1.136492,-1.220689
13099,2023-01-20 11:09:21.061692,195396071,0,-0.5813158,-0.5922258,-0.6765609,-0.3526647,-0.5565863,-1.039785,-1.043344,-1.051356,-0.909925,-1.022116
13130,2023-01-20 11:09:21.161697,195496074,0,-0.5813158,-0.5922258,-0.6765609,-0.3526647,-0.5565863,-1.039785,-1.043344,-1.051356,-0.909925,-1.022116
13164,2023-01-20 11:09:21.261705,195596081,0,-0.8163719,-0.8196657,-0.8567364,-0.6730092,-0.8049796,-1.16832,-1.173712,-1.196352,-1.014121,-1.147884
13196,2023-01-20 11:09:21.361696,195696072,0,-0.8163719,-0.8196657,-0.8567364,-0.6730092,-0.8049796,-1.16832,-1.173712,-1.196352,-1.014121,-1.147884
13230,2023-01-20 11:09:21.461698,195796102,0,-1.03507,-1.031255,-1.02016,-0.9722497,-1.036271,-0.9296474,-0.9382706,-0.9856787,-0.7374711,-0.9040279
13261,2023-01-20 11:09:21.561641,195896091,0,-1.03507,-1.031255,-1.02016,-0.9722497,-1.036271,-0.9296474,-0.9382706,-0.9856787,-0.7374711,-0.9040279
13294,2023-01-20 11:09:21.661631,195996068,0,-1.538138,-1.528502,-1.473883,-1.543236,-1.549832,-0.8732553,-0.8857193,-0.961607,-0.640841,-0.841639
13327,2023-01-20 11:09:21.761686,196096072,0,-1.538138,-1.528502,-1.473883,-1.543236,-1.549832,-0.8732553,-0.8857193,-0.961607,-0.640841,-0.841639
13359,2023-01-20 11:09:21.861711,196196080,0,-1.538908,-1.5244,-1.432391,-1.602671,-1.559467,-0.7931376,-0.8074765,-0.8973317,-0.5422893,-0.7589173
13392,2023-01-20 11:09:21.961700,196296073,0,-1.538908,-1.5244,-1.432391,-1.602671,-1.559467,-0.7931376,-0.8074765,-0.8973317,-0.5422893,-0.7589173
13425,2023-01-20 11:09:22.061693,196396080,0,-0.8368547,-0.818186,-0.6929834,-0.9501486,-0.8649633,-1.247472,-1.263994,-1.368563,-0.9764709,-1.210158
13456,2023-01-20 11:09:22.161677,196496085,0,-0.8368547,-0.818186,-0.6929834,-0.9501486,-0.8649633,-1.247472,-1.263994,-1.368563,-0.9764709,-1.210158
13490,2023-01-20 11:09:22.261667,196596071,0,-0.5770247,-0.5568004,-0.4161823,-0.7142725,-0.6083307,-0.7582431,-0.7760854,-0.8924251,-0.4751134,-0.7190814
13522,2023-01-20 11:09:22.361688,196696072,0,-0.5770247,-0.5568004,-0.4161823,-0.7142725,-0.6083307,-0.7582431,-0.7760854,-0.8924251,-0.4751134,-0.7190814
13556,2023-01-20 11:09:22.461691,196796083,0,-1.032475,-1.011549,-0.863462,-1.184788,-1.065434,-1.001444,-1.019186,-1.135778,-0.7243605,-0.9630837
13587,2023-01-20 11:09:22.561657,196896074,0,-1.032475,-1.011549,-0.863462,-1.184788,-1.065434,-1.001444,-1.019186,-1.135778,-0.7243605,-0.9630837
13620,2023-01-20 11:09:22.661656,196996067,0,-0.7673459,-0.7452402,-0.5866606,-0.9397428,-0.8027687,-1.041064,-1.058162,-1.170441,-0.7746921,-1.004383
13653,2023-01-20 11:09:22.761694,197096081,0,-0.7673459,-0.7452402,-0.5866606,-0.9397428,-0.8027687,-1.041064,-1.058162,-1.170441,-0.7746921,-1.004383
13685,2023-01-20 11:09:22.861695,197196071,0,-0.7390196,-0.7161937,-0.5516579,-0.9290543,-0.7762027,-0.9238973,-0.9385161,-1.033312,-0.6881466,-0.8921132
13718,2023-01-20 11:09:22.961698,197296071,0,-0.7390196,-0.7161937,-0.5516579,-0.9290543,-0.7762027,-0.9238973,-0.9385161,-1.033312,-0.6881466,-0.8921132
13751,2023-01-20 11:09:23.061711,197396081,0,-1.130603,-1.107873,-0.9434285,-1.328424,-1.168061,-0.7374291,-0.7498617,-0.8290443,-0.5309582,-0.7101078
13782,2023-01-20 11:09:23.161708,197496075,0,-1.130603,-1.107873,-0.9434285,-1.328424,-1.168061,-0.7374291,-0.7498617,-0.8290443,-0.5309582,-0.7101078
13816,2023-01-20 11:09:23.261696,197596067,0,-1.193308,-1.17182,-1.015844,-1.383719,-1.228883,-0.5514541,-0.5627494,-0.6338048,-0.3654613,-0.5268545
13848,2023-01-20 11:09:23.361701,197696081,0,-1.193308,-1.17182,-1.015844,-1.383719,-1.228883,-0.5514541,-0.5627494,-0.6338048,-0.3654613,-0.5268545
13882,2023-01-20 11:09:23.461685,197796077,0,-0.8709016,-0.8507824,-0.7054243,-1.053391,-0.9043801,-0.6336055,-0.6426306,-0.6971784,-0.4803019,-0.613709
13913,2023-01-20 11:09:23.561682,197896087,0,-0.8709016,-0.8507824,-0.7054243,-1.053391,-0.9043801,-0.6336055,-0.6426306,-0.6971784,-0.4803019,-0.613709
13946,2023-01-20 11:09:23.661678,197996074,0,-0.7440615,-0.7251863,-0.5881827,-0.916966,-0.775562,-0.7634945,-0.7721581,-0.8245034,-0.6203423,-0.7447572
13979,2023-01-20 11:09:23.761700,198096073,0,-0.7440615,-0.7251863,-0.5881827,-0.916966,-0.775562,-0.7634945,-0.7721581,-0.8245034,-0.6203423,-0.7447572
14011,2023-01-20 11:09:23.861703,198196071,0,-0.9833574,-0.9660096,-0.8399987,-1.14479,-1.012432,-0.733089,-0.7404428,-0.7840118,-0.6099596,-0.7171388
14044,2023-01-20 11:09:23.961705,198296080,0,-0.9833574,-0.9660096,-0.8399987,-1.14479,-1.012432,-0.733089,-0.7404428,-0.7840118,-0.6099596,-0.7171388
14077,2023-01-20 11:09:24.061682,198396071,0,-0.3674521,-0.3520052,-0.2389541,-0.5100162,-0.393301,-0.5801229,-0.5878344,-0.6349683,-0.4586735,-0.5639362
14108,2023-01-20 11:09:24.161675,198496084,0,-0.3674521,-0.3520052,-0.2389541,-0.5100162,-0.393301,-0.5801229,-0.5878344,-0.6349683,-0.4586735,-0.5639362
14142,2023-01-20 11:09:24.261675,198596075,0,-0.8254626,-0.8115954,-0.7088861,-0.95116,-0.848588,-0.5396109,-0.5482082,-0.6028657,-0.4122777,-0.5220923
14174,2023-01-20 11:09:24.361698,198696071,0,-0.8254626,-0.8115954,-0.7088861,-0.95116,-0.848588,-0.5396109,-0.5482082,-0.6028657,-0.4122777,-0.5220923
14208,2023-01-20 11:09:24.461694,198796075,0,-0.4597142,-0.4464648,-0.3479383,-0.5801544,-0.4818337,-0.9395185,-0.9480557,-1.002529,-0.8154187,-0.9223185
14240,2023-01-20 11:09:24.561657,198896067,0,-0.4597142,-0.4464648,-0.3479383,-0.5801544,-0.4818337,-0.9395185,-0.9480557,-1.002529,-0.8154187,-0.9223185
14273,2023-01-20 11:09:24.661654,198996072,0,-0.8762341,-0.8633745,-0.7672145,-0.9940805,-0.8977635,-0.3579078,-0.3663535,-0.4204636,-0.2366576,-0.3410392
14306,2023-01-20 11:09:24.761668,199096080,0,-0.8762341,-0.8633745,-0.7672145,-0.9940805,-0.8977635,-0.3579078,-0.3663535,-0.4204636,-0.2366576,-0.3410392
14338,2023-01-20 11:09:24.861669,199196067,0,-1.002787,-0.9895425,-0.891664,-1.128464,-1.025137,-0.579565,-0.5861812,-0.6264677,-0.479197,-0.566082
14371,2023-01-20 11:09:24.961691,199296070,0,-1.002787,-0.9895425,-0.891664,-1.128464,-1.025137,-0.579565,-0.5861812,-0.6264677,-0.479197,-0.566082
14404,2023-01-20 11:09:25.061700,199396072,0,-1.136059,-1.124319,-1.03778,-1.247787,-1.15588,-0.6954203,-0.7010579,-0.7350073,-0.6091022,-0.6838903
14435,2023-01-20 11:09:25.161720,199496091,0,-1.136059,-1.124319,-1.03778,-1.247787,-1.15588,-0.6954203,-0.7010579,-0.7350073,-0.6091022,-0.6838903
14469,2023-01-20 11:09:25.261706,199596071,0,-0.6205282,-0.6094232,-0.5275075,-0.7266383,-0.6392975,-0.4575052,-0.4628673,-0.4950657,-0.3762369,-0.4466219
14501,2023-01-20 11:09:25.361727,199696083,0,-0.6205282,-0.6094232,-0.5275075,-0.7266383,-0.6392975,-0.4575052,-0.4628673,-0.4950657,-0.3762369,-0.4466219
14535,2023-01-20 11:09:25.461708,199796082,0,-0.6804543,-0.6696098,-0.5898323,-0.7854781,-0.6988435,-0.4296784,-0.4344087,-0.4620838,-0.3566918,-0.420042
14568,2023-01-20 11:09:25.561656,199896067,0,-0.6804543,-0.6696098,-0.5898323,-0.7854781,-0.6988435,-0.4296784,-0.4344087,-0.4620838,-0.3566918,-0.420042
14601,2023-01-20 11:09:25.661662,199996071,0,-1.130932,-1.121273,-1.047568,-1.218767,-1.147098,-0.6864858,-0.6947136,-0.7486,-0.5779963,-0.6707883
14634,2023-01-20 11:09:25.761688,200096071,0,-1.130932,-1.121273,-1.047568,-1.218767,-1.147098,-0.6864858,-0.6947136,-0.7486,-0.5779963,-0.6707883
14666,2023-01-20 11:09:25.861698,200196068,0,-0.7032034,-0.6938269,-0.6205778,-0.7852852,-0.718787,-0.4174757,-0.4279051,-0.4979258,-0.2860231,-0.3979492
14699,2023-01-20 11:09:25.961710,200296074,0,-0.7032034,-0.6938269,-0.6205778,-0.7852852,-0.718787,-0.4174757,-0.4279051,-0.4979258,-0.2860231,-0.3979492
14732,2023-01-20 11:09:26.061694,200396072,0,-0.9837465,-0.9742391,-0.8990123,-1.065677,-0.9995096,-0.4964862,-0.5083156,-0.5884085,-0.3501663,-0.4745255
14763,2023-01-20 11:09:26.161669,200496073,0,-0.9837465,-0.9742391,-0.8990123,-1.065677,-0.9995096,-0.4964862,-0.5083156,-0.5884085,-0.3501663,-0.4745255
14797,2023-01-20 11:09:26.261672,200596070,0,-0.6395953,-0.6294601,-0.5481904,-0.725462,-0.6563542,-0.1709538,-0.1849875,-0.2806506,-0.0002264977,-0.1450958
14829,2023-01-20 11:09:26.361701,200696074,0,-0.6395953,-0.6294601,-0.5481904,-0.725462,-0.6563542,-0.1709538,-0.1849875,-0.2806506,-0.0002264977,-0.1450958
14863,2023-01-20 11:09:26.461693,200796074,0,-0.8440151,-0.8339517,-0.7523274,-0.9276693,-0.8606009,-0.5564127,-0.5717025,-0.6765022,-0.3726611,-0.5283775
14894,2023-01-20 11:09:26.561671,200896083,0,-0.8440151,-0.8339517,-0.7523274,-0.9276693,-0.8606009,-0.5564127,-0.5717025,-0.6765022,-0.3726611,-0.5283775
14927,2023-01-20 11:09:26.661651,200996072,0,-0.8480866,-0.8383043,-0.756803,-0.9252074,-0.8640609,-0.5897236,-0.6076546,-0.7318997,-0.3779416,-0.5570455
